time(millisecond),datetime(utc),latitude,longitude,height_above_takeoff(feet),height_above_ground_at_drone_location(feet),ground_elevation_at_drone_location(feet),altitude_above_seaLevel(feet),height_sonar(feet),speed(mph),distance(feet),mileage(feet),satellites,gpslevel,voltage(v),max_altitude(feet),max_ascent(feet),max_speed(mph),max_distance(feet), xSpeed(mph), ySpeed(mph), zSpeed(mph), compass_heading(degrees), pitch(degrees), roll(degrees),isPhoto,isVideo,rc_elevator,rc_aileron,rc_throttle,rc_rudder,rc_elevator(percent),rc_aileron(percent),rc_throttle(percent),rc_rudder(percent),gimbal_heading(degrees),gimbal_pitch(degrees),gimbal_roll(degrees),battery_percent,voltageCell1,voltageCell2,voltageCell3,voltageCell4,voltageCell5,voltageCell6,current(A),battery_temperature(f),altitude(feet),ascent(feet),flycStateRaw,flycState,message
123400,2025-08-24 20:42:07,39.0868839171552,-76.6192698893693,0,Available with any HD 360 subscription,Available with any HD 360 subscription,76.814901736292,0.328084,0,0,0,17,5,0,76.814901736292,0,0,0,0,0,0,87.1, 3.4, 0.3,0,0,1024,1024,1024,1024,0,0,0,0,101.7,0,0,93,4.081,4.079,4.079,4.067,0,0,0,104.18,76.814901736292,0,6,P-GPS,"SD card speed low SD card speed low. Normal use may be affected. Replace SD card (Code: 10028). Aircraft not in flight. Vision systems and obstacle avoidance disabled (Code: 180059). Remote ID functionality normal (Code: 30331)"
123500,2025-08-24 20:42:07,39.0868838815224,-76.6192698876695,0,,,76.814901736292,0.328084,0,0.013009514852,0.013009514852,17,5,0,76.814901736292,0,0,0.013009514852,0,0,0,87.1, 3.4, 0.3,0,0,1024,1024,1024,1024,0,0,0,0,101.6,0,0,93,4.081,4.079,4.079,4.067,0,0,0,104.18,76.814901736292,0,41,Motors_Started,
123600,2025-08-24 20:42:08,39.0868839636982,-76.6192698942974,0,,,76.814901736292,0.328084,0,0.0170384519888,0.043050198228,17,5,0,76.814901736292,0,0,0.0170384519888,0,0,0,87.1, 3.4, 0.3,0,0,1024,1024,1024,1024,0,0,0,0,101.6,0,0,93,4.081,4.079,4.079,4.067,0,0,0,104.18,76.814901736292,0,41,Motors_Started,"Aircraft in Warning Zone (Seaplane Base). Fly with caution"
123700,2025-08-24 20:42:08,39.0868839583714,-76.6192698820212,0,,,76.814901736292,0.328084,0,0.0151810044228,0.047032809904,17,5,0,76.814901736292,0,0,0.0170384519888,0,0,0,87.1, 3.4, 0.3,0,0,1024,1024,1024,1024,0,0,0,0,101.6,0,0,93,4.081,4.079,4.079,4.067,0,0,0,104.18,76.814901736292,0,41,Motors_Started,"Setting new Return-To-Home altitude to 65m (213 ft). Data Recorder File Index is 64. Setting new Maximum Flight Altitude to 120m (394 ft)"
123800,2025-08-24 20:42:08,39.0868838757034,-76.6192699685007,0,,,76.814901736292,0.328084,0,2.14755256216,0.085885173352,16,5,0,76.814901736292,0,0,2.14755256216,0,0,0,87.1, 3.4, 0.3,0,0,1024,1024,1024,1024,0,0,0,0,101.6,0,0,93,4.081,4.079,4.079,4.067,0,0,0,104.18,76.814901736292,0,41,Motors_Started,
123900,2025-08-24 20:42:08,39.0868838708681,-76.6192699316033,0,,,76.814901736292,0.328084,0,2.15638786428,0.096481958468,16,5,0,76.814901736292,0,0,2.15638786428,0,0,0,87.1, 3.4, 0.3,0,0,1024,1024,1024,1024,0,0,0,0,101.6,0,0,93,4.081,4.079,4.079,4.067,0,0,0,104.18,76.814901736292,0,41,Motors_Started,
124000,2025-08-24 20:42:08,39.0868837797142,-76.6192702825764,0,,,76.814901736292,0.328084,0,2.10844494936,0.201291673108,16,5,0,76.814901736292,0,0,2.15638786428,0,0,0,87.1, 3.4, 0.3,0,0,1024,1024,1024,1024,0,0,0,0,101.6,0,0,93,4.081,4.079,4.079,4.067,0,0,0,104.18,76.814901736292,0,41,Motors_Started,
124100,2025-08-24 20:42:08,39.086883792301,-76.6192703218276,0,,,76.814901736292,0.328084,0,2.09738523772,0.21331857638,16,5,16.257,76.814901736292,0,0,2.15638786428,0,0,0,87.1, 3.4, 0.3,0,0,1024,1024,1024,1024,0,0,0,0,101.6,0,0,93,4.081,4.079,4.079,4.067,0,0,2.151,104.18,76.814901736292,0,41,Motors_Started,
124200,2025-08-24 20:42:08,39.0868837861644,-76.6192704348103,0,,,76.814901736292,0.328084,0,2.07677172,0.245392724388,16,5,16.257,76.814901736292,0,0,2.15638786428,0,0,0,87.1, 3.4, 0.2,0,0,1024,1024,1024,1024,0,0,0,0,101.6,0,0,93,4.081,4.079,4.079,4.067,0,0,2.151,104.18,76.814901736292,0,41,Motors_Started,
124300,2025-08-24 20:42:08,39.0868837871077,-76.6192704458751,0,,,76.814901736292,0.328084,0,2.0743603026,0.24854495546,16,5,16.257,76.814901736292,0,0,2.15638786428,0,0,0,87.1, 3.4, 0.3,0,0,1024,1024,1024,1024,0,0,0,0,101.6,0,0,93,4.081,4.079,4.079,4.067,0,0,2.151,104.18,76.814901736292,0,41,Motors_Started,
124400,2025-08-24 20:42:08,39.0868838794002,-76.6192706106583,0,,,76.814901736292,0.328084,0,2.01782158688,0.30609088906,16,5,16.257,76.814901736292,0,0,2.15638786428,0,0,0,87.1, 3.4, 0.3,0,0,1024,1024,1024,1024,0,0,0,0,101.6,0,0,93,4.081,4.079,4.079,4.067,0,0,2.151,104.18,76.814901736292,0,41,Motors_Started,
124500,2025-08-24 20:42:09,39.086883879789,-76.6192706143227,0,,,76.814901736292,0.328084,0,2.01700465772,0.307138133188,16,5,16.257,76.814901736292,0,0,2.15638786428,0,0,0,87.1, 3.4, 0.3,0,0,1024,1024,1024,1024,0,0,0,0,101.6,0,0,93,4.081,4.079,4.079,4.067,0,0,2.151,104.18,76.814901736292,0,41,Motors_Started,
124600,2025-08-24 20:42:09,39.0868838806371,-76.6192707055041,0,,,76.814901736292,0.328084,0,1.9991634498,0.33296260908,16,5,16.257,76.814901736292,0,0,2.15638786428,0,0,0,87.1, 3.4, 0.3,0,0,1024,1024,1024,1024,0,0,0,0,101.6,0,0,93,4.081,4.079,4.079,4.067,0,0,2.151,104.18,76.814901736292,0,41,Motors_Started,
124700,2025-08-24 20:42:09,39.0868838790092,-76.6192707064753,0,,,76.814901736292,0.328084,0,1.99941279364,0.33361549624,16,5,16.257,76.814901736292,0,0,2.15638786428,0,0,0,87.1, 3.4, 0.3,0,0,1024,1024,1024,1024,0,0,0,0,101.6,0,0,93,4.081,4.079,4.079,4.067,0,0,2.151,104.18,76.814901736292,0,41,Motors_Started,
124800,2025-08-24 20:42:09,39.0868837821178,-76.6192708037272,0,,,76.814901736292,0.328084,0,2.00717526108,0.3784284898,16,5,16.257,76.814901736292,0,0,2.15638786428,0,0,0,87.1, 3.4, 0.3,0,0,1024,1024,1024,1024,0,0,0,0,101.6,0,0,93,4.081,4.079,4.079,4.067,0,0,2.151,104.18,76.814901736292,0,41,Motors_Started,
124900,2025-08-24 20:42:09,39.0868837837055,-76.6192708036306,0,,,76.814901736292,0.328084,0,2.0067585944,0.37900919848,16,5,16.257,76.814901736292,0,0,2.15638786428,0,0,0,87.1, 3.4, 0.3,0,0,1024,1024,1024,1024,0,0,0,0,101.6,0,0,93,4.081,4.079,4.079,4.067,0,0,2.151,104.18,76.814901736292,0,41,Motors_Started,
125000,2025-08-24 20:42:09,39.0868837795853,-76.6192709027616,0,,,76.814901736292,0.328084,0,1.98941279332,0.40712271644,16,5,16.257,76.814901736292,0,0,2.15638786428,0,0,0,87.1, 3.4, 0.2,0,0,1024,1024,1024,1024,0,0,0,0,101.6,0,0,93,4.081,4.079,4.079,4.067,0,0,2.151,104.18,76.814901736292,0,11,AutoTakeoff,
125100,2025-08-24 20:42:09,39.0868837807372,-76.6192709015778,0,,,76.814901736292,0.328084,0,1.98931436812,0.4076607742,16,5,16.224,76.814901736292,0,0,2.15638786428,0,0,0,87.1, 3.4, 0.2,0,0,1024,1024,1024,1024,0,0,0,0,101.6,0,0,93,4.06,4.058,4.058,4.057,0,0,4.078,104.18,76.814901736292,0,11,AutoTakeoff,
125200,2025-08-24 20:42:09,39.0868837784726,-76.6192711026625,0,,,76.814901736292,0.328084,0,1.953166073,0.46461287576,16,5,16.224,76.814901736292,0,0,2.15638786428,0,0,0,87.1, 3.4, 0.2,0,0,1024,1024,1024,1024,0,0,0,0,101.6,0,0,93,4.06,4.058,4.058,4.057,0,0,4.078,104.18,76.814901736292,0,11,AutoTakeoff,
125300,2025-08-24 20:42:09,39.0868837760472,-76.6192710999722,0,,,76.814901736292,0.328084,0,1.95433405204,0.4657808548,16,5,16.224,76.814901736292,0,0,2.15638786428,0,0,0,87.1, 3.4, 0.2,0,0,1024,1024,1024,1024,0,0,0,0,101.6,0,0,93,4.06,4.058,4.058,4.057,0,0,4.078,104.18,76.814901736292,0,11,AutoTakeoff,
125400,2025-08-24 20:42:09,39.0868836756914,-76.6192711958885,0,,,76.814901736292,0.328084,0,1.96574153272,0.5113681266,16,5,16.224,76.814901736292,0,0,2.15638786428,0,0,0,87, 3.3, 0.3,0,0,1024,1024,1024,1024,0,0,0,0,101.6,0,0,93,4.06,4.058,4.058,4.057,0,0,4.078,104.18,76.814901736292,0,11,AutoTakeoff,
125500,2025-08-24 20:42:09,39.0868836726468,-76.6192711899809,0,,,76.814901736292,0.328084,0,1.9676509816,0.51337928152,16,5,16.224,76.814901736292,0,0,2.15638786428,0,0,0,87, 3.2, 0.2,0,0,1024,1024,1024,1024,0,0,0,0,101.6,0,0,93,4.06,4.058,4.058,4.057,0,0,4.078,104.18,76.814901736292,0,11,AutoTakeoff,
125600,2025-08-24 20:42:10,39.086883575002,-76.6192712918187,0.328084,,,77.142985736292,0.328084,0,1.97822840976,0.55921261632,15,5,16.224,77.142985736292,0.328084,0,2.15638786428,0,0,0,86.9, 2.7, 0.2,0,0,1024,1024,1024,1024,0,0,0,0,101.6,0,0,93,4.06,4.058,4.058,4.057,0,0,4.078,104.18,77.142985736292,0.328084,11,AutoTakeoff,
125700,2025-08-24 20:42:10,39.0868835736499,-76.6192712571149,0.328084,,,77.142985736292,0.328084,0,1.98455386928,0.56905513632,15,5,16.224,77.142985736292,0.328084,0,2.15638786428,0,0,0,86.8, -0.4, 0.2,0,0,1024,1024,1024,1024,0,0,0,0,101.6,0,0,93,4.06,4.058,4.058,4.057,0,0,4.078,104.18,77.142985736292,0.328084,11,AutoTakeoff,
125800,2025-08-24 20:42:10,39.0868835787555,-76.619271330278,0.328084,,,77.142985736292,0.328084,0.223694,1.97059389508,0.58985566192,16,5,16.224,77.142985736292,0.328084,0.223694,2.15638786428,0,0.223694,-0.223694,86.9, -6.2, 0.1,0,0,1024,1024,1024,1024,0,0,0,0,101.6,0,0,93,4.06,4.058,4.058,4.057,0,0,4.078,104.18,77.142985736292,0.328084,11,AutoTakeoff,
125900,2025-08-24 20:42:10,39.0868835901968,-76.6192710970363,0.328084,,,77.142985736292,0.328084,0.447388,2.00757224272,0.65604004724,16,5,16.224,77.142985736292,0.328084,0.447388,2.15638786428,0,0.447388,-0.447388,86.8, -10.6, -0.4,0,0,1024,1024,1024,1024,0,0,0,0,101.6,0,0,93,4.06,4.058,4.058,4.057,0,0,4.078,104.18,77.142985736292,0.328084,11,AutoTakeoff,"SD card speed low. Normal use may be affected. Replace SD card (Code: 10028). Remote ID functionality normal (Code: 30331)"
126000,2025-08-24 20:42:10,39.0868837201672,-76.6192706709189,0.328084,,,77.142985736292,0.984252,0.894776,2.04906174536,0.7856955632,16,5,16.224,77.142985736292,0.328084,0.894776,2.15638786428,0,0.894776,-0.671082,86.8, -7.8, -0.4,0,0,1024,1024,1024,1024,0,0,0,0,101.6,0,0,93,4.06,4.058,4.058,4.057,0,0,4.078,104.18,77.142985736292,0.328084,11,AutoTakeoff,
126100,2025-08-24 20:42:10,39.0868837735271,-76.6192701033372,0.656168,,,77.471069736292,1.312336,1.11847,2.14588917628,0.9476050172,16,5,16.258,77.471069736292,0.656168,1.11847,2.15638786428,0,1.11847,-0.894776,87, -0.4, -0.1,0,0,1024,1024,1024,1024,0,0,0,0,101.6,0,0,93,4.044,4.04,4.036,4.034,0,0,2.891,104.18,77.471069736292,0.656168,11,AutoTakeoff,
126200,2025-08-24 20:42:10,39.0868837509548,-76.6192694202756,0.656168,,,77.471069736292,1.64042,1.11847,2.29306437784,1.14122050896,16,5,16.258,77.471069736292,0.656168,1.11847,2.29306437784,0,1.11847,-1.11847,86.9, 5.4, 0.4,0,0,1024,1024,1024,1024,0,0,0,0,101.6,0,0,93,4.044,4.04,4.036,4.034,0,0,2.891,104.18,77.471069736292,0.656168,11,AutoTakeoff,
126300,2025-08-24 20:42:10,39.0868838277075,-76.6192687241929,0.984252,,,77.799153736292,1.968504,1.11847,2.42722776796,1.34032484604,16,5,16.258,77.799153736292,0.984252,1.11847,2.42722776796,0,1.11847,-1.342164,87, 7.1, 0.9,0,0,1024,1024,1024,1024,0,0,0,0,101.6,0,0,93,4.044,4.04,4.036,4.034,0,0,2.891,104.18,77.799153736292,0.984252,11,AutoTakeoff,
126400,2025-08-24 20:42:10,39.0868840641597,-76.6192683186544,0.984252,,,77.799153736292,2.296588,0.894776,2.46901582704,1.48396330208,15,5,16.258,77.799153736292,0.984252,1.11847,2.46901582704,0,0.894776,-1.342164,87.2, 6.5, 0.7,0,0,1024,1024,1024,1024,0,0,0,0,101.7,0,0,93,4.044,4.04,4.036,4.034,0,0,2.891,104.18,77.799153736292,0.984252,11,AutoTakeoff,
126500,2025-08-24 20:42:10,39.0868841260654,-76.6192679200804,1.312336,,,78.127237736292,2.624672,0.894776,2.55047908424,1.59907485432,15,5,16.258,78.127237736292,1.312336,1.11847,2.55047908424,0,0.671082,-1.342164,87.4, 5.6, 0.7,0,0,1024,1024,1024,1024,0,0,0,0,101.7,0,0,93,4.044,4.04,4.036,4.034,0,0,2.891,104.18,78.127237736292,1.312336,11,AutoTakeoff,
126600,2025-08-24 20:42:11,39.0868841595066,-76.6192677822198,1.64042,,,78.455321736292,2.952756,0.671082,2.57692593548,1.6399770866,14,5,16.258,78.455321736292,1.64042,1.11847,2.57692593548,0,0.671082,-1.11847,87.4, 5, 0.7,0,0,1024,1024,1024,1024,0,0,0,0,101.7,0,0,93,4.044,4.04,4.036,4.034,0,0,2.891,104.18,78.455321736292,1.64042,11,AutoTakeoff,
126700,2025-08-24 20:42:11,39.086884227549,-76.6192673944181,1.64042,,,78.455321736292,3.28084,0.447388,2.65806110868,1.75256895372,14,5,16.258,78.455321736292,1.64042,1.11847,2.65806110868,0,0.447388,-1.11847,87.2, 4.6, 1,0,0,1024,1024,1024,1024,0,0,0,0,101.7,0,0,93,4.044,4.04,4.036,4.034,0,0,2.891,104.18,78.455321736292,1.64042,11,AutoTakeoff,
126800,2025-08-24 20:42:11,39.0868845599595,-76.619267318722,1.968504,,,78.783405736292,3.28084,0.447388,2.6179134696,1.87572840648,15,5,16.258,78.783405736292,1.968504,1.11847,2.65806110868,0,0.447388,-1.11847,87.3, 4.4, 1,0,0,1024,1024,1024,1024,0,0,0,0,101.7,0,0,93,4.044,4.04,4.036,4.034,0,0,2.891,104.18,78.783405736292,1.968504,11,AutoTakeoff,
126900,2025-08-24 20:42:11,39.0868846168565,-76.6192670199854,1.968504,,,78.783405736292,3.608924,0.223694,2.6837107158,1.96283798932,15,5,16.258,78.783405736292,1.968504,1.11847,2.6837107158,0,0.223694,-1.11847,87.2, 4, 0.9,0,0,1024,1024,1024,1024,0,0,0,0,101.7,0,0,93,4.044,4.04,4.036,4.034,0,0,2.891,104.18,78.783405736292,1.968504,11,AutoTakeoff,
127000,2025-08-24 20:42:11,39.0868847585272,-76.6192669872572,2.296588,,,79.111489736292,3.937008,0.223694,2.66937672584,2.01535111436,14,5,16.258,79.111489736292,2.296588,1.11847,2.6837107158,0,0.223694,-0.894776,87.2, 3.7, 0.8,0,0,1024,1024,1024,1024,0,0,0,0,101.7,0,0,93,4.044,4.04,4.036,4.034,0,0,2.891,104.18,79.111489736292,2.296588,11,AutoTakeoff,
127100,2025-08-24 20:42:11,39.0868847990354,-76.619266836265,2.296588,,,79.111489736292,3.937008,0.223694,2.70181439092,2.06059389796,14,5,16.089,79.111489736292,2.296588,1.11847,2.70181439092,0,0.223694,-0.671082,87.2, 3.6, 0.9,0,0,1024,1024,1024,1024,0,0,0,0,101.7,0,0,93,4.025,4.022,4.022,4.021,0,0,9.376,104.18,79.111489736292,2.296588,6,P-GPS,
127200,2025-08-24 20:42:11,39.0868847473541,-76.6192670672247,2.296588,,,79.111489736292,3.608924,0,2.65071530792,2.12866476628,14,4,16.089,79.111489736292,2.296588,1.11847,2.70181439092,0,0,-0.447388,87.2, 3.4, 1.1,0,0,1024,1024,1024,1024,0,0,0,0,101.7,0,0,93,4.025,4.022,4.022,4.021,0,0,9.376,104.18,79.111489736292,2.296588,6,P-GPS,
127300,2025-08-24 20:42:11,39.0868847942564,-76.6192669930379,2.296588,,,79.111489736292,3.28084,0,2.66231635816,2.15576122384,14,4,16.089,79.111489736292,2.296588,1.11847,2.70181439092,0,0,0,87.1, 2.8, 1.4,0,0,1024,1024,1024,1024,0,0,0,0,101.7,0,0,93,4.025,4.022,4.022,4.021,0,0,9.376,104.18,79.111489736292,2.296588,6,P-GPS,
127400,2025-08-24 20:42:11,39.0868850195888,-76.6192669303188,2.296588,,,79.111489736292,3.608924,0,2.64461622636,2.23986883808,14,4,16.089,79.111489736292,2.296588,1.11847,2.70181439092,0,0,0,87.1, 2.8, 1.4,0,0,1024,1024,1024,1024,0,0,0,0,101.7,0,0,93,4.025,4.022,4.022,4.021,0,0,9.376,104.18,79.111489736292,2.296588,6,P-GPS,
127500,2025-08-24 20:42:11,39.0868850766847,-76.6192668797628,2.296588,,,79.111489736292,3.608924,0,2.64957685644,2.26514771028,14,4,16.089,79.111489736292,2.296588,1.11847,2.70181439092,0,0,0,87.2, 3.8, 2.1,0,0,1024,1024,1024,1024,0,0,0,0,101.7,0,0,93,4.025,4.022,4.022,4.021,0,0,9.376,104.18,79.111489736292,2.296588,14,Waypoint,
127600,2025-08-24 20:42:12,39.0868852562395,-76.6192671450842,2.296588,,,79.111489736292,3.608924,0,2.5550525752,2.36483275284,14,4,16.089,79.111489736292,2.296588,1.11847,2.70181439092,0,0,0,87.1, 4, 2.2,0,0,1024,1024,1024,1024,0,0,0,0,101.7,0,0,93,4.025,4.022,4.022,4.021,0,0,9.376,104.18,79.111489736292,2.296588,14,Waypoint,
127700,2025-08-24 20:42:12,39.0868852828505,-76.6192672396981,2.296588,,,79.111489736292,3.28084,0,2.526574884,2.39333012908,14,4,16.089,79.111489736292,2.296588,1.11847,2.70181439092,0,0,0,87.1, 3.1, 2.3,0,0,1024,1024,1024,1024,0,0,0,0,101.7,0,0,93,4.025,4.022,4.022,4.021,0,0,9.376,104.18,79.111489736292,2.296588,14,Waypoint,
127800,2025-08-24 20:42:12,39.0868854857045,-76.6192674608278,2.296588,,,79.111489736292,3.608924,0,2.44100729596,2.49028223192,14,4,16.089,79.111489736292,2.296588,1.11847,2.70181439092,0,0,0,87, 1.8, 2.2,0,0,1024,1024,1024,1024,0,0,0,0,101.7,0,0,93,4.025,4.022,4.022,4.021,0,0,9.376,104.18,79.111489736292,2.296588,14,Waypoint,
127900,2025-08-24 20:42:12,39.086885454936,-76.6192676065497,2.296588,,,79.111489736292,3.28084,0.223694,2.40672251796,2.53304798132,14,4,16.089,79.111489736292,2.296588,1.11847,2.70181439092,0,-0.223694,0,87, 0.7, 1.9,0,0,1024,1024,1024,1024,0,0,0,0,101.7,0,0,93,4.025,4.022,4.022,4.021,0,0,9.376,104.18,79.111489736292,2.296588,14,Waypoint,
128000,2025-08-24 20:42:12,39.0868856400968,-76.619267694333,2.296588,,,79.111489736292,3.608924,0,2.35916346132,2.60503289176,14,4,16.089,79.111489736292,2.296588,1.11847,2.70181439092,0,0,-0.223694,87, 0, 1.8,0,0,1024,1024,1024,1024,0,0,0,0,101.7,0,0,93,4.025,4.022,4.022,4.021,0,0,9.376,104.18,79.111489736292,2.296588,14,Waypoint,
128100,2025-08-24 20:42:12,39.0868856039128,-76.6192677954617,2.624672,,,79.439573736292,3.608924,0,2.33706700392,2.63656832584,14,4,16.084,79.439573736292,2.624672,1.11847,2.70181439092,0,0,-0.223694,86.9, -0.3, 1.8,0,0,1024,1024,1024,1024,0,0,0,0,101.7,0,0,93,4.033,4.03,4.027,4.026,0,0,8.33,104.36,79.439573736292,2.624672,14,Waypoint,
128200,2025-08-24 20:42:12,39.0868857316584,-76.6192681238154,2.624672,,,79.439573736292,3.608924,0,2.23356962528,2.74058079636,14,4,16.084,79.439573736292,2.624672,1.11847,2.70181439092,0,0,-0.447388,87, -0.2, 2.1,0,0,1024,1024,1024,1024,0,0,0,0,101.7,0,0,93,4.033,4.03,4.027,4.026,0,0,8.33,104.36,79.439573736292,2.624672,14,Waypoint,
128300,2025-08-24 20:42:12,39.0868856799212,-76.6192681647056,2.624672,,,79.439573736292,3.608924,0,2.22954731544,2.76272646636,14,4,16.084,79.439573736292,2.624672,1.11847,2.70181439092,0,0,-0.671082,87.1, -0.2, 2.1,0,0,1024,1024,1024,1024,0,0,0,0,101.7,0,0,93,4.033,4.03,4.027,4.026,0,0,8.33,104.36,79.439573736292,2.624672,14,Waypoint,
128400,2025-08-24 20:42:12,39.0868857107266,-76.6192685602733,2.624672,,,79.439573736292,3.937008,0,2.12133536972,2.8753117718,14,4,16.084,79.439573736292,2.624672,1.11847,2.70181439092,0,0,-0.671082,87.1, -0.4, 1.7,0,0,1024,1024,1024,1024,0,0,0,0,101.7,0,0,93,4.033,4.03,4.027,4.026,0,0,8.33,104.36,79.439573736292,2.624672,14,Waypoint,
128500,2025-08-24 20:42:12,39.0868856626461,-76.619268569913,2.952756,,,79.767657736292,3.608924,0,2.12549547484,2.89306439704,14,4,16.084,79.767657736292,2.952756,1.11847,2.70181439092,0,0,-0.894776,87.1, -0.7, 1.4,0,0,1024,1024,1024,1024,0,0,0,0,101.7,0,0,93,4.033,4.03,4.027,4.026,0,0,8.33,104.36,79.767657736292,2.952756,14,Waypoint,
128600,2025-08-24 20:42:13,39.086885515492,-76.6192687246013,2.952756,,,79.767657736292,3.937008,0,2.10676515928,2.96235901868,14,4,16.084,79.767657736292,2.952756,1.11847,2.70181439092,0,0,-1.11847,87, -0.9, 1.5,0,0,1024,1024,1024,1024,0,0,0,0,101.7,0,0,93,4.033,4.03,4.027,4.026,0,0,8.33,104.36,79.767657736292,2.952756,14,Waypoint,
128700,2025-08-24 20:42:13,39.0868854466055,-76.6192686686424,3.28084,,,80.095741736292,3.937008,0,2.13165361152,2.99207030572,14,4,16.084,80.095741736292,3.28084,1.11847,2.70181439092,0,0,-1.342164,87, -0.8, 1.6,0,0,1024,1024,1024,1024,0,0,0,0,101.7,0,0,93,4.033,4.03,4.027,4.026,0,0,8.33,104.36,80.095741736292,3.28084,14,Waypoint,
128800,2025-08-24 20:42:13,39.0868857775527,-76.6192683297648,3.608924,,,80.423825736292,4.265092,0,2.17310374408,3.1463091558,14,4,16.084,80.423825736292,3.608924,1.11847,2.70181439092,0,0,-1.789552,86.9, -0.4, 1,0,0,1024,1024,1024,1024,0,0,0,0,101.7,0,0,93,4.033,4.03,4.027,4.026,0,0,8.33,104.36,80.423825736292,3.608924,14,Waypoint,
128900,2025-08-24 20:42:13,39.0868856960164,-76.6192681462058,3.937008,,,80.751909736292,4.593176,0,2.23230322104,3.20620089,14,4,16.084,80.751909736292,3.937008,1.11847,2.70181439092,0,0,-2.013246,87, 0.4, 0,0,0,1024,1024,1024,1024,0,0,0,0,101.7,0,0,93,4.033,4.03,4.027,4.026,0,0,8.33,104.36,80.751909736292,3.937008,14,Waypoint,
129000,2025-08-24 20:42:13,39.0868858834279,-76.6192681040739,4.265092,,,81.079993736292,4.265092,0.223694,2.21979665896,3.27561034104,14,4,16.084,81.079993736292,4.265092,1.11847,2.70181439092,0,0.223694,-2.23694,87, 1.3, 0,0,0,1024,1024,1024,1024,0,0,0,0,101.7,0,0,93,4.033,4.03,4.027,4.026,0,0,8.33,104.36,81.079993736292,4.265092,14,Waypoint,
129100,2025-08-24 20:42:13,39.0868858111498,-76.6192679159718,4.593176,,,81.408077736292,3.937008,0.223694,2.27881240888,3.3350394768,14,4,16.056,81.408077736292,4.593176,1.11847,2.70181439092,0,0.223694,-2.684328,87, 2.1, 0.1,0,0,1024,1024,1024,1024,0,0,0,0,101.7,0,0,93,4.01,4.006,4.004,4.004,0,0,9.508,104.36,81.408077736292,4.593176,14,Waypoint,"SD card speed low. Normal use may be affected. Replace SD card (Code: 10028)"
129200,2025-08-24 20:42:13,39.0868860916682,-76.6192679196638,4.92126,,,81.736161736292,3.608924,0,2.24558406136,3.4374016848,14,4,16.056,81.736161736292,4.92126,1.11847,2.70181439092,0,0,-2.908022,86.9, 2.7, -0.2,0,0,1024,1024,1024,1024,0,0,0,0,101.7,0,0,93,4.01,4.006,4.004,4.004,0,0,9.508,104.36,81.736161736292,4.92126,14,Waypoint,
129300,2025-08-24 20:42:13,39.0868859842879,-76.6192677864043,5.577428,,,82.392329736292,3.608924,0,2.29333668756,3.491798012,14,4,16.056,82.392329736292,5.577428,1.11847,2.70181439092,0,0,-3.35541,86.9, 3, -0.5,0,0,1024,1024,1024,1024,0,0,0,0,101.7,0,0,93,4.01,4.006,4.004,4.004,0,0,9.508,104.36,82.392329736292,5.577428,14,Waypoint,
129400,2025-08-24 20:42:13,39.0868865563708,-76.6192678910856,5.905512,,,82.720413736292,3.608924,0,2.2095145064,3.7026247904,13,4,16.056,82.720413736292,5.905512,1.11847,2.70181439092,0,0,-3.802798,86.9, 2.2, -1.3,0,0,1024,1024,1024,1024,0,0,0,0,101.7,0,0,93,4.01,4.006,4.004,4.004,0,0,9.508,104.36,82.720413736292,5.905512,14,Waypoint,"Home Point updated (Code: 123200)"
129500,2025-08-24 20:42:13,39.0868865072714,-76.6192678674507,6.56168,,,83.376581736292,2.952756,0,2.22008537288,3.7217520876,13,4,16.056,83.376581736292,6.56168,1.11847,2.70181439092,0,0,-4.250186,87, 0.9, -1.3,0,0,1024,1024,1024,1024,0,0,0,0,101.7,0,0,93,4.01,4.006,4.004,4.004,0,0,9.508,104.36,83.376581736292,6.56168,14,Waypoint,
129600,2025-08-24 20:42:14,39.0868871343966,-76.6192686141902,7.545932,,,84.360833736292,2.624672,0,1.96944888192,4.033300654,11,4,16.056,84.360833736292,7.545932,1.11847,2.70181439092,0,0,-4.697574,87, 0.3, -0.3,0,0,1024,1024,1024,1024,0,0,0,0,101.7,0,0,93,4.01,4.006,4.004,4.004,0,0,9.508,104.36,84.360833736292,7.545932,14,Waypoint,
129700,2025-08-24 20:42:14,39.0868872181046,-76.619268630346,8.530184,,,85.345085736292,2.624672,0.223694,1.96078746432,4.0641733584,11,4,16.056,85.345085736292,8.530184,1.11847,2.70181439092,0.223694,0,-5.144962,87, 0.7, 1.3,0,0,1024,1024,1024,1024,0,0,0,0,101.7,0,0,93,4.01,4.006,4.004,4.004,0,0,9.508,104.36,85.345085736292,8.530184,14,Waypoint,
129800,2025-08-24 20:42:14,39.0868874372305,-76.6192694606388,9.514436,,,86.329337736292,2.624672,0.223694,1.71808076364,4.3125329464,13,4,16.056,86.329337736292,9.514436,1.11847,2.70181439092,0.223694,0,-5.59235,87, 1, 3.5,0,0,1024,1024,1024,1024,0,0,0,0,101.7,0,0,93,4.01,4.006,4.004,4.004,0,0,9.508,104.36,86.329337736292,9.514436,14,Waypoint,
129900,2025-08-24 20:42:14,39.0868875307634,-76.6192694836238,10.498688,,,87.313589736292,2.624672,0.223694,1.70854336176,4.347277042,13,4,16.056,87.313589736292,10.498688,1.11847,2.70181439092,0.223694,0,-6.039738,87.1, 0.6, 5.8,0,0,1024,1024,1024,1024,0,0,0,0,101.7,0,0,93,4.01,4.006,4.004,4.004,0,0,9.508,104.36,87.313589736292,10.498688,14,Waypoint,
130000,2025-08-24 20:42:14,39.0868875001763,-76.6192702853081,11.48294,,,88.297841736292,2.624672,0,1.48341212096,4.5745736372,14,4,16.056,88.297841736292,11.48294,1.11847,2.70181439092,0,0,-6.71082,87, -0.2, 6.9,0,0,1024,1024,1024,1024,0,0,0,0,101.7,0,0,93,4.01,4.006,4.004,4.004,0,0,9.508,104.36,88.297841736292,11.48294,14,Waypoint,
130100,2025-08-24 20:42:14,39.08688749374,-76.6192703470725,12.795276,,,89.610177736292,2.952756,0,1.46624676608,4.5922245564,14,4,15.922,89.610177736292,12.795276,1.11847,2.70181439092,0,0,-7.158208,86.8, -1.2, 6.9,0,0,1024,1024,1024,1024,0,0,0,0,101.7,0,0,92,3.985,3.981,3.978,3.978,0,0,12.857,104.36,89.610177736292,12.795276,14,Waypoint,
130200,2025-08-24 20:42:14,39.0868876303165,-76.6192707963322,14.107612,,,90.922513736292,3.28084,0,1.33509846792,4.7288715424,14,4,15.922,90.922513736292,14.107612,1.11847,2.70181439092,-0.223694,0,-7.82929,87, -2.2, 5.8,0,0,1024,1024,1024,1024,0,0,0,0,101.7,0,0,92,3.985,3.981,3.978,3.978,0,0,12.857,104.36,90.922513736292,14.107612,14,Waypoint,
130300,2025-08-24 20:42:14,39.0868875077353,-76.6192708341293,15.748032,,,92.562933736292,3.28084,0.223694,1.32854663044,4.7748689192,14,4,15.922,92.562933736292,15.748032,1.11847,2.70181439092,-0.223694,0,-8.500372,87, -2.3, 5.1,0,0,1024,1024,1024,1024,0,0,0,0,101.6,0,0,92,3.985,3.981,3.978,3.978,0,0,12.857,104.36,92.562933736292,15.748032,14,Waypoint,
130400,2025-08-24 20:42:14,39.0868880754828,-76.6192711279461,17.388452,,,94.203353736292,2.952756,0.447388,1.23901906852,4.9980972728,12,4,15.922,94.203353736292,17.388452,1.11847,2.70181439092,-0.447388,0,-9.171454,87, -2.6, 3.9,0,0,1024,1024,1024,1024,0,0,0,0,101.6,0,0,92,3.985,3.981,3.978,3.978,0,0,12.857,104.36,94.203353736292,17.388452,14,Waypoint,
130500,2025-08-24 20:42:14,39.0868878419084,-76.61927101812,19.028872,,,95.843773736292,2.952756,0.447388,1.26874675976,5.0888124988,12,4,15.922,95.843773736292,19.028872,1.11847,2.70181439092,-0.447388,0,-9.618842,87.2, -1.5, 1.9,0,0,1024,1024,1024,1024,0,0,0,0,101.6,0,0,92,3.985,3.981,3.978,3.978,0,0,12.857,104.36,95.843773736292,19.028872,14,Waypoint,
130600,2025-08-24 20:42:15,39.0868885218081,-76.6192710575837,20.997376,,,97.812277736292,2.952756,0.4921268,1.27740161568,5.33710647,12,2,15.922,97.812277736292,20.997376,1.11847,2.70181439092,-0.447388,0.223694,-10.289924,87, 0, 0.6,0,0,1024,1024,1024,1024,0,0,0,0,101.2,0,0,92,3.985,3.981,3.978,3.978,0,0,12.857,104.36,97.812277736292,20.997376,14,Waypoint,"SD card speed low. Normal use may be affected. Replace SD card (Code: 10028). Satellite positioning signal weak. Hovering unstable. Fly with caution (Code: 30002)"
130700,2025-08-24 20:42:15,39.0868883086443,-76.6192708609028,22.96588,,,99.780781736292,2.952756,0.4921268,1.32133206328,5.4327757644,12,2,15.922,99.780781736292,22.96588,1.11847,2.70181439092,-0.447388,0.223694,-10.289924,87, 1.6, -1.2,0,0,1024,1024,1024,1024,0,0,0,0,101.2,0,0,92,3.985,3.981,3.978,3.978,0,0,12.857,104.36,99.780781736292,22.96588,6,P-GPS,
130800,2025-08-24 20:42:15,39.0868883832398,-76.6192713016225,24.6063,,,101.42120173629,2.952756,0.3131716,1.20104334552,5.560531674,9,2,15.922,101.42120173629,24.6063,1.11847,2.70181439092,-0.223694,0.223694,-9.618842,86.8, 2.5, -2,0,0,1024,1024,1024,1024,0,0,0,0,101.2,0,0,92,3.985,3.981,3.978,3.978,0,0,12.857,104.36,101.42120173629,24.6063,6,P-GPS,
130900,2025-08-24 20:42:15,39.0868882447026,-76.6192711542561,25.918636,,,102.73353773629,2.952756,0.223694,1.23625003956,5.6260828572,9,2,15.922,102.73353773629,25.918636,1.11847,2.70181439092,-0.223694,0,-8.724066,86.5, 2.3, -2,0,0,1024,1024,1024,1024,0,0,0,0,101.2,0,0,92,3.985,3.981,3.978,3.978,0,0,12.857,104.36,102.73353773629,25.918636,6,P-GPS,
131000,2025-08-24 20:42:15,39.0868882683852,-76.6192719866929,27.230972,,,104.04587373629,2.624672,0,1.00309058328,5.8619752532,9,2,15.922,104.04587373629,27.230972,1.11847,2.70181439092,0,0,-7.605596,86.2, 1.6, -1,0,0,1024,1024,1024,1024,0,0,0,0,101.2,0,0,92,3.985,3.981,3.978,3.978,0,0,12.857,104.36,104.04587373629,27.230972,6,P-GPS,
131100,2025-08-24 20:42:15,39.0868881995561,-76.6192719122605,28.215224,,,105.03012573629,2.296588,0,1.02103349724,5.8947508448,9,2,15.821,105.03012573629,28.215224,1.11847,2.70181439092,0,0,-6.487126,86, 0.8, 0,0,0,1024,1024,1024,1024,0,0,0,0,101.2,0,0,92,3.959,3.957,3.953,3.952,0,0,16.136,104.36,105.03012573629,28.215224,6,P-GPS,
131200,2025-08-24 20:42:15,39.0868880437044,-76.6192733983749,28.871392,,,105.68629373629,1.968504,0,0.59664700072,6.3194227744,10,2,15.821,105.68629373629,28.871392,1.11847,2.70181439092,0,0,-5.368656,85.9, 1, 0.9,0,0,1024,1024,1024,1024,0,0,0,0,101.2,0,0,92,3.959,3.957,3.953,3.952,0,0,16.136,104.36,105.68629373629,28.871392,6,P-GPS,
131300,2025-08-24 20:42:15,39.0868881099235,-76.6192732038574,29.52756,,,106.34246173629,1.64042,0,0.65388125452,6.37959338,10,2,15.821,106.34246173629,29.52756,1.11847,2.70181439092,0,0,-4.026492,85.8, 1.6, 1.8,0,0,1024,1024,1024,1024,0,0,0,0,101.2,0,0,92,3.959,3.957,3.953,3.952,0,0,16.136,104.36,106.34246173629,29.52756,6,P-GPS,
131400,2025-08-24 20:42:15,39.0868872897325,-76.6192748612091,29.855644,,,106.67054573629,1.312336,0.223694,0.287636492144,6.9362206944,9,2,15.821,106.67054573629,29.855644,1.11847,2.70181439092,0.223694,0,-2.908022,85.8, 2.2, 1.8,0,0,1024,1024,1024,1024,0,0,0,0,101.2,0,0,92,3.959,3.957,3.953,3.952,0,0,16.136,104.36,106.67054573629,29.855644,6,P-GPS,
131500,2025-08-24 20:42:15,39.0868873799927,-76.6192746763519,30.183728,,,106.99862973629,0.984252,0.223694,0.301101715672,6.9980645284,9,2,15.821,106.99862973629,30.183728,1.11847,2.70181439092,0.223694,0,-1.565858,86, 2.2, 2.1,0,0,1024,1024,1024,1024,0,0,0,0,101.2,0,0,92,3.959,3.957,3.953,3.952,0,0,16.136,104.36,106.99862973629,30.183728,6,P-GPS,
131600,2025-08-24 20:42:16,39.0868825997391,-76.6192785297608,30.183728,,,106.99862973629,0.984252,0.223694,2.1172736898,9.0554136756,9,2,15.821,106.99862973629,30.183728,1.11847,2.70181439092,0.223694,0,-0.671082,86.1, 1.5, 2.3,0,0,1024,1024,1024,1024,0,0,0,0,101.2,0,0,92,3.959,3.957,3.953,3.952,0,0,16.136,104.36,106.99862973629,30.183728,6,P-GPS,
131700,2025-08-24 20:42:16,39.0868827503556,-76.619278372963,30.511812,,,107.32671373629,0.656168,0.447388,2.04911751964,9.1260501608,9,2,15.821,107.32671373629,30.511812,1.11847,2.70181439092,0.447388,0,-0.223694,86.2, 0.6, 2.6,0,0,1024,1024,1024,1024,0,0,0,0,101.2,0,0,92,3.959,3.957,3.953,3.952,0,0,16.136,104.36,107.32671373629,30.511812,6,P-GPS,
131800,2025-08-24 20:42:16,39.0868742671398,-76.6192851838633,30.511812,,,107.32671373629,0.656168,0.447388,5.6815290532,12.7729334796,9,2,15.821,107.32671373629,30.511812,1.11847,5.6815290532,0.447388,0,-0.223694,86.5, 0.5, 3.2,0,0,1024,1024,1024,1024,0,0,0,0,101.2,0,0,92,3.959,3.957,3.953,3.952,0,0,16.136,104.36,107.32671373629,30.511812,6,P-GPS,
131900,2025-08-24 20:42:16,39.0868744601373,-76.6192851072069,30.511812,,,107.32671373629,0.656168,0.447388,5.60941619,12.846621146,9,2,15.821,107.32671373629,30.511812,1.11847,5.6815290532,0.447388,0,-0.223694,86.7, 0.8, 4.1,0,0,1024,1024,1024,1024,0,0,0,0,101.2,0,0,92,3.959,3.957,3.953,3.952,0,0,16.136,104.36,107.32671373629,30.511812,6,P-GPS,
132000,2025-08-24 20:42:16,39.0868705660589,-76.6192894251207,30.511812,,,107.32671373629,0.656168,0.447388,7.4546918396,14.72112908,6,2,15.821,107.32671373629,30.511812,1.11847,7.4546918396,0.447388,0,-0.223694,87, 1.6, 5,0,0,1024,1024,1024,1024,0,0,0,0,101.2,0,0,92,3.959,3.957,3.953,3.952,0,0,16.136,104.36,107.32671373629,30.511812,6,P-GPS,
132100,2025-08-24 20:42:16,39.0868707786716,-76.6192896265062,30.511812,,,107.32671373629,0.656168,0.447388,7.4195868516,14.817421734,6,2,16.131,107.32671373629,30.511812,1.11847,7.4546918396,0.447388,0,-0.447388,87.1, 1.6, 5.9,0,0,1024,1024,1024,1024,0,0,0,0,101.2,0,0,92,4.008,4.005,4.004,4.003,0,0,5.101,104.54,107.32671373629,30.511812,6,P-GPS,
132200,2025-08-24 20:42:16,39.0868709851417,-76.6192899226298,30.839896,,,107.65479773629,0.656168,0.447388,7.4021983996,14.9301513964,5,2,16.131,107.65479773629,30.839896,1.11847,7.4546918396,0.447388,0,-0.447388,87.2, 0.8, 6.3,0,0,1024,1024,1024,1024,0,0,0,0,101.2,0,0,92,4.008,4.005,4.004,4.003,0,0,5.101,104.54,107.65479773629,30.839896,6,P-GPS,
132300,2025-08-24 20:42:16,39.0868711836102,-76.6192903469343,30.839896,,,107.65479773629,0.984252,0.223694,7.409449056,15.0704401148,5,2,16.131,107.65479773629,30.839896,1.11847,7.4546918396,0.223694,0,-0.447388,87.2, 0, 6.4,0,0,1024,1024,1024,1024,0,0,0,0,101.2,0,0,92,4.008,4.005,4.004,4.003,0,0,5.101,104.54,107.65479773629,30.839896,6,P-GPS,
132400,2025-08-24 20:42:16,39.086871326616,-76.6192907397165,30.839896,,,107.65479773629,0.984252,0.223694,7.430610474,15.1933075728,6,2,16.131,107.65479773629,30.839896,1.11847,7.4546918396,0.223694,0,-0.447388,87.3, -0.5, 6.3,0,0,1024,1024,1024,1024,0,0,0,0,101.2,0,0,92,4.008,4.005,4.004,4.003,0,0,5.101,104.54,107.65479773629,30.839896,6,P-GPS,
132500,2025-08-24 20:42:16,39.0868714240828,-76.6192910979218,30.839896,,,107.65479773629,0.656168,0.223694,7.4613191364,15.3007878912,6,2,16.131,107.65479773629,30.839896,1.11847,7.4613191364,0.223694,0,-0.447388,87.5, -1, 6,0,0,1024,1024,1024,1024,0,0,0,0,101.2,0,0,92,4.008,4.005,4.004,4.003,0,0,5.101,104.54,107.65479773629,30.839896,6,P-GPS,
132600,2025-08-24 20:42:17,39.0868714946759,-76.6192915148397,30.839896,,,107.65479773629,0.984252,0,7.5112863296,15.4216540368,6,2,16.131,107.65479773629,30.839896,1.11847,7.5112863296,0,0,-0.447388,87.6, -1.5, 5.9,0,0,1024,1024,1024,1024,0,0,0,0,101.2,0,0,92,4.008,4.005,4.004,4.003,0,0,5.101,104.54,107.65479773629,30.839896,6,P-GPS,
132700,2025-08-24 20:42:17,39.0868714810587,-76.6192918117772,31.16798,,,107.98288173629,0.656168,0,7.5663060164,15.5058731996,6,2,16.131,107.98288173629,31.16798,1.11847,7.5663060164,0,0,-0.447388,87.7, -1.7, 5.6,0,0,1024,1024,1024,1024,0,0,0,0,101.2,0,0,92,4.008,4.005,4.004,4.003,0,0,5.101,104.54,107.98288173629,31.16798,6,P-GPS,
132800,2025-08-24 20:42:17,39.0868714827271,-76.6192920954094,31.16798,,,107.98288173629,0.984252,0,7.6151249156,15.5861881628,6,2,16.131,107.98288173629,31.16798,1.11847,7.6151249156,0,0,-0.447388,87.8, -1.9, 5.2,0,0,1024,1024,1024,1024,0,0,0,0,101.2,0,0,92,4.008,4.005,4.004,4.003,0,0,5.101,104.54,107.98288173629,31.16798,6,P-GPS,
132900,2025-08-24 20:42:17,39.086871479931,-76.6192922462222,31.16798,,,107.98288173629,0.984252,0,7.6423558876,15.628937508,6,2,16.131,107.98288173629,31.16798,1.11847,7.6423558876,0,0,-0.447388,87.7, -1.6, 5.1,0,0,1024,1024,1024,1024,0,0,0,0,101.2,0,0,92,4.008,4.005,4.004,4.003,0,0,5.101,104.54,107.98288173629,31.16798,6,P-GPS,
133000,2025-08-24 20:42:17,39.0868714444936,-76.6192923901671,31.16798,,,107.98288173629,0.984252,0,7.677821768,15.6716868532,6,2,16.131,107.98288173629,31.16798,1.11847,7.677821768,0,0,-0.447388,87.6, -1.5, 5,0,0,1024,1024,1024,1024,0,0,0,0,101.2,0,0,92,4.008,4.005,4.004,4.003,0,0,5.101,104.54,107.98288173629,31.16798,6,P-GPS,
133100,2025-08-24 20:42:17,39.0868714117452,-76.6192924571715,31.16798,,,107.98288173629,0.984252,0,7.6990159944,15.6941277988,6,2,16.01,107.98288173629,31.16798,1.11847,7.6990159944,0,0,-0.447388,87.6, -1.4, 4.6,0,0,1024,1024,1024,1024,0,0,0,0,101.2,0,0,92,4.005,4.002,4.001,3.999,0,0,9.475,104.72,107.98288173629,31.16798,6,P-GPS,
133200,2025-08-24 20:42:17,39.0868713645003,-76.6192924937296,31.16798,,,107.98288173629,0.984252,0,7.7189306932,15.7142065396,7,2,16.01,107.98288173629,31.16798,1.11847,7.7189306932,0,0,-0.447388,87.5, -1.2, 4.6,0,0,1024,1024,1024,1024,0,0,0,0,101.2,0,0,92,4.005,4.002,4.001,3.999,0,0,9.475,104.72,107.98288173629,31.16798,6,P-GPS,
133300,2025-08-24 20:42:17,39.0868712889351,-76.619292492761,31.496064,,,108.31096573629,0.984252,0,7.7403545784,15.741798404,7,2,16.01,108.31096573629,31.496064,1.11847,7.7403545784,0,0,-0.447388,87.4, -0.9, 4.2,0,0,1024,1024,1024,1024,0,0,0,0,101.2,0,0,92,4.005,4.002,4.001,3.999,0,0,9.475,104.72,108.31096573629,31.496064,6,P-GPS,
133400,2025-08-24 20:42:17,39.0868711915197,-76.619292479486,31.496064,,,108.31096573629,0.984252,0,7.7658795136,15.7775267516,7,2,16.01,108.31096573629,31.496064,1.11847,7.7658795136,0,0,-0.447388,87.4, -0.7, 4.1,0,0,1024,1024,1024,1024,0,0,0,0,101.2,0,0,92,4.005,4.002,4.001,3.999,0,0,9.475,104.72,108.31096573629,31.496064,6,P-GPS,
133500,2025-08-24 20:42:18,39.0868711304027,-76.6192924690972,31.496064,,,108.31096573629,0.984252,0,7.7815947372,15.800033314,7,2,16.01,108.31096573629,31.496064,1.11847,7.7815947372,0,0,-0.447388,87.3, -0.6, 4.1,0,0,1024,1024,1024,1024,0,0,0,0,101.2,0,0,92,4.005,4.002,4.001,3.999,0,0,9.475,104.72,108.31096573629,31.496064,6,P-GPS,
133600,2025-08-24 20:42:18,39.0868717360951,-76.6192951902896,31.496064,,,108.31096573629,0.656168,0,8.117782412,16.601706568,8,2,16.01,108.31096573629,31.496064,1.11847,8.117782412,0,0,-0.447388,87.3, -0.9, 4.3,0,0,1024,1024,1024,1024,0,0,0,0,101.2,0,0,92,4.005,4.002,4.001,3.999,0,0,9.475,104.72,108.31096573629,31.496064,6,P-GPS,
133700,2025-08-24 20:42:18,39.0868715947685,-76.6192951130179,31.496064,,,108.31096573629,0.984252,0,8.1403873996,16.6577105068,8,2,16.01,108.31096573629,31.496064,1.11847,8.1403873996,0,0,-0.447388,87.2, -1, 3.8,0,0,1024,1024,1024,1024,0,0,0,0,101.2,0,0,92,4.005,4.002,4.001,3.999,0,0,9.475,104.72,108.31096573629,31.496064,6,P-GPS,
133800,2025-08-24 20:42:18,39.0868722091125,-76.6192953175269,31.824148,,,108.63904973629,0.984252,0,8.0184385768,16.8892393856,9,0,16.01,108.63904973629,31.824148,1.11847,8.1403873996,0,0,-0.447388,87.3, -0.8, 3.8,0,0,1024,1024,1024,1024,0,0,0,0,101.2,0,0,92,4.005,4.002,4.001,3.999,0,0,9.475,104.72,108.63904973629,31.824148,6,P-GPS,
133900,2025-08-24 20:42:18,39.0868721903293,-76.6192951857092,31.824148,,,108.63904973629,0.984252,0,7.9972771588,16.927165896,9,0,16.01,108.63904973629,31.824148,1.11847,8.1403873996,0,0,-0.447388,87.2, -0.3, 4,0,0,1024,1024,1024,1024,0,0,0,0,101.2,0,0,92,4.005,4.002,4.001,3.999,0,0,9.475,104.72,108.63904973629,31.824148,6,P-GPS,
134000,2025-08-24 20:42:18,39.0868729198845,-76.6192953062358,31.824148,,,108.63904973629,0.984252,0,7.8330383084,17.195538608,10,0,16.01,108.63904973629,31.824148,1.11847,8.1403873996,0,0,-0.447388,87.2, -0.3, 4.1,0,0,1024,1024,1024,1024,0,0,0,0,101.2,0,0,92,4.005,4.002,4.001,3.999,0,0,9.475,104.72,108.63904973629,31.824148,6,P-GPS,
134100,2025-08-24 20:42:18,39.0868729638611,-76.6192952202502,31.824148,,,108.63904973629,0.984252,0,7.8044293836,17.2247052756,10,0,16.001,108.63904973629,31.824148,1.11847,8.1403873996,0,0,-0.223694,87.1, -0.5, 4.4,0,0,1024,1024,1024,1024,0,0,0,0,101.2,0,0,92,4.003,4,4.001,4.001,0,0,9.28,104.54,108.63904973629,31.824148,6,P-GPS,
134200,2025-08-24 20:42:18,39.0868734468837,-76.619295359038,32.152232,,,108.96713373629,0.984252,0,7.7109910604,17.4052499008,12,0,16.001,108.96713373629,32.152232,1.11847,8.1403873996,0,0,-0.223694,87.1, -0.6, 4.5,0,0,1024,1024,1024,1024,0,0,0,0,101.2,0,0,92,4.003,4,4.001,4.001,0,0,9.28,104.54,108.96713373629,32.152232,6,P-GPS,
134300,2025-08-24 20:42:18,39.0868734617956,-76.6192953128913,32.152232,,,108.96713373629,0.656168,0,7.6977364668,17.4194231296,12,0,16.001,108.96713373629,32.152232,1.11847,8.1403873996,0,0,-0.223694,87.1, -0.9, 4.8,0,0,1024,1024,1024,1024,0,0,0,0,101.2,0,0,92,4.003,4,4.001,4.001,0,0,9.28,104.54,108.96713373629,32.152232,6,P-GPS,
134400,2025-08-24 20:42:18,39.086873516241,-76.6192954534505,32.152232,,,108.96713373629,0.984252,0,7.71325484,17.46391132,12,0,16.001,108.96713373629,32.152232,1.11847,8.1403873996,0,0,-0.447388,87.2, -1, 4.9,0,0,1024,1024,1024,1024,0,0,0,0,101.2,0,0,92,4.003,4,4.001,4.001,0,0,9.28,104.54,108.96713373629,32.152232,6,P-GPS,
134500,2025-08-24 20:42:18,39.086873485991,-76.619295352537,32.152232,,,108.96713373629,0.984252,0,7.6999018212,17.4945215572,12,0,16.001,108.96713373629,32.152232,1.11847,8.1403873996,0,0,-0.447388,87.4, -0.7, 4.7,0,0,1024,1024,1024,1024,0,0,0,0,101.2,0,0,92,4.003,4,4.001,4.001,0,0,9.28,104.54,108.96713373629,32.152232,6,P-GPS,
134600,2025-08-24 20:42:19,39.0868735904848,-76.6192952547305,32.152232,,,108.96713373629,0.984252,0,7.6536091688,17.541667228,12,0,16.001,108.96713373629,32.152232,1.11847,8.1403873996,0,0,-0.223694,87.3, -0.5, 4.8,0,0,1024,1024,1024,1024,0,0,0,0,101.2,0,0,92,4.003,4,4.001,4.001,0,0,9.28,104.54,108.96713373629,32.152232,6,P-GPS,
134700,2025-08-24 20:42:19,39.0868735744356,-76.6192951047842,32.480316,,,109.29521773629,0.656168,0,7.626640664,17.5845149984,12,0,16.001,109.29521773629,32.480316,1.11847,8.1403873996,0,0,-0.223694,87.4, 0, 4.5,0,0,1024,1024,1024,1024,0,0,0,0,101.2,0,0,92,4.003,4,4.001,4.001,0,0,9.28,104.54,109.29521773629,32.480316,6,P-GPS,
134800,2025-08-24 20:42:19,39.0868739211529,-76.6192948625719,32.480316,,,109.29521773629,0.984252,0,7.4901249116,17.7284126408,12,2,16.001,109.29521773629,32.480316,1.11847,8.1403873996,0,0,-0.223694,87.4, 0, 4.9,0,0,1024,1024,1024,1024,0,0,0,0,101.2,0,0,92,4.003,4,4.001,4.001,0,0,9.28,104.54,109.29521773629,32.480316,6,P-GPS,
134900,2025-08-24 20:42:19,39.0868739602623,-76.6192946842599,32.480316,,,109.29521773629,0.984252,0,7.4434713668,17.7809060808,12,2,16.001,109.29521773629,32.480316,1.11847,8.1403873996,0,0,-0.223694,87.7, -0.1, 5.4,0,0,1024,1024,1024,1024,0,0,0,0,101.2,0,0,92,4.003,4,4.001,4.001,0,0,9.28,104.54,109.29521773629,32.480316,6,P-GPS,
135000,2025-08-24 20:42:19,39.0868741414876,-76.6192946581513,32.480316,,,109.29521773629,1.312336,0,7.3930120476,17.847441516,12,2,16.001,109.29521773629,32.480316,1.11847,8.1403873996,0,0,-0.223694,87.7, 0, 5.9,0,0,1024,1024,1024,1024,0,0,0,0,101.2,0,0,92,4.003,4,4.001,4.001,0,0,9.28,104.54,109.29521773629,32.480316,6,P-GPS,
135100,2025-08-24 20:42:19,39.0868741903634,-76.6192945106551,32.480316,,,109.29521773629,0.984252,0,7.3502627024,17.8928483416,12,2,16,109.29521773629,32.480316,1.11847,8.1403873996,0,0,-0.223694,87.7, 0.2, 6.1,0,0,1024,1024,1024,1024,0,0,0,0,101.2,0,0,92,4.003,4,4,4,0,0,9.195,104.72,109.29521773629,32.480316,6,P-GPS,
135200,2025-08-24 20:42:19,39.0868748187359,-76.619294689784,32.8084,,,109.62330173629,0.984252,0,7.2341865832,18.1276580604,14,2,16,109.62330173629,32.8084,1.11847,8.1403873996,0,0,-0.223694,87.9, 0.3, 6.1,0,0,1024,1024,1024,1024,0,0,0,0,101.2,0,0,92,4.003,4,4,4,0,0,9.195,104.72,109.62330173629,32.8084,6,P-GPS,
135300,2025-08-24 20:42:19,39.0868748814089,-76.6192947645171,32.8084,,,109.62330173629,1.312336,0,7.23507241,18.1588260404,14,2,16,109.62330173629,32.8084,1.11847,8.1403873996,0,0,-0.223694,87.9, -0.4, 6.4,0,0,1024,1024,1024,1024,0,0,0,0,101.2,0,0,92,4.003,4,4,4,0,0,9.195,104.72,109.62330173629,32.8084,6,P-GPS,
135400,2025-08-24 20:42:19,39.0868752456104,-76.6192948907335,32.8084,,,109.62330173629,1.312336,0,7.1758204396,18.29642447,12,2,16,109.62330173629,32.8084,1.11847,8.1403873996,0,0,-0.223694,87.8, -1.4, 6.4,0,0,1024,1024,1024,1024,0,0,0,0,101.2,0,0,92,4.003,4,4,4,0,0,9.195,104.72,109.62330173629,32.8084,6,P-GPS,
135500,2025-08-24 20:42:20,39.0868752356501,-76.6192948304315,32.8084,,,109.62330173629,0.984252,0,7.1650920928,18.3138785388,12,2,16,109.62330173629,32.8084,1.11847,8.1403873996,0,0,-0.223694,88, -2.1, 5.9,0,0,1024,1024,1024,1024,0,0,0,0,101.2,0,0,92,4.003,4,4,4,0,0,9.195,104.72,109.62330173629,32.8084,6,P-GPS,
135600,2025-08-24 20:42:20,39.086875761179,-76.6192947753723,32.8084,,,109.62330173629,0.984252,0,7.03084012,18.506234188,13,3,16,109.62330173629,32.8084,1.11847,8.1403873996,0,0,-0.223694,88, -1.9, 5.7,0,0,1024,1024,1024,1024,0,0,0,0,101.2,0,0,92,4.003,4,4,4,0,0,9.195,104.72,109.62330173629,32.8084,6,P-GPS,"SD card speed low. Normal use may be affected. Replace SD card (Code: 10028)"
135700,2025-08-24 20:42:20,39.0868757446811,-76.6192946792103,32.8084,,,109.62330173629,0.984252,0,7.0135172848,18.534121328,13,3,16,109.62330173629,32.8084,1.11847,8.1403873996,0,0,-0.223694,88, -0.8, 5.6,0,0,1024,1024,1024,1024,0,0,0,0,101.2,0,0,92,4.003,4,4,4,0,0,9.195,104.72,109.62330173629,32.8084,6,P-GPS,
135800,2025-08-24 20:42:20,39.0868761883923,-76.6192948455084,32.8084,,,109.62330173629,0.984252,0,6.949311246,18.7027236956,13,3,16,109.62330173629,32.8084,1.11847,8.1403873996,0,0,-0.223694,88.1, 0.4, 5.9,0,0,1024,1024,1024,1024,0,0,0,0,101.2,0,0,92,4.003,4,4,4,0,0,9.195,104.72,109.62330173629,32.8084,6,P-GPS,
135900,2025-08-24 20:42:20,39.0868761830813,-76.6192947870993,33.136484,,,109.95138573629,0.984252,0,6.9374674136,18.7193903628,13,3,16,109.95138573629,33.136484,1.11847,8.1403873996,0,0,-0.223694,88.1, 0.8, 5.6,0,0,1024,1024,1024,1024,0,0,0,0,101.2,0,0,92,4.003,4,4,4,0,0,9.195,104.72,109.95138573629,33.136484,6,P-GPS,
136000,2025-08-24 20:42:20,39.0868767009438,-76.6192949411074,33.136484,,,109.95138573629,0.984252,0,6.857611768,18.9132880068,13,3,16,109.95138573629,33.136484,1.11847,8.1403873996,0,0,-0.447388,88.1, 0.9, 4.9,0,0,1024,1024,1024,1024,0,0,0,0,101.2,0,0,92,4.003,4,4,4,0,0,9.195,104.72,109.95138573629,33.136484,6,P-GPS,
136100,2025-08-24 20:42:20,39.0868767416285,-76.6192948700166,33.136484,,,109.95138573629,0.984252,0,6.8325789588,18.938320816,13,3,15.991,109.95138573629,33.136484,1.11847,8.1403873996,0,0,-0.447388,88.1, 0.8, 5.3,0,0,1024,1024,1024,1024,0,0,0,0,101.2,0,0,92,3.998,3.996,3.996,3.996,0,0,9.223,104.72,109.95138573629,33.136484,6,P-GPS,
136200,2025-08-24 20:42:20,39.0868770927679,-76.6192951680717,33.136484,,,109.95138573629,1.312336,0,6.8257220032,19.0917328944,13,3,15.991,109.95138573629,33.136484,1.11847,8.1403873996,0,0,-0.447388,88, 0.4, 6.2,0,0,1024,1024,1024,1024,0,0,0,0,101.2,0,0,92,3.998,3.996,3.996,3.996,0,0,9.223,104.72,109.95138573629,33.136484,6,P-GPS,
136300,2025-08-24 20:42:20,39.0868771538731,-76.6192952016304,33.136484,,,109.95138573629,1.312336,0,6.8206367012,19.115978302,13,3,15.991,109.95138573629,33.136484,1.11847,8.1403873996,0,0,-0.223694,88, 0.1, 7.1,0,0,1024,1024,1024,1024,0,0,0,0,101.2,0,0,92,3.998,3.996,3.996,3.996,0,0,9.223,104.72,109.95138573629,33.136484,6,P-GPS,
136400,2025-08-24 20:42:20,39.0868774921123,-76.6192958024149,33.136484,,,109.95138573629,0.984252,0,6.891732504,19.3261489124,13,3,15.991,109.95138573629,33.136484,1.11847,8.1403873996,0,0,-0.223694,88, -0.2, 7.5,0,0,1024,1024,1024,1024,0,0,0,0,101.2,0,0,92,3.998,3.996,3.996,3.996,0,0,9.223,104.72,109.95138573629,33.136484,6,P-GPS,
136500,2025-08-24 20:42:20,39.0868775084351,-76.6192958758622,33.464568,,,110.27946973629,0.656168,0,6.9058073076,19.347769648,13,3,15.991,110.27946973629,33.464568,1.11847,8.1403873996,0,0,-0.223694,88, -0.9, 6.9,0,0,1024,1024,1024,1024,0,0,0,0,101.2,0,0,92,3.998,3.996,3.996,3.996,0,0,9.223,104.72,110.27946973629,33.464568,6,P-GPS,
136600,2025-08-24 20:42:21,39.0868775267283,-76.6192962917287,33.464568,,,110.27946973629,0.984252,0,7.0009188592,19.4657486544,14,3,15.991,110.27946973629,33.464568,1.11847,8.1403873996,0,0,-0.223694,87.8, -1.7, 5.6,0,0,1024,1024,1024,1024,0,0,0,0,101.2,0,0,92,3.998,3.996,3.996,3.996,0,0,9.223,104.72,110.27946973629,33.464568,6,P-GPS,
136700,2025-08-24 20:42:21,39.0868775336478,-76.619296332114,33.464568,,,110.27946973629,0.984252,0,7.009186576,19.4774612532,14,3,15.991,110.27946973629,33.464568,1.11847,8.1403873996,0,0,-0.447388,88, -1.9, 4.8,0,0,1024,1024,1024,1024,0,0,0,0,101.2,0,0,92,3.998,3.996,3.996,3.996,0,0,9.223,104.72,110.27946973629,33.464568,6,P-GPS,
136800,2025-08-24 20:42:21,39.0868777068587,-76.6192965534934,33.464568,,,110.27946973629,0.984252,0,7.02837949,19.5664704424,12,3,15.991,110.27946973629,33.464568,1.11847,8.1403873996,0,0,-0.447388,88.2, -1.3, 5.5,0,0,1024,1024,1024,1024,0,0,0,0,101.2,0,0,92,3.998,3.996,3.996,3.996,0,0,9.223,104.72,110.27946973629,33.464568,6,P-GPS,
136900,2025-08-24 20:42:21,39.0868776847654,-76.6192964804986,33.464568,,,110.27946973629,0.984252,0,7.0151248964,19.5886489208,12,3,15.991,110.27946973629,33.464568,1.11847,8.1403873996,0,0,-0.447388,88.2, -0.3, 6.3,0,0,1024,1024,1024,1024,0,0,0,0,101.2,0,0,92,3.998,3.996,3.996,3.996,0,0,9.223,104.72,110.27946973629,33.464568,6,P-GPS,
137000,2025-08-24 20:42:21,39.0868780813807,-76.6192967583556,33.792652,,,110.60755373629,0.984252,0,7.0067915628,19.7533798972,16,3,15.991,110.60755373629,33.792652,1.11847,8.1403873996,0,0,-0.223694,88.3, 0.4, 6.4,0,0,1024,1024,1024,1024,0,0,0,0,101.2,0,0,92,3.998,3.996,3.996,3.996,0,0,9.223,104.72,110.60755373629,33.792652,6,P-GPS,
137100,2025-08-24 20:42:21,39.0868780357352,-76.6192966862769,33.792652,,,110.60755373629,0.984252,0,6.9978348696,19.7797250424,16,3,15.983,110.60755373629,33.792652,1.11847,8.1403873996,0,0,-0.223694,88.2, 0.9, 6,0,0,1024,1024,1024,1024,0,0,0,0,101.2,0,0,92,3.998,3.993,3.992,3.992,0,0,9.261,104.72,110.60755373629,33.792652,6,P-GPS,
137200,2025-08-24 20:42:21,39.0868777549624,-76.6192969682231,33.792652,,,110.60755373629,1.312336,0,7.1191603328,19.909613498,17,3,15.983,110.60755373629,33.792652,1.11847,8.1403873996,0,0,-0.223694,88.2, 0.6, 5.3,0,0,1024,1024,1024,1024,0,0,0,0,101.2,0,0,92,3.998,3.993,3.992,3.992,0,0,9.261,104.72,110.60755373629,33.792652,6,P-GPS,
137300,2025-08-24 20:42:21,39.0868777104043,-76.6192969732948,33.792652,,,110.60755373629,0.984252,0,7.1288388108,19.9259192728,17,3,15.983,110.60755373629,33.792652,1.11847,8.1403873996,0,0,-0.223694,88.1, 0, 5.5,0,0,1024,1024,1024,1024,0,0,0,0,101.2,0,0,92,3.998,3.993,3.992,3.992,0,0,9.261,104.72,110.60755373629,33.792652,6,P-GPS,
137400,2025-08-24 20:42:21,39.086877116007,-76.6192975535279,33.792652,,,110.60755373629,0.984252,0,7.3828414436,20.197999334,16,3,15.983,110.60755373629,33.792652,1.11847,8.1403873996,0,0,-0.223694,88.3, 0.3, 5.3,0,0,1024,1024,1024,1024,0,0,0,0,101.2,0,0,92,3.998,3.993,3.992,3.992,0,0,9.261,104.72,110.60755373629,33.792652,6,P-GPS,
137500,2025-08-24 20:42:22,39.0868770104487,-76.6192976158827,34.120736,,,110.93563773629,0.984252,0,7.4183401324,20.2403877868,16,3,15.983,110.93563773629,34.120736,1.11847,8.1403873996,0,0,-0.223694,88.3, 0.2, 4.9,0,0,1024,1024,1024,1024,0,0,0,0,101.2,0,0,92,3.998,3.993,3.992,3.992,0,0,9.261,104.72,110.93563773629,34.120736,6,P-GPS,
137600,2025-08-24 20:42:22,39.0868768618813,-76.6192981536667,34.120736,,,110.93563773629,0.984252,0,7.5760501112,20.4020347736,16,3,15.983,110.93563773629,34.120736,1.11847,8.1403873996,0,0,-0.223694,88, 0, 4.1,0,0,1024,1024,1024,1024,0,0,0,0,101.2,0,0,92,3.998,3.993,3.992,3.992,0,0,9.261,104.72,110.93563773629,34.120736,6,P-GPS,
137700,2025-08-24 20:42:22,39.0868767911463,-76.6192982559598,34.120736,,,110.93563773629,0.984252,0,7.614337514,20.4408143024,16,3,15.983,110.93563773629,34.120736,1.11847,8.1403873996,0,0,-0.223694,87.8, -0.9, 4.1,0,0,1024,1024,1024,1024,0,0,0,0,101.2,0,0,92,3.998,3.993,3.992,3.992,0,0,9.261,104.72,110.93563773629,34.120736,6,P-GPS,
137800,2025-08-24 20:42:22,39.0868768023776,-76.6192987205613,34.120736,,,110.93563773629,1.312336,0,7.7238519532,20.5724744116,16,3,15.983,110.93563773629,34.120736,1.11847,8.1403873996,0,0,-0.223694,87.7, -1.7, 4.7,0,0,1024,1024,1024,1024,0,0,0,0,101.2,0,0,92,3.998,3.993,3.992,3.992,0,0,9.261,104.72,110.93563773629,34.120736,6,P-GPS,
137900,2025-08-24 20:42:22,39.0868767300314,-76.619298793087,34.120736,,,110.93563773629,1.312336,0,7.7551839752,20.6059061712,16,3,15.983,110.93563773629,34.120736,1.11847,8.1403873996,0,0,-0.223694,87.9, -1.9, 4.5,0,0,1024,1024,1024,1024,0,0,0,0,101.2,0,0,92,3.998,3.993,3.992,3.992,0,0,9.261,104.72,110.93563773629,34.120736,6,P-GPS,
138000,2025-08-24 20:42:22,39.0868766652552,-76.6192991841143,34.120736,,,110.93563773629,0.984252,0,7.8619097004,20.7191279596,17,3,15.983,110.93563773629,34.120736,1.11847,8.1403873996,0,0,-0.223694,87.7, -1.2, 4.5,0,0,1024,1024,1024,1024,0,0,0,0,101.2,0,0,92,3.998,3.993,3.992,3.992,0,0,9.261,104.72,110.93563773629,34.120736,6,P-GPS,
138100,2025-08-24 20:42:22,39.0868765975845,-76.6192993236801,34.44882,,,111.26372173629,1.312336,0,7.9084976284,20.765748696,17,3,15.984,111.26372173629,34.44882,1.11847,8.1403873996,0,0,-0.223694,87.3, -0.7, 4.2,0,0,1024,1024,1024,1024,0,0,0,0,101.2,0,0,92,3.999,3.996,3.995,3.996,0,0,9.121,104.72,111.26372173629,34.44882,6,P-GPS,
138200,2025-08-24 20:42:22,39.0868767133375,-76.6192997643198,34.44882,,,111.26372173629,0.984252,0,7.993602618,20.897474422,17,3,15.984,111.26372173629,34.44882,1.11847,8.1403873996,0,0,-0.223694,87.2, -1.3, 3.8,0,0,1024,1024,1024,1024,0,0,0,0,101.2,0,0,92,3.999,3.996,3.995,3.996,0,0,9.121,104.72,111.26372173629,34.44882,6,P-GPS,
138300,2025-08-24 20:42:22,39.0868766764903,-76.6193000442683,34.44882,,,111.26372173629,0.984252,0,8.0686682372,20.9778878104,17,3,15.984,111.26372173629,34.44882,1.11847,8.1403873996,0,0,-0.223694,87.2, -2.3, 4.1,0,0,1024,1024,1024,1024,0,0,0,0,101.2,0,0,92,3.999,3.996,3.995,3.996,0,0,9.121,104.72,111.26372173629,34.44882,6,P-GPS,
138400,2025-08-24 20:42:22,39.086876806856,-76.6193002967065,34.44882,,,111.26372173629,0.984252,0,8.106463514,21.0637473932,17,3,15.984,111.26372173629,34.44882,1.11847,8.1403873996,0,0,-0.223694,87, -2.9, 4.8,0,0,1024,1024,1024,1024,0,0,0,0,101.2,0,0,92,3.999,3.996,3.995,3.996,0,0,9.121,104.72,111.26372173629,34.44882,6,P-GPS,
138500,2025-08-24 20:42:22,39.0868767493671,-76.6193005793812,34.44882,,,111.26372173629,0.984252,0,8.1863191596,21.1465229864,17,3,15.984,111.26372173629,34.44882,1.11847,8.1863191596,0,0,-0.223694,86.8, -2.8, 5.1,0,0,1024,1024,1024,1024,0,0,0,0,101.2,0,0,92,3.999,3.996,3.995,3.996,0,0,9.121,104.72,111.26372173629,34.44882,6,P-GPS,
138600,2025-08-24 20:42:23,39.0868767435662,-76.619300691227,34.44882,,,111.26372173629,0.984252,0,8.2148624676,21.1782487092,17,4,15.984,111.26372173629,34.44882,1.11847,8.2148624676,0,0,-0.223694,86.7, -2.6, 4.9,0,0,1024,1024,1024,1024,0,0,0,0,101.2,0,0,92,3.999,3.996,3.995,3.996,0,0,9.121,104.72,111.26372173629,34.44882,6,P-GPS,
138700,2025-08-24 20:42:23,39.0868768446456,-76.6193010810678,34.776904,,,111.59180573629,1.312336,0,8.2929464596,21.2946529124,17,4,15.984,111.59180573629,34.776904,1.11847,8.2929464596,0,0,-0.223694,86.9, -3.1, 4.7,0,0,1024,1024,1024,1024,0,0,0,0,101.2,0,0,92,3.999,3.996,3.995,3.996,0,0,9.121,104.72,111.59180573629,34.776904,6,P-GPS,
138800,2025-08-24 20:42:23,39.0868768782587,-76.6193009422911,34.776904,,,111.59180573629,1.312336,0,8.252624936,21.3358274544,17,4,15.984,111.59180573629,34.776904,1.11847,8.2929464596,0,0,-0.223694,86.9, -3.7, 4.8,0,0,1024,1024,1024,1024,0,0,0,0,101.2,0,0,92,3.999,3.996,3.995,3.996,0,0,9.121,104.72,111.59180573629,34.776904,6,P-GPS,
138900,2025-08-24 20:42:23,39.0868769014127,-76.6193010038458,34.776904,,,111.59180573629,1.312336,0,8.2637469836,21.3551844104,17,4,15.984,111.59180573629,34.776904,1.11847,8.2929464596,0,0,-0.223694,86.4, -3.7, 5.5,0,0,1024,1024,1024,1024,0,0,0,0,101.2,0,0,92,3.999,3.996,3.995,3.996,0,0,9.121,104.72,111.59180573629,34.776904,6,P-GPS,
139000,2025-08-24 20:42:23,39.0868767050318,-76.6193007380691,34.776904,,,111.59180573629,0.984252,0,8.2333664052,21.4591214216,17,4,15.984,111.59180573629,34.776904,1.11847,8.2929464596,0,0,-0.223694,86.2, -3.4, 5.6,0,0,1024,1024,1024,1024,0,0,0,0,101.2,0,0,92,3.999,3.996,3.995,3.996,0,0,9.121,104.72,111.59180573629,34.776904,6,P-GPS,
139100,2025-08-24 20:42:23,39.0868766307399,-76.6193005879295,34.776904,,,111.59180573629,0.984252,0.3131716,8.2100396328,21.509515124,17,4,15.97,111.59180573629,34.776904,1.11847,8.2929464596,-0.223694,0.223694,-0.223694,86.6, -3.3, 4.1,0,0,1024,1024,1024,1024,0,0,0,0,101.2,0,0,92,3.997,3.996,3.995,3.995,0,0,9.21,104.72,111.59180573629,34.776904,6,P-GPS,
139200,2025-08-24 20:42:23,39.0868766676117,-76.6193002409298,34.776904,,,111.59180573629,0.984252,0.4921268,8.1183401548,21.6087277256,17,5,15.97,111.59180573629,34.776904,1.11847,8.2929464596,-0.223694,0.447388,-0.223694,86.8, -1.8, 2.8,0,0,1024,1024,1024,1024,0,0,0,0,101.2,0,0,92,3.997,3.996,3.995,3.995,0,0,9.21,104.72,111.59180573629,34.776904,6,P-GPS,
139300,2025-08-24 20:42:23,39.0868766161128,-76.6192999252924,34.776904,,,111.59180573629,1.312336,0.447388,8.0508860844,21.7000663112,17,5,15.97,111.59180573629,34.776904,1.11847,8.2929464596,0,0.447388,-0.223694,86.9, 0.6, 2,0,0,1024,1024,1024,1024,0,0,0,0,101.2,0,0,92,3.997,3.996,3.995,3.995,0,0,9.21,104.72,111.59180573629,34.776904,6,P-GPS,
139400,2025-08-24 20:42:23,39.0868766620822,-76.6192995763998,35.104988,,,111.91988973629,1.312336,0.447388,7.957513378,21.8002631648,17,5,15.97,111.91988973629,35.104988,1.11847,8.2929464596,0,0.447388,-0.223694,87.2, 2.4, 2.5,0,0,1024,1024,1024,1024,0,0,0,0,101.2,0,0,92,3.997,3.996,3.995,3.995,0,0,9.21,104.72,111.91988973629,35.104988,6,P-GPS,
139500,2025-08-24 20:42:24,39.0868766423091,-76.6192992109347,35.104988,,,111.91988973629,0.984252,0.447388,7.8727692808,21.9040033256,17,5,15.97,111.91988973629,35.104988,1.11847,8.2929464596,0,0.447388,-0.223694,87.2, 2.6, 3.3,0,0,1024,1024,1024,1024,0,0,0,0,101.2,0,0,92,3.997,3.996,3.995,3.995,0,0,9.21,104.72,111.91988973629,35.104988,6,P-GPS,
139600,2025-08-24 20:42:24,39.0868765425479,-76.6192994267128,35.104988,,,111.91988973629,0.984252,0.223694,7.9438650836,21.9751319368,17,5,15.97,111.91988973629,35.104988,1.11847,8.2929464596,0,0.223694,-0.223694,87.2, 2.1, 3.5,0,0,1024,1024,1024,1024,0,0,0,0,101.2,0,0,92,3.997,3.996,3.995,3.995,0,0,9.21,104.72,111.91988973629,35.104988,6,P-GPS,
139700,2025-08-24 20:42:24,39.086876509981,-76.6192991744512,35.104988,,,111.91988973629,0.984252,0.223694,7.889271906,22.047572884,17,5,15.97,111.91988973629,35.104988,1.11847,8.2929464596,0,0.223694,-0.223694,87.2, 1.8, 3.3,0,0,1024,1024,1024,1024,0,0,0,0,101.2,0,0,92,3.997,3.996,3.995,3.995,0,0,9.21,104.72,111.91988973629,35.104988,6,P-GPS,
139800,2025-08-24 20:42:24,39.0868761214557,-76.6192992203771,35.104988,,,111.91988973629,0.984252,0.223694,7.9758532736,22.1898957232,17,5,15.97,111.91988973629,35.104988,1.11847,8.2929464596,0,0.223694,-0.223694,87.2, 1.5, 3.4,0,0,1024,1024,1024,1024,0,0,0,0,101.2,0,0,92,3.997,3.996,3.995,3.995,0,0,9.21,104.72,111.91988973629,35.104988,6,P-GPS,
139900,2025-08-24 20:42:24,39.0868759548093,-76.6192989364552,35.104988,,,111.91988973629,0.984252,0.223694,7.941437262,22.2907159364,17,5,15.97,111.91988973629,35.104988,1.11847,8.2929464596,0,0.223694,-0.223694,87.2, 1.4, 3.2,0,0,1024,1024,1024,1024,0,0,0,0,101.2,0,0,92,3.997,3.996,3.995,3.995,0,0,9.21,104.72,111.91988973629,35.104988,6,P-GPS,
140000,2025-08-24 20:42:24,39.0868761330168,-76.6192991246677,35.433072,,,112.24797373629,0.984252,0.223694,7.9507548476,22.3748038656,17,5,15.97,112.24797373629,35.433072,1.11847,8.2929464596,0,0.223694,-0.447388,87.4, 1.4, 3,0,0,1024,1024,1024,1024,0,0,0,0,101.2,0,0,92,3.997,3.996,3.995,3.995,0,0,9.21,104.72,112.24797373629,35.433072,6,P-GPS,
140100,2025-08-24 20:42:24,39.086876037483,-76.6192989322776,35.433072,,,112.24797373629,0.984252,0,7.9239503848,22.439469222,17,5,15.976,112.24797373629,35.433072,1.11847,8.2929464596,0,0,-0.447388,87.5, 1.4, 2.5,0,0,1024,1024,1024,1024,0,0,0,0,101.2,0,0,92,4,3.996,3.995,3.994,0,0,8.96,104.9,112.24797373629,35.433072,6,P-GPS,
140200,2025-08-24 20:42:24,39.0868761800272,-76.6192991332215,35.433072,,,112.24797373629,0.984252,0,7.9435369996,22.516568962,17,5,15.976,112.24797373629,35.433072,1.11847,8.2929464596,0,0,-0.223694,87.5, 1.5, 2.1,0,0,1024,1024,1024,1024,0,0,0,0,101.2,0,0,92,4,3.996,3.995,3.994,0,0,8.96,104.9,112.24797373629,35.433072,6,P-GPS,
140300,2025-08-24 20:42:24,39.086876109419,-76.619299029753,35.433072,,,112.24797373629,0.984252,0,7.9328086528,22.5555781496,17,5,15.976,112.24797373629,35.433072,1.11847,8.2929464596,0,0,-0.223694,87.5, 1.4, 2,0,0,1024,1024,1024,1024,0,0,0,0,101.2,0,0,92,4,3.996,3.995,3.994,0,0,8.96,104.9,112.24797373629,35.433072,6,P-GPS,
140400,2025-08-24 20:42:24,39.0868762320139,-76.6192992533232,35.433072,,,112.24797373629,0.984252,0,7.9620409372,22.6331043988,18,5,15.976,112.24797373629,35.433072,1.11847,8.2929464596,0,0,-0.223694,87.2, 1.2, 2.2,0,0,1024,1024,1024,1024,0,0,0,0,101.2,0,0,92,4,3.996,3.995,3.994,0,0,8.96,104.9,112.24797373629,35.433072,6,P-GPS,
140500,2025-08-24 20:42:24,39.0868762055215,-76.6192992294994,35.433072,,,112.24797373629,1.312336,0,7.9615160028,22.6448826144,18,5,15.976,112.24797373629,35.433072,1.11847,8.2929464596,0,0,-0.223694,87.2, 1, 3.2,0,0,1024,1024,1024,1024,0,0,0,0,101.2,0,0,92,4,3.996,3.995,3.994,0,0,8.96,104.9,112.24797373629,35.433072,6,P-GPS,
140600,2025-08-24 20:42:25,39.0868763610656,-76.6192992799727,35.761156,,,112.57605773629,0.984252,0,7.9433729576,22.7034128,18,5,15.976,112.57605773629,35.761156,1.11847,8.2929464596,0,0,-0.223694,87.3, 1.3, 3.3,0,0,1024,1024,1024,1024,0,0,0,0,101.2,0,0,92,4,3.996,3.995,3.994,0,0,8.96,104.9,112.57605773629,35.761156,6,P-GPS,
140700,2025-08-24 20:42:25,39.0868763741469,-76.6192992391404,35.761156,,,112.57605773629,0.984252,0,7.9310369992,22.7159128004,18,5,15.976,112.57605773629,35.761156,1.11847,8.2929464596,0,0,-0.223694,87.4, 1.5, 3.1,0,0,1024,1024,1024,1024,0,0,0,0,101.2,0,0,92,4,3.996,3.995,3.994,0,0,8.96,104.9,112.57605773629,35.761156,6,P-GPS,
