time(millisecond),datetime(utc),latitude,longitude,height_above_takeoff(feet),height_above_ground_at_drone_location(feet),ground_elevation_at_drone_location(feet),altitude_above_seaLevel(feet),height_sonar(feet),speed(mph),distance(feet),mileage(feet),satellites,gpslevel,voltage(v),max_altitude(feet),max_ascent(feet),max_speed(mph),max_distance(feet), xSpeed(mph), ySpeed(mph), zSpeed(mph), compass_heading(degrees), pitch(degrees), roll(degrees),isPhoto,isVideo,rc_elevator,rc_aileron,rc_throttle,rc_rudder,rc_elevator(percent),rc_aileron(percent),rc_throttle(percent),rc_rudder(percent),gimbal_heading(degrees),gimbal_pitch(degrees),gimbal_roll(degrees),battery_percent,voltageCell1,voltageCell2,voltageCell3,voltageCell4,voltageCell5,voltageCell6,current(A),battery_temperature(f),altitude(feet),ascent(feet),flycStateRaw,flycState,message
955100,2025-09-08 23:52:42,39.393279286997,-76.9727209805111,0,Available with any HD 360 subscription,Available with any HD 360 subscription,591.6810412435,2.952756,0,0,0,22,5,0,591.6810412435,0,0,0,0,0,0,95, 4.9, 0,0,0,364,364,364,1684,-100,-100,-100,100,111.8,0,0,39,3.614,3.612,3.609,3.604,0,0,0,113.54,591.6810412435,0,6,P-GPS,"SD card speed low SD card speed low. Normal use may be affected. Replace SD card (Code: 10028). Aircraft not in flight. Vision systems and obstacle avoidance disabled (Code: 180059). Remote ID functionality normal (Code: 30331)"
955200,2025-09-08 23:52:42,39.3932788654608,-76.972720808354,0,,,591.6810412435,2.952756,0,0.161275595712,0.161275595712,22,5,0,591.6810412435,0,0,0.161275595712,0,0,0,95, 4.9, 0,0,0,364,364,364,1684,-100,-100,-100,100,111.9,0,0,39,3.614,3.612,3.609,3.604,0,0,0,113.54,591.6810412435,0,41,Motors_Started,
955300,2025-09-08 23:52:42,39.39327885563,-76.9727208042523,0,,,591.6810412435,2.952756,0,0.16504429662,0.16504429662,22,5,0,591.6810412435,0,0,0.16504429662,0,0,0,95, 4.9, 0,0,0,364,364,364,1684,-100,-100,-100,100,111.9,0,0,39,3.614,3.612,3.609,3.604,0,0,0,113.54,591.6810412435,0,41,Motors_Started,
955400,2025-09-08 23:52:43,39.3932788518004,-76.9727208168347,0,,,591.6810412435,2.952756,0,0.165352039412,0.168857288868,22,5,0,591.6810412435,0,0,0.165352039412,0,0,0,95.1, 4.9, 0,0,0,364,364,364,1684,-100,-100,-100,100,111.8,0,0,39,3.614,3.612,3.609,3.604,0,0,0,113.54,591.6810412435,0,41,Motors_Started,
955500,2025-09-08 23:52:43,39.3932788338736,-76.9727208056547,0,,,591.6810412435,0.328084,0,0.172516737804,0.176117787788,22,5,0,591.6810412435,0,0,0.172516737804,0,0,0,95, 4.9, 0,0,0,364,364,364,1684,-100,-100,-100,100,111.7,0,0,39,3.614,3.612,3.609,3.604,0,0,0,113.54,591.6810412435,0,41,Motors_Started,
955600,2025-09-08 23:52:43,39.3932787859401,-76.9727208313516,0,,,591.6810412435,0.328084,0,0.187585635924,0.195047906504,22,5,0,591.6810412435,0,0,0.187585635924,0,0,0,95.1, 4.9, 0,0,0,1011,749,1024,1119,-2,-42,0,14,111.7,0,0,39,3.614,3.612,3.609,3.604,0,0,0,113.54,591.6810412435,0,41,Motors_Started,
955700,2025-09-08 23:52:43,39.3932787450746,-76.9727208277126,0,,,591.6810412435,0.328084,0,0.202359586528,0.209992788872,22,5,0,591.6810412435,0,0,0.202359586528,0,0,0,95.1, 4.9, 0,0,0,1024,1024,1024,1024,0,0,0,0,111.6,0,0,39,3.614,3.612,3.609,3.604,0,0,0,113.54,591.6810412435,0,41,Motors_Started,
955800,2025-09-08 23:52:43,39.3932788187182,-76.9727207140776,0,,,591.6810412435,0.328084,0,0.186637801248,0.251808078924,22,5,0,591.6810412435,0,0,0.202359586528,0,0,0,95.1, 4.9, 0,0,0,1024,1024,1024,1024,0,0,0,0,111.5,0,0,39,3.614,3.612,3.609,3.604,0,0,0,113.54,591.6810412435,0,41,Motors_Started,
955900,2025-09-08 23:52:43,39.393278779549,-76.9727206970387,0,,,591.6810412435,0.328084,0,0.201658142936,0.26688485106,22,5,0,591.6810412435,0,0,0.202359586528,0,0,0,95.1, 4.9, 0,0,0,1024,1024,1024,1024,0,0,0,0,111.4,0,0,39,3.614,3.612,3.609,3.604,0,0,0,113.54,591.6810412435,0,41,Motors_Started,
956000,2025-09-08 23:52:43,39.3932787653703,-76.9727207247754,0,,,591.6810412435,0.328084,0,0.203517394964,0.27626149178,22,5,14.419,591.6810412435,0,0,0.203517394964,0,0,0,95.1, 4.9, 0,0,0,1024,1024,1024,1024,0,0,0,0,111.4,0,0,39,3.614,3.612,3.609,3.604,0,0,2.952,113.54,591.6810412435,0,41,Motors_Started,"Setting new Return-To-Home altitude to 65m (213 ft). Data Recorder File Index is 68. Setting new Maximum Flight Altitude to 120m (394 ft)"
956100,2025-09-08 23:52:43,39.3932787315212,-76.9727206937601,0,,,591.6810412435,0.328084,0,1.750574203,0.291394038196,22,5,14.419,591.6810412435,0,0,1.750574203,0,0,0,95, 4.9, 0,0,0,1024,1024,1024,1024,0,0,0,0,111.3,0,0,39,3.614,3.612,3.609,3.604,0,0,2.952,113.54,591.6810412435,0,41,Motors_Started,
956200,2025-09-08 23:52:43,39.3932788860692,-76.9727206735811,0,,,591.6810412435,0.328084,0,1.7557087176,0.34806759644,22,5,14.419,591.6810412435,0,0,1.7557087176,0,0,0,95.1, 4.9, 0,0,0,1024,1024,1024,1024,0,0,0,0,111.3,0,0,39,3.614,3.612,3.609,3.604,0,0,2.952,113.54,591.6810412435,0,41,Motors_Started,
956300,2025-09-08 23:52:44,39.3932788512735,-76.9727206362885,0.328084,,,592.0091252435,0.328084,0,1.76618772056,0.3645505366,22,5,14.419,592.0091252435,0.328084,0,1.76618772056,0,0,0,95.1, 4.9, 0,0,0,1024,1024,1024,1024,0,0,0,0,111.3,0,0,39,3.614,3.612,3.609,3.604,0,0,2.952,113.54,592.0091252435,0.328084,41,Motors_Started,
956400,2025-09-08 23:52:44,39.3932788873907,-76.972720674177,0.328084,,,592.0091252435,0.328084,0,1.75554139476,0.38151576024,22,5,14.419,592.0091252435,0.328084,0,1.76618772056,0,0,0,95.1, 5, 0,0,0,1024,1024,1024,1024,0,0,0,0,111.3,0,0,39,3.614,3.612,3.609,3.604,0,0,2.952,113.54,592.0091252435,0.328084,41,Motors_Started,
956500,2025-09-08 23:52:44,39.3932788785708,-76.9727206529144,0.328084,,,592.0091252435,0.328084,0,1.76151908524,0.3883202224,22,5,14.419,592.0091252435,0.328084,0,1.76618772056,0,0,0,95.1, 5, 0,0,0,1024,1024,1024,1024,0,0,0,0,111.2,0,0,39,3.614,3.612,3.609,3.604,0,0,2.952,113.54,592.0091252435,0.328084,41,Motors_Started,
956600,2025-09-08 23:52:44,39.3932789149343,-76.972720698563,0.328084,,,592.0091252435,0.328084,0,1.74875989848,0.40680447496,22,5,14.419,592.0091252435,0.328084,0,1.76618772056,0,0,0,95.1, 5, 0,0,0,1024,1024,1024,1024,0,0,0,0,111.2,0,0,39,3.614,3.612,3.609,3.604,0,0,2.952,113.54,592.0091252435,0.328084,41,Motors_Started,
956700,2025-09-08 23:52:44,39.393278905823,-76.9727206898163,0.328084,,,592.0091252435,0.328084,0,1.75119100092,0.4109416142,22,5,14.419,592.0091252435,0.328084,0,1.76618772056,0,0,0,95.1, 5, 0,0,0,1024,1024,1026,1024,0,0,0,0,111.2,0,0,39,3.614,3.612,3.609,3.604,0,0,2.952,113.54,592.0091252435,0.328084,41,Motors_Started,
956800,2025-09-08 23:52:44,39.3932789431225,-76.9727206820729,0.328084,,,592.0091252435,0.328084,0,1.75356632908,0.42472442304,22,5,14.419,592.0091252435,0.328084,0,1.76618772056,0,0,0,95, 5, 0,0,0,1024,1024,1051,1024,0,0,4,0,111.2,0,0,39,3.614,3.612,3.609,3.604,0,0,2.952,113.54,592.0091252435,0.328084,10,Assisted_Takeoff,
956900,2025-09-08 23:52:44,39.3932789538829,-76.9727206650506,0.328084,,,592.0091252435,0.328084,0,1.75844165732,0.43092521064,22,5,14.419,592.0091252435,0.328084,0,1.76618772056,0,0,0,95.1, 5, 0,0,0,1024,1024,1136,1024,0,0,17,0,111.2,0,0,39,3.614,3.612,3.609,3.604,0,0,2.952,113.54,592.0091252435,0.328084,10,Assisted_Takeoff,"SD card speed low. Normal use may be affected. Replace SD card (Code: 10028). Remote ID functionality normal (Code: 30331)"
957000,2025-09-08 23:52:44,39.3932789337457,-76.9727206674701,0.328084,,,592.0091252435,0.328084,0,1.75762472816,0.4383038198,22,5,14.442,592.0091252435,0.328084,0,1.76618772056,0,0,0,95.1, 5, 0,0,0,1024,1024,1269,1024,0,0,37,0,111.2,0,0,39,3.606,3.603,3.6,3.594,0,0,4.043,113.36,592.0091252435,0.328084,10,Assisted_Takeoff,"SD card speed low. Normal use may be affected. Replace SD card (Code: 10028). Ambient light too low. Vision system and obstacle sensing unavailable. Fly with caution (Code: 180037). Remote ID functionality normal (Code: 30331). Ambient light too low."
957100,2025-09-08 23:52:44,39.3932789466993,-76.9727206482778,0.328084,,,592.0091252435,0.328084,0,1.76311685432,0.4454888594,22,5,14.442,592.0091252435,0.328084,0,1.76618772056,0,0,0,95.1, 5, 0,0,0,1024,1024,1269,1024,0,0,37,0,111.2,0,0,39,3.606,3.603,3.6,3.594,0,0,4.043,113.36,592.0091252435,0.328084,10,Assisted_Takeoff,
957200,2025-09-08 23:52:44,39.3932789222699,-76.9727206951264,0.328084,,,592.0091252435,0.328084,0,1.74976383552,0.46142389928,22,5,14.442,592.0091252435,0.328084,0,1.76618772056,0,0,0,95.1, 5, 0,0,0,1024,1024,1328,1024,0,0,46,0,111.2,0,0,39,3.606,3.603,3.6,3.594,0,0,4.043,113.36,592.0091252435,0.328084,10,Assisted_Takeoff,
957300,2025-09-08 23:52:45,39.3932789205393,-76.9727206913877,0.328084,,,592.0091252435,0.328084,0,1.75081042348,0.46265421428,21,5,14.442,592.0091252435,0.328084,0,1.76618772056,0,0,0,95, 5, 0,0,0,1024,1024,1352,1024,0,0,50,0,111.2,0,0,39,3.606,3.603,3.6,3.594,0,0,4.043,113.36,592.0091252435,0.328084,10,Assisted_Takeoff,
957400,2025-09-08 23:52:45,39.3932789355748,-76.9727206556831,0.656168,,,592.3372092435,0.328084,0,1.7609580616,0.47411746924,21,5,14.442,592.3372092435,0.656168,0,1.76618772056,0,0,0,95, 5, 0,0,0,1024,1024,1389,1024,0,0,55,0,111.2,0,0,39,3.606,3.603,3.6,3.594,0,0,4.043,113.36,592.3372092435,0.656168,10,Assisted_Takeoff,
957500,2025-09-08 23:52:45,39.3932789410235,-76.9727206215056,0.656168,,,592.3372092435,0.328084,0,1.77062669708,0.4839567084,21,5,14.442,592.3372092435,0.656168,0,1.77062669708,0,0,0,95.1, 5, 0,0,0,1024,1024,1375,1024,0,0,53,0,111.2,0,0,39,3.606,3.603,3.6,3.594,0,0,4.043,113.36,592.3372092435,0.656168,10,Assisted_Takeoff,
957600,2025-09-08 23:52:45,39.3932789517968,-76.9727206087375,0.656168,,,592.3372092435,0.328084,0,1.77430123788,0.4892880734,21,5,14.442,592.3372092435,0.656168,0,1.77430123788,0,0,0,95.5, 5, 0,0,0,1024,1024,1358,1024,0,0,51,0,111.2,0,0,39,3.606,3.603,3.6,3.594,0,0,4.043,113.36,592.3372092435,0.656168,10,Assisted_Takeoff,
957700,2025-09-08 23:52:45,39.3932789512699,-76.9727205932423,0.656168,,,592.3372092435,0.328084,0,1.77866475508,0.49366143312,21,5,14.442,592.3372092435,0.656168,0,1.77866475508,0,0,0,95.3, 5, 0,0,0,1024,1024,1376,1024,0,0,53,0,111.2,0,0,39,3.606,3.603,3.6,3.594,0,0,4.043,113.36,592.3372092435,0.656168,10,Assisted_Takeoff,
957800,2025-09-08 23:52:45,39.3932788552145,-76.9727206736587,0.656168,,,592.3372092435,0.328084,0,1.75564966248,0.53540356044,20,5,14.442,592.3372092435,0.656168,0,1.77866475508,0,0,0,95, 4.5, 0,0,0,1024,1024,1373,1024,0,0,53,0,111.2,0,0,39,3.606,3.603,3.6,3.594,0,0,4.043,113.36,592.3372092435,0.656168,10,Assisted_Takeoff,
957900,2025-09-08 23:52:45,39.3932788581016,-76.972720679986,0.656168,,,592.3372092435,0.328084,0,1.75386816636,0.53747377048,20,5,14.461,592.3372092435,0.656168,0,1.77866475508,0,0,0,94.6, 2.2, 0,0,0,1024,1024,1373,1024,0,0,53,0,111.2,0,0,39,3.599,3.593,3.589,3.579,0,0,2.12,113.36,592.3372092435,0.656168,10,Assisted_Takeoff,
958000,2025-09-08 23:52:45,39.3932787467751,-76.9727206561709,0.656168,,,592.3372092435,0.328084,0,1.76103352092,0.5786417508,20,5,14.461,592.3372092435,0.656168,0,1.77866475508,0,0,-0.223694,94.4, -1.7, 0,0,0,1024,1024,1375,1024,0,0,53,0,111.2,0,0,39,3.599,3.593,3.589,3.579,0,0,2.12,113.36,592.3372092435,0.656168,10,Assisted_Takeoff,
958100,2025-09-08 23:52:45,39.3932787442564,-76.9727206037156,0.656168,,,592.3372092435,0.328084,0,1.77583995184,0.59346130508,20,5,14.461,592.3372092435,0.656168,0,1.77866475508,0,0,-0.223694,94.3, -6, -0.2,0,0,1024,1024,1376,1024,0,0,53,0,111.2,0,0,39,3.599,3.593,3.589,3.579,0,0,2.12,113.36,592.3372092435,0.656168,10,Assisted_Takeoff,
958200,2025-09-08 23:52:45,39.3932787572785,-76.9727204809154,0.984252,,,592.6652932435,0.328084,0,1.81035438864,0.6284120936,20,5,14.461,592.6652932435,0.984252,0,1.81035438864,0,0.223694,-0.223694,94.5, -8.8, -0.4,0,0,1024,1024,1382,1024,0,0,54,0,111.2,0,0,39,3.599,3.593,3.589,3.579,0,0,2.12,113.36,592.6652932435,0.984252,10,Assisted_Takeoff,
958300,2025-09-08 23:52:45,39.3932787524466,-76.9727201797334,0.984252,,,592.6652932435,0.328084,0.671082,1.89529533624,0.71334976036,20,5,14.461,592.6652932435,0.984252,0.671082,1.89529533624,0,0.671082,-0.671082,94.7, -9.9, -0.5,0,0,1024,1024,1386,1024,0,0,55,0,111.1,0,0,39,3.599,3.593,3.589,3.579,0,0,2.12,113.36,592.6652932435,0.984252,10,Assisted_Takeoff,
958400,2025-09-08 23:52:46,39.3932787706262,-76.9727198594839,0.984252,,,592.6652932435,0.984252,0.894776,1.98545938112,0.80389110184,20,5,14.461,592.6652932435,0.984252,0.894776,1.98545938112,0,0.894776,-0.894776,95, -6.1, -0.3,0,0,1024,1024,1372,1024,0,0,53,0,111.1,0,0,39,3.599,3.593,3.589,3.579,0,0,2.12,113.36,592.6652932435,0.984252,6,P-GPS,
958500,2025-09-08 23:52:46,39.393278765563,-76.9727193100769,1.312336,,,592.9933772435,1.312336,1.11847,2.14038064592,0.95881236664,20,5,14.461,592.9933772435,1.312336,1.11847,2.14038064592,0,1.11847,-1.565858,95, 0.1, 0,0,0,1024,1024,1392,1024,0,0,56,0,111.1,0,0,39,3.599,3.593,3.589,3.579,0,0,2.12,113.36,592.9933772435,1.312336,6,P-GPS,
958600,2025-09-08 23:52:46,39.3932787136758,-76.9727186892274,1.64042,,,593.3214612435,1.64042,0.894776,2.31576122896,1.13488520692,20,5,14.461,593.3214612435,1.64042,1.11847,2.31576122896,0,0.894776,-2.23694,94.9, 4.1, 0.3,0,0,1024,1024,1392,1024,0,0,56,0,111.1,0,0,39,3.599,3.593,3.589,3.579,0,0,2.12,113.36,593.3214612435,1.64042,6,P-GPS,
958700,2025-09-08 23:52:46,39.3932787217375,-76.972718289695,1.968504,,,593.6495452435,1.64042,0.671082,2.42832356852,1.24757549924,20,5,14.461,593.6495452435,1.968504,1.11847,2.42832356852,0,0.671082,-2.908022,94.9, 4.8, 0.4,0,0,1024,1024,1383,1024,0,0,54,0,111.1,0,0,39,3.599,3.593,3.589,3.579,0,0,2.12,113.36,593.6495452435,1.968504,6,P-GPS,
958800,2025-09-08 23:52:46,39.3932783769635,-76.9727177959277,2.296588,,,593.9776292435,1.968504,0.447388,2.57299548916,1.43521001968,20,5,14.461,593.9776292435,2.296588,1.11847,2.57299548916,0,0.447388,-3.35541,94.9, 3.7, 0,0,0,1024,1024,1309,1024,0,0,43,0,111.1,0,0,39,3.599,3.593,3.589,3.579,0,0,2.12,113.36,593.9776292435,2.296588,6,P-GPS,
958900,2025-09-08 23:52:46,39.3932782653286,-76.9727175513693,2.952756,,,594.6337972435,2.624672,0.223694,2.64480323424,1.51529532408,20,5,14.187,594.6337972435,2.952756,1.11847,2.64480323424,0,0.223694,-4.026492,94.9, 2.5, -0.4,0,0,1094,1024,1281,1024,11,0,39,0,111.1,0,0,39,3.554,3.55,3.544,3.533,0,0,12.357,113.36,594.6337972435,2.952756,6,P-GPS,
959000,2025-09-08 23:52:46,39.3932787540958,-76.9727173684036,3.608924,,,595.2899652435,2.952756,0.223694,2.68785441672,1.70093181296,20,5,14.187,595.2899652435,3.608924,1.11847,2.68785441672,0,0.223694,-4.026492,95, 1.8, -0.5,0,0,1147,1024,1274,1024,19,0,38,0,111.1,0,0,39,3.554,3.55,3.544,3.533,0,0,12.357,113.36,595.2899652435,3.608924,6,P-GPS,
959100,2025-09-08 23:52:46,39.3932789091921,-76.972717231189,4.265092,,,595.9461332435,3.608924,0,2.72635507412,1.76948168392,19,5,14.187,595.9461332435,4.265092,1.11847,2.72635507412,0,0,-3.802798,95, 1.3, -0.1,0,0,1184,1024,1257,1024,24,0,35,0,111.1,0,0,39,3.554,3.55,3.544,3.533,0,0,12.357,113.36,595.9461332435,4.265092,6,P-GPS,
959200,2025-09-08 23:52:46,39.3932785241608,-76.972717283381,4.92126,,,596.6023012435,3.937008,0,2.7142717404,1.9107284076,19,5,14.187,596.6023012435,4.92126,1.11847,2.72635507412,0,0,-3.35541,95, 0.7, 0.1,0,0,1217,1024,1259,1024,29,0,36,0,111.1,0,0,39,3.554,3.55,3.544,3.533,0,0,12.357,113.36,596.6023012435,4.92126,6,P-GPS,
959300,2025-09-08 23:52:47,39.3932785784511,-76.9727172916205,5.249344,,,596.9303852435,4.593176,0,2.7111385382,1.93067263396,19,5,14.187,596.9303852435,5.249344,1.11847,2.72635507412,0,0,-2.684328,94.9, -0.2, 0.1,0,0,1217,1024,1259,1024,29,0,36,0,111.1,0,0,39,3.554,3.55,3.544,3.533,0,0,12.357,113.36,596.9303852435,5.249344,6,P-GPS,
959400,2025-09-08 23:52:47,39.3932784165097,-76.9727172253717,5.905512,,,597.5865532435,4.92126,0,2.73263460188,1.99263785904,19,5,14.187,597.5865532435,5.905512,1.11847,2.73263460188,0,0,-2.23694,94.9, -1.4, 0.1,0,0,1250,1024,1267,1024,34,0,37,0,111.1,0,0,39,3.554,3.55,3.544,3.533,0,0,12.357,113.36,597.5865532435,5.905512,6,P-GPS,
959500,2025-09-08 23:52:47,39.3932783954429,-76.9727171173212,5.905512,,,597.5865532435,5.249344,0,2.76350402544,2.02405846372,19,5,14.187,597.5865532435,5.905512,1.11847,2.76350402544,0,0,-1.789552,94.9, -2.4, 0.1,0,0,1297,1024,1311,1024,41,0,43,0,111.1,0,0,39,3.554,3.55,3.544,3.533,0,0,12.357,113.36,597.5865532435,5.905512,6,P-GPS,
959600,2025-09-08 23:52:47,39.3932780132516,-76.9727171452047,6.233596,,,597.9146372435,5.577428,0,2.76766413056,2.16372382252,19,5,14.187,597.9146372435,6.233596,1.11847,2.76766413056,0,0,-1.342164,94.9, -3.6, -0.1,0,0,1310,1024,1319,1024,43,0,45,0,111.1,0,0,39,3.554,3.55,3.544,3.533,0,0,12.357,113.36,597.9146372435,6.233596,6,P-GPS,
959700,2025-09-08 23:52:47,39.3932778630729,-76.9727170202317,6.56168,,,598.2427212435,5.905512,0.223694,2.80922253084,2.22886818156,19,5,14.187,598.2427212435,6.56168,1.11847,2.80922253084,0,0.223694,-1.565858,95, -4.8, -0.6,0,0,1314,1024,1341,1024,44,0,48,0,111.1,0,0,39,3.554,3.55,3.544,3.533,0,0,12.357,113.36,598.2427212435,6.56168,6,P-GPS,
959800,2025-09-08 23:52:47,39.3932779703985,-76.9727167483468,6.889764,,,598.5708052435,6.233596,0.447388,2.88060704756,2.31495086148,19,5,14.187,598.5708052435,6.889764,1.11847,2.88060704756,0,0.447388,-1.565858,95, -5.3, -0.8,0,0,1313,1024,1362,1024,44,0,51,0,111.1,0,0,39,3.554,3.55,3.544,3.533,0,0,12.357,113.36,598.5708052435,6.889764,6,P-GPS,
959900,2025-09-08 23:52:47,39.3932778736877,-76.9727164378666,6.889764,,,598.5708052435,6.56168,0.671082,2.97166020008,2.40933734744,19,5,14.252,598.5708052435,6.889764,1.11847,2.97166020008,0,0.671082,-2.013246,95, -5.2, -0.8,0,0,1308,1024,1392,1024,43,0,56,0,111.1,0,0,39,3.582,3.578,3.576,3.567,0,0,9.366,113.36,598.5708052435,6.889764,6,P-GPS,
960000,2025-09-08 23:52:47,39.393277851897,-76.9727160299422,7.545932,,,599.2269732435,6.889764,0.894776,3.08680456072,2.52462934588,20,5,14.252,599.2269732435,7.545932,1.11847,3.08680456072,0,0.894776,-2.460634,95, -4.9, -0.6,0,0,1308,1024,1392,1024,43,0,56,0,111.1,0,0,39,3.582,3.578,3.576,3.567,0,0,9.366,113.36,599.2269732435,7.545932,6,P-GPS,
960100,2025-09-08 23:52:47,39.3932777484438,-76.9727154560633,7.874016,,,599.5550572435,7.545932,1.11847,3.2520014164,2.69078420684,20,5,14.252,599.5550572435,7.874016,1.11847,3.2520014164,0,1.11847,-2.908022,95, -4.6, -0.5,0,0,1303,1024,1429,1024,42,0,61,0,111.1,0,0,39,3.582,3.578,3.576,3.567,0,0,9.366,113.36,599.5550572435,7.874016,6,P-GPS,
960200,2025-09-08 23:52:47,39.393277554461,-76.9727147882266,8.2021,,,599.8831412435,7.874016,1.11847,3.4479659896,2.8919456306,20,5,14.252,599.8831412435,8.2021,1.11847,3.4479659896,0,1.11847,-3.579104,95, -4.3, -0.5,0,0,1292,1024,1457,1024,41,0,66,0,111.1,0,0,39,3.582,3.578,3.576,3.567,0,0,9.366,113.36,599.8831412435,8.2021,6,P-GPS,
960300,2025-09-08 23:52:47,39.3932774517575,-76.9727141381605,8.858268,,,600.5393092435,8.530184,1.342164,3.634678594,3.07902896992,19,5,14.252,600.5393092435,8.858268,1.342164,3.634678594,0,1.342164,-4.250186,95, -4.1, -0.5,0,0,1292,1024,1475,1024,41,0,68,0,111.1,0,0,39,3.582,3.578,3.576,3.567,0,0,9.366,113.36,600.5393092435,8.858268,6,P-GPS,
960400,2025-09-08 23:52:48,39.3932774160451,-76.9727132995554,9.514436,,,601.1954772435,9.186352,1.565858,3.8706694152,3.3158465628,19,5,14.252,601.1954772435,9.514436,1.565858,3.8706694152,0,1.565858,-4.921268,95, -3.8, -0.5,0,0,1292,1024,1507,1024,41,0,73,0,111.1,0,0,39,3.582,3.578,3.576,3.567,0,0,9.366,113.36,601.1954772435,9.514436,6,P-GPS,
960500,2025-09-08 23:52:48,39.3932773364772,-76.9727125059502,10.498688,,,602.1797292435,10.170604,1.565858,4.096292782,3.5414699296,19,5,14.252,602.1797292435,10.498688,1.565858,4.096292782,0,1.565858,-5.59235,95.1, -3.8, -0.4,0,0,1292,1024,1538,1024,41,0,78,0,111.1,0,0,39,3.582,3.578,3.576,3.567,0,0,9.366,113.36,602.1797292435,10.498688,6,P-GPS,
960600,2025-09-08 23:52:48,39.393277282097,-76.9727115477458,11.48294,,,603.1639812435,10.826772,1.789552,4.3666996148,3.8123688884,21,5,14.252,603.1639812435,11.48294,1.789552,4.3666996148,0,1.789552,-6.263432,95.1, -3.9, -0.3,0,0,1294,1024,1578,1024,41,0,84,0,111.1,0,0,39,3.582,3.578,3.576,3.567,0,0,9.366,113.36,603.1639812435,11.48294,6,P-GPS,
960700,2025-09-08 23:52:48,39.3932772174703,-76.9727105749331,12.467192,,,604.1482332435,11.811024,1.789552,4.641732432,4.0876969812,22,5,14.252,604.1482332435,12.467192,1.789552,4.641732432,0,1.789552,-6.934514,95.1, -4, -0.3,0,0,1295,1024,1614,1024,41,0,89,0,111.1,0,0,39,3.582,3.578,3.576,3.567,0,0,9.366,113.36,604.1482332435,12.467192,6,P-GPS,
960800,2025-09-08 23:52:48,39.3932772455257,-76.9727095480577,13.451444,,,605.1324852435,13.12336,2.013246,4.9277560632,4.3773951532,22,5,14.252,605.1324852435,13.451444,2.013246,4.9277560632,0,2.013246,-7.605596,95.1, -4, -0.2,0,0,1295,1024,1614,1024,41,0,89,0,111.1,0,0,39,3.582,3.578,3.576,3.567,0,0,9.366,113.36,605.1324852435,13.451444,6,P-GPS,
960900,2025-09-08 23:52:48,39.393277168648,-76.9727083545987,14.76378,,,606.4448212435,14.107612,2.23694,5.2652232656,4.715059206,22,5,14.11,606.4448212435,14.76378,2.23694,5.2652232656,0,2.23694,-8.500372,95.1, -3.8, -0.2,0,0,1293,1024,1645,1024,41,0,94,0,111.1,0,0,39,3.551,3.542,3.536,3.521,0,0,13.832,113.36,606.4448212435,14.76378,6,P-GPS,
961000,2025-09-08 23:52:48,39.393277089138,-76.9727070219352,16.4042,,,608.0852412435,15.748032,2.23694,5.6418308892,5.0919621052,22,5,14.11,608.0852412435,16.4042,2.23694,5.6418308892,0,2.23694,-9.618842,95.1, -3.6, -0.2,0,0,1291,1024,1684,1024,40,0,100,0,111.1,0,0,39,3.551,3.542,3.536,3.521,0,0,13.832,113.36,608.0852412435,16.4042,6,P-GPS,
961100,2025-09-08 23:52:48,39.3932770191611,-76.9727057995255,18.04462,,,609.7256612435,17.060368,2.460634,5.9871721076,5.4375657908,22,5,14.11,609.7256612435,18.04462,2.460634,5.9871721076,0,2.460634,-10.513618,95.1, -3.3, -0.2,0,0,1284,1024,1684,1024,39,0,100,0,111.1,0,0,39,3.551,3.542,3.536,3.521,0,0,13.832,113.36,609.7256612435,18.04462,6,P-GPS,
961200,2025-09-08 23:52:48,39.3932769505678,-76.9727045003689,20.013124,,,611.6941652435,18.700788,2.460634,6.354002828,5.8047245952,22,5,14.11,611.6941652435,20.013124,2.460634,6.354002828,-0.223694,2.460634,-11.408394,95.1, -3, -0.1,0,0,1277,1024,1684,1024,38,0,100,0,111.1,0,0,39,3.551,3.542,3.536,3.521,0,0,13.832,113.36,611.6941652435,20.013124,6,P-GPS,
961300,2025-09-08 23:52:49,39.3932768625356,-76.9727030285009,21.653544,,,613.3345852435,20.341208,2.684328,6.7700461484,6.220964766,22,5,14.11,613.3345852435,21.653544,2.684328,6.7700461484,-0.223694,2.684328,-12.079476,95.1, -2.8, -0.2,0,0,1268,1024,1684,1024,37,0,100,0,111.1,0,0,39,3.551,3.542,3.536,3.521,0,0,13.832,113.36,613.3345852435,21.653544,6,P-GPS,
961400,2025-09-08 23:52:49,39.39327676684,-76.9727016868191,23.950132,,,615.6311732435,21.981628,2.684328,7.1499018036,6.600886038,22,5,14.11,615.6311732435,23.950132,2.684328,7.1499018036,-0.223694,2.684328,-12.30317,95.1, -2.7, -0.3,0,0,1268,1024,1684,1024,37,0,100,0,111.1,0,0,39,3.551,3.542,3.536,3.521,0,0,13.832,113.36,615.6311732435,23.950132,6,P-GPS,
961500,2025-09-08 23:52:49,39.3932766651559,-76.9727003113921,25.918636,,,617.5996772435,23.622048,2.684328,7.5394687452,6.9904529796,22,5,14.11,617.5996772435,25.918636,2.684328,7.5394687452,-0.223694,2.684328,-12.30317,95, -2.7, -0.4,0,0,1268,1024,1684,1024,37,0,100,0,111.1,0,0,39,3.551,3.542,3.536,3.521,0,0,13.832,113.36,617.5996772435,25.918636,6,P-GPS,
961600,2025-09-08 23:52:49,39.3932765599935,-76.9726987300934,27.88714,,,619.5681812435,24.934384,2.684328,7.986876896,7.4379595556,22,5,14.11,619.5681812435,27.88714,2.684328,7.986876896,-0.223694,2.684328,-12.079476,95, -2.9, -0.4,0,0,1268,1024,1684,1024,37,0,100,0,111.1,0,0,39,3.551,3.542,3.536,3.521,0,0,13.832,113.36,619.5681812435,27.88714,6,P-GPS,
961700,2025-09-08 23:52:49,39.3932764503077,-76.9726971421404,29.855644,,,621.5366852435,26.574804,2.908022,8.436351976,7.8875002524,22,5,14.11,621.5366852435,29.855644,2.908022,8.436351976,-0.223694,2.908022,-12.079476,95, -3.1, -0.3,0,0,1267,1024,1684,1024,37,0,100,0,111.1,0,0,39,3.551,3.542,3.536,3.521,0,0,13.832,113.36,621.5366852435,29.855644,6,P-GPS,
961800,2025-09-08 23:52:49,39.3932764477097,-76.9726958218542,32.152232,,,623.8332732435,28.215224,2.908022,8.806758812,8.2597443588,22,5,14.11,623.8332732435,32.152232,2.908022,8.806758812,-0.223694,2.908022,-12.079476,95, -3.2, -0.3,0,0,1260,1024,1684,1024,36,0,100,0,111.1,0,0,39,3.551,3.542,3.536,3.521,0,0,13.832,113.36,623.8332732435,32.152232,6,P-GPS,
961900,2025-09-08 23:52:49,39.3932763459185,-76.9726942026281,33.792652,,,625.4736932435,29.855644,2.908022,9.264764076,8.7178152396,22,5,13.963,625.4736932435,33.792652,2.908022,9.264764076,-0.223694,2.908022,-12.30317,95, -3.2, -0.2,0,0,1243,1024,1684,1024,33,0,100,0,111.1,0,0,39,3.533,3.528,3.524,3.513,0,0,18.577,113.36,625.4736932435,33.792652,6,P-GPS,
962000,2025-09-08 23:52:49,39.3932762226901,-76.9726924953531,36.08924,,,627.7702812435,31.16798,2.908022,9.7482286584,9.2013126304,22,5,13.963,627.7702812435,36.08924,2.908022,9.7482286584,-0.223694,2.908022,-12.30317,95, -2.9, -0.1,0,0,1240,1024,1684,1024,33,0,100,0,111.1,0,0,39,3.533,3.528,3.524,3.513,0,0,18.577,113.36,627.7702812435,36.08924,6,P-GPS,"SD card speed low. Normal use may be affected. Replace SD card (Code: 10028). Ambient light too low. Vision system and obstacle sensing unavailable. Fly with caution (Code: 180037)"
962100,2025-09-08 23:52:49,39.3932761209846,-76.9726909563495,38.057744,,,629.7387852435,32.8084,2.908022,10.1836945516,9.636811332,22,5,13.963,629.7387852435,38.057744,2.908022,10.1836945516,-0.223694,3.131716,-12.30317,94.9, -2.4, -0.1,0,0,1240,1024,1684,1024,33,0,100,0,111.1,0,0,39,3.533,3.528,3.524,3.513,0,0,18.577,113.36,629.7387852435,38.057744,6,P-GPS,
962200,2025-09-08 23:52:49,39.3932760755998,-76.9726894286589,40.026248,,,631.7072892435,34.44882,3.131716,10.6140423344,10.0678808996,22,5,13.963,631.7072892435,40.026248,3.131716,10.6140423344,-0.223694,3.131716,-12.526864,94.9, -2, -0.1,0,0,1235,1024,1684,1024,32,0,100,0,111.1,0,0,39,3.533,3.528,3.524,3.513,0,0,18.577,113.36,631.7072892435,40.026248,6,P-GPS,
962300,2025-09-08 23:52:49,39.3932759991719,-76.9726877250089,41.994752,,,633.6757932435,36.417324,3.131716,11.0948822448,10.549048894,22,5,13.963,633.6757932435,41.994752,3.131716,11.0948822448,-0.223694,3.131716,-12.526864,94.9, -1.9, 0,0,0,1230,1024,1684,1024,31,0,100,0,111.1,0,0,39,3.533,3.528,3.524,3.513,0,0,18.577,113.36,633.6757932435,41.994752,6,P-GPS,
962400,2025-09-08 23:52:50,39.3932758115417,-76.9726860214005,43.963256,,,635.6442972435,38.385828,3.131716,11.579560738,11.0342523216,22,5,13.963,635.6442972435,43.963256,3.131716,11.579560738,-0.223694,3.131716,-12.750558,94.9, -1.8, 0,0,0,1230,1024,1684,1024,31,0,100,0,111.1,0,0,39,3.533,3.528,3.524,3.513,0,0,18.577,113.36,635.6442972435,43.963256,6,P-GPS,
962500,2025-09-08 23:52:50,39.393275705574,-76.9726844235978,46.259844,,,637.9408852435,38.385828,3.131716,12.0316932984,11.4864176904,22,5,13.963,637.9408852435,46.259844,3.131716,12.0316932984,-0.223694,3.131716,-12.750558,95, -1.6, -0.1,0,0,1223,1024,1684,1024,30,0,100,0,111.1,0,0,39,3.533,3.528,3.524,3.513,0,0,18.577,113.36,637.9408852435,46.259844,6,P-GPS,
962600,2025-09-08 23:52:50,39.3932756157769,-76.9726826462493,48.228348,,,639.9093892435,38.385828,3.131716,12.5336946268,11.9886158692,22,5,13.963,639.9093892435,48.228348,3.131716,12.5336946268,-0.223694,3.131716,-12.974252,95, -1.4, -0.1,0,0,1224,1024,1684,1024,30,0,100,0,111.1,0,0,39,3.533,3.528,3.524,3.513,0,0,18.577,113.36,639.9093892435,48.228348,6,P-GPS,
962700,2025-09-08 23:52:50,39.3932755192503,-76.9726811388514,50.196852,,,641.8778932435,38.385828,3.131716,12.96013821,12.4150922608,22,5,13.963,641.8778932435,50.196852,3.131716,12.96013821,-0.223694,3.131716,-12.974252,95, -1.2, -0.2,0,0,1224,1024,1684,1024,30,0,100,0,111.1,0,0,39,3.533,3.528,3.524,3.513,0,0,18.577,113.36,641.8778932435,50.196852,6,P-GPS,
962800,2025-09-08 23:52:50,39.3932753981444,-76.9726794423572,52.165356,,,643.8463972435,38.385828,3.131716,13.4405188028,12.8954728536,22,5,13.963,643.8463972435,52.165356,3.131716,13.4405188028,-0.223694,3.131716,-13.197946,95, -1.2, -0.2,0,0,1225,1024,1684,1024,30,0,100,0,111.1,0,0,39,3.533,3.528,3.524,3.513,0,0,18.577,113.36,643.8463972435,52.165356,6,P-GPS,
962900,2025-09-08 23:52:50,39.3932753018062,-76.9726778901781,54.13386,,,645.8149012435,38.385828,3.131716,13.8795280032,13.3345476708,22,5,14.055,645.8149012435,54.13386,3.131716,13.8795280032,-0.223694,3.131716,-13.197946,95, -1.3, -0.1,0,0,1224,1024,1684,1024,30,0,100,0,111.1,0,0,39,3.525,3.52,3.514,3.501,0,0,15.235,113.54,645.8149012435,54.13386,6,P-GPS,
963000,2025-09-08 23:52:50,39.3932751480743,-76.9726762282052,56.102364,,,647.7834052435,38.385828,3.131716,14.3513456036,13.8064965048,22,5,14.055,647.7834052435,56.102364,3.131716,14.3513456036,-0.223694,3.131716,-13.197946,95, -1.3, -0.1,0,0,1224,1024,1684,1024,30,0,100,0,111.1,0,0,39,3.525,3.52,3.514,3.501,0,0,15.235,113.54,647.7834052435,56.102364,6,P-GPS,"Home Point updated (Code: 123200)"
963100,2025-09-08 23:52:50,39.393275025906,-76.9726744371714,58.070868,,,649.7519092435,38.385828,3.131716,14.858268192,14.3134519016,22,5,14.055,649.7519092435,58.070868,3.131716,14.858268192,-0.223694,3.131716,-13.197946,95.1, -1.3, -0.2,0,0,1223,1024,1684,1024,30,0,100,0,111.1,0,0,39,3.525,3.52,3.514,3.501,0,0,15.235,113.54,649.7519092435,58.070868,6,P-GPS,
963200,2025-09-08 23:52:50,39.3932748704799,-76.9726727654818,60.367456,,,652.0484972435,38.385828,3.131716,15.3328745064,14.7881894496,22,5,14.055,652.0484972435,60.367456,3.131716,15.3328745064,-0.223694,3.131716,-13.42164,95.1, -1.3, -0.2,0,0,1223,1024,1684,1024,30,0,100,0,111.1,0,0,39,3.525,3.52,3.514,3.501,0,0,15.235,113.54,652.0484972435,60.367456,6,P-GPS,
963300,2025-09-08 23:52:51,39.3932747145826,-76.9726710585947,62.007876,,,653.6889172435,38.385828,2.908022,15.8173889576,15.2728351344,22,5,14.055,653.6889172435,62.007876,3.131716,15.8173889576,-0.223694,2.908022,-13.42164,95.1, -1.3, -0.4,0,0,1220,1024,1684,1024,30,0,100,0,111.1,0,0,39,3.525,3.52,3.514,3.501,0,0,15.235,113.54,653.6889172435,62.007876,6,P-GPS,
963400,2025-09-08 23:52:51,39.3932746341088,-76.9726692956356,63.97638,,,655.6574212435,38.385828,2.908022,16.3149939604,15.7707682212,22,5,14.055,655.6574212435,63.97638,3.131716,16.3149939604,-0.223694,2.908022,-13.42164,95.1, -1.4, -0.4,0,0,1219,1024,1684,1024,30,0,100,0,111.1,0,0,39,3.525,3.52,3.514,3.501,0,0,15.235,113.54,655.6574212435,63.97638,6,P-GPS,
963500,2025-09-08 23:52:51,39.393274519454,-76.9726675863984,66.272968,,,657.9540092435,38.385828,2.908022,16.79872101,16.2545280792,22,5,14.055,657.9540092435,66.272968,3.131716,16.79872101,-0.223694,2.908022,-13.42164,95.1, -1.4, -0.4,0,0,1219,1024,1684,1024,30,0,100,0,111.1,0,0,39,3.525,3.52,3.514,3.501,0,0,15.235,113.54,657.9540092435,66.272968,6,P-GPS,
963600,2025-09-08 23:52:51,39.3932743768722,-76.9726662088485,68.241472,,,659.9225132435,38.385828,2.908022,17.1903220724,16.6463916088,22,5,14.055,659.9225132435,68.241472,3.131716,17.1903220724,-0.223694,2.908022,-13.42164,95.1, -1.4, -0.3,0,0,1219,1024,1684,1024,30,0,100,0,111.1,0,0,39,3.525,3.52,3.514,3.501,0,0,15.235,113.54,659.9225132435,68.241472,6,P-GPS,
963700,2025-09-08 23:52:51,39.3932742344811,-76.9726643288843,69.881892,,,661.5629332435,38.385828,2.908022,17.722933638,17.1790031744,22,5,14.055,661.5629332435,69.881892,3.131716,17.722933638,-0.223694,2.908022,-13.42164,95, -1.3, -0.4,0,0,1214,1024,1684,1024,29,0,100,0,111.1,0,0,39,3.525,3.52,3.514,3.501,0,0,15.235,113.54,661.5629332435,69.881892,6,P-GPS,
963800,2025-09-08 23:52:51,39.3932741204731,-76.9726630197227,72.17848,,,663.8595212435,38.385828,2.908022,18.0943575344,17.5504598792,22,5,14.055,663.8595212435,72.17848,3.131716,18.0943575344,-0.223694,2.908022,-13.197946,95, -1.3, -0.5,0,0,1214,1024,1684,1024,29,0,100,0,111.1,0,0,39,3.525,3.52,3.514,3.501,0,0,15.235,113.54,663.8595212435,72.17848,6,P-GPS,
963900,2025-09-08 23:52:51,39.3932739580733,-76.9726610637874,73.8189,,,665.4999412435,38.385828,2.908022,18.6489835364,18.105151498,22,5,14.06,665.4999412435,73.8189,3.131716,18.6489835364,-0.223694,2.908022,-13.197946,95, -1.1, -0.5,0,0,1214,1024,1684,1024,29,0,100,0,111.1,0,0,39,3.523,3.519,3.514,3.502,0,0,14.787,113.54,665.4999412435,73.8189,6,P-GPS,
964000,2025-09-08 23:52:51,39.3932738777323,-76.9726593756687,75.787404,,,667.4684452435,38.385828,2.908022,19.1255911632,18.582021592,22,5,14.06,667.4684452435,75.787404,3.131716,19.1255911632,-0.223694,2.908022,-13.197946,95, -1.1, -0.4,0,0,1214,1024,1684,1024,29,0,100,0,111.1,0,0,39,3.523,3.519,3.514,3.502,0,0,14.787,113.54,667.4684452435,75.787404,6,P-GPS,
964100,2025-09-08 23:52:51,39.3932737861189,-76.972657863465,77.755908,,,669.4369492435,38.385828,2.908022,19.5532158488,19.0097118944,22,5,14.06,669.4369492435,77.755908,3.131716,19.5532158488,-0.223694,2.908022,-13.197946,95, -1.2, -0.5,0,0,1212,1024,1684,1024,28,0,100,0,111.1,0,0,39,3.523,3.519,3.514,3.502,0,0,14.787,113.54,669.4369492435,77.755908,6,P-GPS,
964200,2025-09-08 23:52:51,39.3932735601205,-76.9726564302698,79.396328,,,671.0773692435,38.385828,2.908022,19.9633536572,19.4221462908,22,5,14.06,671.0773692435,79.396328,3.131716,19.9633536572,-0.223694,2.908022,-13.197946,95, -1.4, -0.5,0,0,1213,1024,1684,1024,29,0,100,0,111.1,0,0,39,3.523,3.519,3.514,3.502,0,0,14.787,113.54,671.0773692435,79.396328,6,P-GPS,
964300,2025-09-08 23:52:51,39.3932734323836,-76.9726548127732,81.364832,,,673.0458732435,38.385828,2.908022,20.4217854304,19.880578064,22,5,14.06,673.0458732435,81.364832,3.131716,20.4217854304,-0.223694,2.908022,-13.197946,95, -1.7, -0.5,0,0,1209,1024,1684,1024,28,0,100,0,111.1,0,0,39,3.523,3.519,3.514,3.502,0,0,14.787,113.54,673.0458732435,81.364832,6,P-GPS,
964400,2025-09-08 23:52:52,39.3932732447877,-76.9726531901216,83.333336,,,675.0143772435,38.385828,2.908022,20.8837933192,20.343176504,22,5,14.06,675.0143772435,83.333336,3.131716,20.8837933192,-0.223694,2.908022,-13.197946,95, -1.8, -0.6,0,0,1206,1024,1684,1024,28,0,100,0,111.1,0,0,39,3.523,3.519,3.514,3.502,0,0,14.787,113.54,675.0143772435,83.333336,6,P-GPS,
964500,2025-09-08 23:52:52,39.3932731103683,-76.9726517180375,85.30184,,,676.9828812435,38.385828,2.684328,21.30167391,20.76115552,22,5,14.06,676.9828812435,85.30184,3.131716,21.30167391,-0.223694,2.684328,-13.197946,95, -1.8, -0.6,0,0,1201,1024,1684,1024,27,0,100,0,111.1,0,0,39,3.523,3.519,3.514,3.502,0,0,14.787,113.54,676.9828812435,85.30184,6,P-GPS,
964600,2025-09-08 23:52:52,39.3932729356553,-76.9726504655465,87.270344,,,678.9513852435,38.385828,2.684328,21.6594167036,21.1200137992,22,5,14.06,678.9513852435,87.270344,3.131716,21.6594167036,-0.223694,2.684328,-13.197946,95, -1.8, -0.6,0,0,1196,1024,1684,1024,26,0,100,0,111.1,0,0,39,3.523,3.519,3.514,3.502,0,0,14.787,113.54,678.9513852435,87.270344,6,P-GPS,
964700,2025-09-08 23:52:52,39.3932727406959,-76.9726487608046,89.238848,,,680.9198892435,38.385828,2.684328,22.1447841732,21.6059062032,22,5,14.06,680.9198892435,89.238848,3.131716,22.1447841732,-0.223694,2.684328,-13.197946,94.9, -1.9, -0.8,0,0,1194,1024,1684,1024,26,0,100,0,111.1,0,0,39,3.523,3.519,3.514,3.502,0,0,14.787,113.54,680.9198892435,89.238848,6,P-GPS,
964800,2025-09-08 23:52:52,39.3932726722011,-76.9726473786873,90.879268,,,682.5603092435,38.385828,2.684328,22.5350072828,21.99639178,22,5,14.06,682.5603092435,90.879268,3.131716,22.5350072828,-0.223694,2.684328,-13.197946,94.9, -2, -0.8,0,0,1194,1024,1684,1024,26,0,100,0,111.1,0,0,39,3.523,3.519,3.514,3.502,0,0,14.787,113.54,682.5603092435,90.879268,6,P-GPS,
964900,2025-09-08 23:52:52,39.393272529176,-76.9726458608298,93.175856,,,684.8568972435,38.385828,2.684328,22.9660768504,22.4275597728,22,5,14.043,684.8568972435,93.175856,3.131716,22.9660768504,-0.223694,2.684328,-13.197946,94.8, -2.1, -0.7,0,0,1193,1024,1684,1024,26,0,100,0,111.1,0,0,39,3.521,3.515,3.511,3.5,0,0,14.718,113.54,684.8568972435,93.175856,6,P-GPS,
965000,2025-09-08 23:52:52,39.3932724029962,-76.9726443087672,95.14436,,,686.8254012435,38.385828,2.684328,23.4061031112,22.8675860336,22,5,14.043,686.8254012435,95.14436,3.131716,23.4061031112,-0.223694,2.684328,-13.197946,94.8, -2.1, -0.6,0,0,1192,1024,1684,1024,25,0,100,0,111.1,0,0,39,3.521,3.515,3.511,3.5,0,0,14.718,113.54,686.8254012435,95.14436,6,P-GPS,
965100,2025-09-08 23:52:52,39.3932722825928,-76.9726429371204,97.112864,,,688.7939052435,38.385828,2.684328,23.7953091604,23.2568248912,23,5,14.043,688.7939052435,97.112864,3.131716,23.7953091604,-0.223694,2.684328,-13.197946,94.8, -2.2, -0.5,0,0,1191,1024,1684,1024,25,0,100,0,111.1,0,0,39,3.521,3.515,3.511,3.5,0,0,14.718,113.54,688.7939052435,97.112864,6,P-GPS,
965200,2025-09-08 23:52:52,39.3932721288158,-76.9726415079217,99.081368,,,690.7624092435,38.385828,2.684328,24.2019036616,23.6636818596,23,5,14.043,690.7624092435,99.081368,3.131716,24.2019036616,-0.223694,2.684328,-13.197946,94.8, -2.1, -0.6,0,0,1188,1024,1684,1024,25,0,100,0,111.1,0,0,39,3.521,3.515,3.511,3.5,0,0,14.718,113.54,690.7624092435,99.081368,6,P-GPS,
965300,2025-09-08 23:52:53,39.3932719829636,-76.9726400136549,101.377956,,,693.0589972435,38.385828,2.684328,24.6264443576,24.0883537892,23,5,14.043,693.0589972435,101.377956,3.131716,24.6264443576,-0.223694,2.684328,-13.197946,94.8, -1.9, -0.7,0,0,1185,1024,1684,1024,24,0,100,0,111.1,0,0,39,3.521,3.515,3.511,3.5,0,0,14.718,113.54,693.0589972435,101.377956,6,P-GPS,
965400,2025-09-08 23:52:53,39.393271865473,-76.9726387140714,103.018376,,,694.6994172435,38.385828,2.684328,24.9953091988,24.4572842472,23,5,14.043,694.6994172435,103.018376,3.131716,24.9953091988,-0.223694,2.684328,-13.42164,94.8, -1.8, -0.7,0,0,1177,1024,1677,1037,23,0,99,2,111.1,0,0,39,3.521,3.515,3.511,3.5,0,0,14.718,113.54,694.6994172435,103.018376,6,P-GPS,
965500,2025-09-08 23:52:53,39.3932717213513,-76.9726372311675,104.98688,,,696.6679212435,38.385828,2.460634,25.4166346716,24.8786753368,23,5,14.043,696.6679212435,104.98688,3.131716,25.4166346716,-0.223694,2.460634,-13.42164,94.8, -1.7, -0.9,0,0,1177,1024,1677,1037,23,0,99,2,111.1,0,0,39,3.521,3.515,3.511,3.5,0,0,14.718,113.54,696.6679212435,104.98688,6,P-GPS,
965600,2025-09-08 23:52:53,39.3932715798855,-76.9726358571595,106.955384,,,698.6364252435,38.385828,2.460634,25.8072842904,25.269521806,23,5,14.043,698.6364252435,106.955384,3.131716,25.8072842904,-0.223694,2.460634,-13.42164,94.8, -1.6, -0.9,0,0,1167,1024,1628,1040,22,0,92,2,111.2,0,0,39,3.521,3.515,3.511,3.5,0,0,14.718,113.54,698.6364252435,106.955384,6,P-GPS,
965700,2025-09-08 23:52:53,39.3932714547187,-76.9726345448107,108.923888,,,700.6049292435,38.385828,2.460634,26.1800533312,25.6423564636,23,5,14.043,700.6049292435,108.923888,3.131716,26.1800533312,-0.223694,2.460634,-13.197946,94.8, -1.3, -0.9,0,0,1161,1024,1594,1033,21,0,86,1,111.2,0,0,39,3.521,3.515,3.511,3.5,0,0,14.718,113.54,700.6049292435,108.923888,6,P-GPS,
965800,2025-09-08 23:52:53,39.3932712955702,-76.9726332031843,110.564308,,,702.2453492435,38.385828,2.460634,26.5623039996,26.0250664496,23,5,14.043,702.2453492435,110.564308,3.131716,26.5623039996,-0.223694,2.460634,-12.526864,94.8, -1.1, -1,0,0,1154,1024,1538,1024,20,0,78,0,111.2,0,0,39,3.521,3.515,3.511,3.5,0,0,14.718,113.54,702.2453492435,110.564308,6,P-GPS,
965900,2025-09-08 23:52:53,39.393271172905,-76.9726319540247,112.532812,,,704.2138532435,38.385828,2.460634,26.9172580792,26.3801189544,23,5,14.043,704.2138532435,112.532812,3.131716,26.9172580792,-0.223694,2.460634,-11.632088,94.9, -1.2, -0.9,0,0,1150,1024,1414,1024,19,0,59,0,111.2,0,0,39,3.521,3.515,3.511,3.5,0,0,14.718,113.54,704.2138532435,112.532812,6,P-GPS,
966000,2025-09-08 23:52:53,39.393271068548,-76.9726306773833,113.845148,,,705.5261892435,38.385828,2.460634,27.2792331564,26.7420940316,23,5,14.038,705.5261892435,113.845148,3.131716,27.2792331564,-0.223694,2.460634,-10.513618,94.9, -1.3, -0.8,0,0,1132,1024,1258,1024,16,0,35,0,111.2,0,0,39,3.518,3.517,3.519,3.515,0,0,14.649,113.54,705.5261892435,113.845148,6,P-GPS,
966100,2025-09-08 23:52:53,39.3932709170114,-76.9726292890524,115.485568,,,707.1666092435,38.385828,2.23694,27.6743119092,27.1374024432,23,5,14.038,707.1666092435,115.485568,3.131716,27.6743119092,-0.223694,2.23694,-9.618842,94.9, -1.4, -0.8,0,0,1129,1024,1179,1024,16,0,23,0,111.2,0,0,39,3.518,3.517,3.519,3.515,0,0,14.649,113.54,707.1666092435,115.485568,6,P-GPS,
966200,2025-09-08 23:52:53,39.3932708568568,-76.9726281283131,116.46982,,,708.1508612435,38.385828,2.23694,28.0021006336,27.4654208264,23,5,14.038,708.1508612435,116.46982,3.131716,28.0021006336,-0.223694,2.23694,-8.276678,94.9, -1.3, -0.8,0,0,1130,1024,1197,1024,16,0,26,0,111.2,0,0,39,3.518,3.517,3.519,3.515,0,0,14.649,113.54,708.1508612435,116.46982,6,P-GPS,
966300,2025-09-08 23:52:53,39.3932707437012,-76.9726268609284,117.125988,,,708.8070292435,38.385828,2.23694,28.3618119312,27.8251649324,23,5,14.038,708.8070292435,117.125988,3.131716,28.3618119312,-0.223694,2.23694,-7.158208,95, -1.1, -0.9,0,0,1130,1024,1197,1024,16,0,26,0,111.2,0,0,39,3.518,3.517,3.519,3.515,0,0,14.649,113.54,708.8070292435,117.125988,6,P-GPS,
966400,2025-09-08 23:52:54,39.393270599693,-76.9726258065574,117.782156,,,709.4631972435,38.385828,2.23694,28.6629602348,28.1270678292,23,5,14.038,709.4631972435,117.782156,3.131716,28.6629602348,-0.223694,2.23694,-6.039738,95, -0.9, -0.9,0,0,1163,1024,1259,1024,21,0,36,0,111.2,0,0,39,3.518,3.517,3.519,3.515,0,0,14.649,113.54,709.4631972435,117.782156,6,P-GPS,
966500,2025-09-08 23:52:54,39.3932704688377,-76.9726245902893,118.438324,,,710.1193652435,38.385828,2.0356154,29.009023238,28.4732948744,23,5,14.038,710.1193652435,118.438324,3.131716,29.009023238,-0.223694,2.013246,-4.921268,95, -0.9, -0.9,0,0,1176,1024,1262,1024,23,0,36,0,111.2,0,0,39,3.518,3.517,3.519,3.515,0,0,14.649,113.54,710.1193652435,118.438324,6,P-GPS,
966600,2025-09-08 23:52:54,39.39327030647,-76.9726234072454,119.094492,,,710.7755332435,38.385828,2.0356154,29.3469825664,28.8120744128,23,5,14.038,710.7755332435,119.094492,3.131716,29.3469825664,-0.223694,2.013246,-3.579104,95, -1.3, -0.9,0,0,1176,1024,1251,1052,23,0,34,4,111.2,0,0,39,3.518,3.517,3.519,3.515,0,0,14.649,113.54,710.7755332435,119.094492,6,P-GPS,
966700,2025-09-08 23:52:54,39.3932701726846,-76.9726224137909,119.422576,,,711.1036172435,38.385828,2.0356154,29.6307096096,29.0964248156,23,5,14.038,711.1036172435,119.422576,3.131716,29.6307096096,-0.223694,2.013246,-2.460634,95, -1.8, -0.9,0,0,1171,1024,1251,1114,22,0,34,14,111.2,0,0,39,3.518,3.517,3.519,3.515,0,0,14.649,113.54,711.1036172435,119.422576,6,P-GPS,
966800,2025-09-08 23:52:54,39.3932701443529,-76.972621253107,119.75066,,,711.4317012435,38.385828,2.0356154,29.9572188064,29.4238526476,23,5,14.038,711.4317012435,119.75066,3.131716,29.9572188064,-0.223694,2.013246,-1.789552,95, -2.4, -0.8,0,0,1160,1024,1251,1177,21,0,34,23,111.2,0,0,39,3.518,3.517,3.519,3.515,0,0,14.649,113.54,711.4317012435,119.75066,6,P-GPS,
966900,2025-09-08 23:52:54,39.3932700389549,-76.9726202072277,119.75066,,,711.4317012435,38.385828,2.0356154,30.2545285272,29.7212279852,23,5,14.266,711.4317012435,119.75066,3.131716,30.2545285272,-0.223694,2.013246,-1.342164,95.1, -2.7, -0.9,0,0,1152,1024,1251,1201,19,0,34,27,111.2,0,0,38,3.57,3.568,3.567,3.56,0,0,5.205,113.72,711.4317012435,119.75066,6,P-GPS,
967000,2025-09-08 23:52:54,39.3932699347864,-76.9726191246323,120.078744,,,711.7597852435,38.385828,2.0356154,30.5620744688,30.0288395436,23,5,14.266,711.7597852435,120.078744,3.131716,30.5620744688,-0.223694,2.013246,-1.11847,95.1, -2.5, -0.7,0,0,1152,1024,1251,1201,19,0,34,27,111.4,0,0,38,3.57,3.568,3.567,3.56,0,0,5.205,113.72,711.7597852435,120.078744,6,P-GPS,
967100,2025-09-08 23:52:54,39.3932698418451,-76.9726179007261,120.078744,,,711.7597852435,38.385828,2.0356154,30.9088264484,30.3755915232,23,5,14.266,711.7597852435,120.078744,3.131716,30.9088264484,-0.223694,2.013246,-1.11847,95.3, -2, -0.6,0,0,1147,1024,1248,1230,19,0,34,31,111.6,0,0,38,3.57,3.568,3.567,3.56,0,0,5.205,113.72,711.7597852435,120.078744,6,P-GPS,
967200,2025-09-08 23:52:54,39.3932696240498,-76.9726170447023,120.406828,,,712.0878692435,38.385828,2.0356154,31.15731727,30.6296925812,23,5,14.266,712.0878692435,120.406828,3.131716,31.15731727,-0.223694,2.013246,-1.11847,95.5, -1.6, -0.5,0,0,1137,1024,1244,1236,17,0,33,32,111.9,0,0,38,3.57,3.568,3.567,3.56,0,0,5.205,113.72,712.0878692435,120.406828,6,P-GPS,
967300,2025-09-08 23:52:55,39.3932695292109,-76.9726158511158,120.734912,,,712.4159532435,38.385828,2.0356154,31.4956374908,30.968012802,23,5,14.266,712.4159532435,120.734912,3.131716,31.4956374908,-0.223694,2.013246,-1.342164,95.9, -1.4, -0.5,0,0,1109,1024,1186,1210,13,0,25,28,112.3,0,0,38,3.57,3.568,3.567,3.56,0,0,5.205,113.72,712.4159532435,120.734912,6,P-GPS,
967400,2025-09-08 23:52:55,39.3932692066987,-76.9726150332161,120.734912,,,712.4159532435,38.385828,1.8119214,31.7377306744,31.2269366948,23,5,14.266,712.4159532435,120.734912,3.131716,31.7377306744,-0.223694,1.789552,-1.342164,96.3, -1.3, -0.5,0,0,1093,1024,1125,1120,10,0,15,15,112.7,0,0,38,3.57,3.568,3.567,3.56,0,0,5.205,113.72,712.4159532435,120.734912,6,P-GPS,
967500,2025-09-08 23:52:55,39.3932690403837,-76.9726141506419,121.062996,,,712.7440372435,38.385828,1.8119214,31.991798924,31.4830718736,23,5,14.266,712.7440372435,121.062996,3.131716,31.991798924,-0.223694,1.789552,-1.11847,96.7, -1.2, -0.9,0,0,1091,1024,1079,1125,10,0,8,15,113,0,0,38,3.57,3.568,3.567,3.56,0,0,5.205,113.72,712.7440372435,121.062996,6,P-GPS,
967600,2025-09-08 23:52:55,39.3932689148314,-76.9726129689283,121.062996,,,712.7440372435,38.385828,1.8119214,32.3280522156,31.819390782,23,5,14.266,712.7440372435,121.062996,3.131716,32.3280522156,-0.223694,1.789552,-0.671082,97, -1.1, -1.2,0,0,1032,1024,1037,1024,1,0,2,0,113.2,0,0,38,3.57,3.568,3.567,3.56,0,0,5.205,113.72,712.7440372435,121.062996,6,P-GPS,
967700,2025-09-08 23:52:55,39.3932687464046,-76.97261198299,121.39108,,,713.0721212435,38.385828,1.5882274,32.6111887076,32.1041020772,23,5,14.266,713.0721212435,121.39108,3.131716,32.6111887076,-0.223694,1.565858,-0.447388,97, -1.2, -1.3,0,0,1024,1024,1024,1024,0,0,0,0,113.3,0,0,38,3.57,3.568,3.567,3.56,0,0,5.205,113.72,713.0721212435,121.39108,6,P-GPS,
967800,2025-09-08 23:52:55,39.3932686495653,-76.9726111990794,121.39108,,,713.0721212435,38.385828,1.5882274,32.83464672,32.327920982,23,5,14.266,713.0721212435,121.39108,3.131716,32.83464672,-0.223694,1.565858,-0.223694,97.1, -1.3, -1.3,0,0,1024,1024,1024,1024,0,0,0,0,113.3,0,0,38,3.57,3.568,3.567,3.56,0,0,5.205,113.72,713.0721212435,121.39108,6,P-GPS,
967900,2025-09-08 23:52:55,39.3932685374164,-76.9726103520462,121.39108,,,713.0721212435,38.385828,1.5882274,33.076772712,32.5702438244,23,5,14.167,713.0721212435,121.39108,3.131716,33.076772712,-0.223694,1.565858,0,97.1, -1.2, -1.1,0,0,1024,1024,1024,1024,0,0,0,0,113.3,0,0,38,3.548,3.543,3.539,3.53,0,0,8.314,113.72,713.0721212435,121.39108,6,P-GPS,
968000,2025-09-08 23:52:55,39.3932683002956,-76.9726095309317,121.39108,,,713.0721212435,38.385828,1.5882274,33.316602116,32.817258268,23,5,14.167,713.0721212435,121.39108,3.131716,33.316602116,-0.223694,1.565858,0,97.1, 1.2, -1,0,0,1024,1024,1024,1024,0,0,0,0,113.3,0,0,38,3.548,3.543,3.539,3.53,0,0,8.314,113.72,713.0721212435,121.39108,6,P-GPS,
968100,2025-09-08 23:52:55,39.3932681412113,-76.9726086828897,121.39108,,,713.0721212435,38.385828,1.3645334,33.561024696,33.063321268,23,5,14.167,713.0721212435,121.39108,3.131716,33.561024696,-0.223694,1.342164,0,97.1, 3.8, -1,0,0,1024,1024,1024,1024,0,0,0,0,113.3,0,0,38,3.548,3.543,3.539,3.53,0,0,8.314,113.72,713.0721212435,121.39108,6,P-GPS,
968200,2025-09-08 23:52:55,39.3932680528256,-76.9726081416807,121.39108,,,713.0721212435,38.385828,1.11847,33.716208428,33.219489252,23,5,14.167,713.0721212435,121.39108,3.131716,33.716208428,0,1.11847,0,97, 4.8, -1,0,0,1024,1024,1024,1024,0,0,0,0,113.3,0,0,38,3.548,3.543,3.539,3.53,0,0,8.314,113.72,713.0721212435,121.39108,6,P-GPS,
968300,2025-09-08 23:52:55,39.3932679466952,-76.9726075311964,121.39108,,,713.0721212435,38.385828,0.894776,33.891733368,33.395998444,23,5,14.167,713.0721212435,121.39108,3.131716,33.891733368,0,0.894776,0,97.1, 4.4, -1,0,0,1024,1024,1024,1057,0,0,0,5,113.3,0,0,38,3.548,3.543,3.539,3.53,0,0,8.314,113.72,713.0721212435,121.39108,6,P-GPS,
968400,2025-09-08 23:52:56,39.3932678152487,-76.9726072329106,121.39108,,,713.0721212435,38.385828,0.671082,33.980972216,33.492783224,23,5,14.167,713.0721212435,121.39108,3.131716,33.980972216,0,0.671082,0,97.1, 3.5, -0.9,0,0,1024,1024,1024,1158,0,0,0,20,113.3,0,0,38,3.548,3.543,3.539,3.53,0,0,8.314,113.72,713.0721212435,121.39108,6,P-GPS,
968500,2025-09-08 23:52:56,39.3932677224188,-76.9726069643237,121.39108,,,713.0721212435,38.385828,0.447388,34.06004046,33.575788476,23,5,14.167,713.0721212435,121.39108,3.131716,34.06004046,0,0.447388,0,97.1, 2.5, -0.9,0,0,1024,1024,1024,1272,0,0,0,38,113.3,0,0,38,3.548,3.543,3.539,3.53,0,0,8.314,113.72,713.0721212435,121.39108,6,P-GPS,
968600,2025-09-08 23:52:56,39.3932677300907,-76.9726068204078,121.39108,,,713.0721212435,38.385828,0.223694,34.100066708,33.616142808,23,5,14.167,713.0721212435,121.39108,3.131716,34.100066708,0,0.223694,0,97.1, 1.6, -1,0,0,1024,1024,1024,1272,0,0,0,38,113.4,0,0,38,3.548,3.543,3.539,3.53,0,0,8.314,113.72,713.0721212435,121.39108,6,P-GPS,
968700,2025-09-08 23:52:56,39.3932676828383,-76.9726067635265,121.39108,,,713.0721212435,38.385828,0,34.118111328,33.639764856,23,5,14.167,713.0721212435,121.39108,3.131716,34.118111328,0,0,0,97.3, 0.8, -0.9,0,0,1024,1024,1024,1449,0,0,0,64,113.7,0,0,38,3.548,3.543,3.539,3.53,0,0,8.314,113.72,713.0721212435,121.39108,6,P-GPS,
968800,2025-09-08 23:52:56,39.3932676122896,-76.9726065813757,121.39108,,,713.0721212435,38.385828,0,34.171917104,33.697179556,23,5,14.167,713.0721212435,121.39108,3.131716,34.171917104,0,0,0,97.8, 0.1, -0.8,0,0,1024,1024,1024,1585,0,0,0,85,114.7,0,0,38,3.548,3.543,3.539,3.53,0,0,8.314,113.72,713.0721212435,121.39108,6,P-GPS,
968900,2025-09-08 23:52:56,39.3932675755963,-76.9726065683498,121.39108,,,713.0721212435,38.385828,0,34.177494532,33.711287168,23,5,14.167,713.0721212435,121.39108,3.131716,34.177494532,0,0,0,99.3, -0.1, -0.9,0,0,1024,1024,1024,1669,0,0,0,98,117.1,0,0,38,3.548,3.543,3.539,3.53,0,0,8.314,113.72,713.0721212435,121.39108,6,P-GPS,
969000,2025-09-08 23:52:56,39.3932675076349,-76.9726065105152,121.39108,,,713.0721212435,38.385828,0,34.196523404,33.740814728,23,5,14.157,713.0721212435,121.39108,3.131716,34.196523404,0,0,0,102.4, -0.1, -0.9,0,0,1034,1024,1024,1684,2,0,0,100,121.1,0,0,38,3.545,3.54,3.538,3.527,0,0,8.697,113.72,713.0721212435,121.39108,6,P-GPS,
969100,2025-09-08 23:52:56,39.3932674820532,-76.972606543562,121.39108,,,713.0721212435,38.385828,0,34.188321304,33.753938088,23,5,14.157,713.0721212435,121.39108,3.131716,34.196523404,0,0,0,107.1, -0.4, -0.9,0,0,1040,1024,1024,1684,2,0,0,100,126.2,0,0,38,3.545,3.54,3.538,3.527,0,0,8.697,113.72,713.0721212435,121.39108,6,P-GPS,
969200,2025-09-08 23:52:56,39.3932674130466,-76.9726066087465,121.39108,,,713.0721212435,38.385828,0,34.17322944,33.785106068,23,5,14.157,713.0721212435,121.39108,3.131716,34.196523404,0,0,0,112.8, -0.8, -1,0,0,1041,1024,1024,1684,3,0,0,100,132,0,0,38,3.545,3.54,3.538,3.527,0,0,8.697,113.72,713.0721212435,121.39108,6,P-GPS,
969300,2025-09-08 23:52:57,39.3932674015237,-76.972606658034,121.39108,,,713.0721212435,38.385828,0,34.159777996,33.799869848,23,5,14.157,713.0721212435,121.39108,3.131716,34.196523404,0,0,0,118.7, -1.1, -1.2,0,0,1048,1024,1024,1684,4,0,0,100,138,0,0,38,3.545,3.54,3.538,3.527,0,0,8.697,113.72,713.0721212435,121.39108,6,P-GPS,
969400,2025-09-08 23:52:57,39.393267287974,-76.9726067305795,121.39108,,,713.0721212435,38.385828,0,34.144686132,33.845801608,23,5,14.157,713.0721212435,121.39108,3.131716,34.196523404,0,0,0,124.6, -1.1, -1.2,0,0,1048,1024,1024,1684,4,0,0,100,144,0,0,38,3.545,3.54,3.538,3.527,0,0,8.697,113.72,713.0721212435,121.39108,6,P-GPS,
969500,2025-09-08 23:52:57,39.3932672637589,-76.9726068091447,121.39108,,,713.0721212435,38.385828,0,34.123688756,33.86975174,23,5,14.157,713.0721212435,121.39108,3.131716,34.196523404,0,0,0,130.6, -1, -1.3,0,0,1059,1024,1058,1684,5,0,5,100,150,0,0,38,3.545,3.54,3.538,3.527,0,0,8.697,113.72,713.0721212435,121.39108,6,P-GPS,
969600,2025-09-08 23:52:57,39.3932671755831,-76.9726068722007,121.39108,,,713.0721212435,38.385828,0,34.110237312,33.906497148,23,5,14.157,713.0721212435,121.39108,3.131716,34.196523404,0,0,0,136.5, -1, -1.5,0,0,1070,1024,1095,1684,7,0,11,100,156,0,0,38,3.545,3.54,3.538,3.527,0,0,8.697,113.72,713.0721212435,121.39108,6,P-GPS,
969700,2025-09-08 23:52:57,39.3932671617728,-76.9726069300021,121.39108,,,713.0721212435,38.385828,0,34.094817364,33.923557516,23,5,14.157,713.0721212435,121.39108,3.131716,34.196523404,0,0,0,142.6, -1.1, -1.5,0,0,1085,1024,1093,1684,9,0,10,100,162,0,0,38,3.545,3.54,3.538,3.527,0,0,8.697,113.72,713.0721212435,121.39108,6,P-GPS,
969800,2025-09-08 23:52:57,39.3932670340487,-76.972606992515,121.39108,,,713.0721212435,38.385828,0,34.08300634,33.973426284,23,5,14.157,713.0721212435,121.39108,3.131716,34.196523404,0,0,0,148.4, -1.1, -1.5,0,0,1107,1024,1084,1684,13,0,9,100,168,0,0,38,3.545,3.54,3.538,3.527,0,0,8.697,113.72,713.0721212435,121.39108,6,P-GPS,
969900,2025-09-08 23:52:57,39.3932669916539,-76.9726070354614,121.39108,,,713.0721212435,38.385828,0,34.072835736,33.993111324,23,5,14.157,713.0721212435,121.39108,3.131716,34.196523404,0,0,0,154.3, -1, -1.4,0,0,1109,1024,1212,1684,13,0,28,100,174,0,0,38,3.545,3.54,3.538,3.527,0,0,8.697,113.72,713.0721212435,121.39108,6,P-GPS,
970000,2025-09-08 23:52:57,39.3932668841527,-76.9726071113104,121.39108,,,713.0721212435,38.385828,0,34.05675962,34.037730748,23,5,14.15,713.0721212435,121.39108,3.131716,34.196523404,0,0,0,160.3, -0.9, -1.4,0,0,1109,1024,1234,1684,13,0,32,100,180,0,0,38,3.544,3.539,3.534,3.523,0,0,9.581,113.72,713.0721212435,121.39108,6,P-GPS,
970100,2025-09-08 23:52:57,39.3932668035739,-76.9726071723489,121.39108,,,713.0721212435,38.385828,0,34.04363626,34.071851484,23,5,14.15,713.0721212435,121.39108,3.131716,34.196523404,0,0,-0.223694,166.3, -0.9, -1.3,0,0,1109,1024,1234,1684,13,0,32,100,186,0,0,38,3.544,3.539,3.534,3.523,0,0,9.581,113.72,713.0721212435,121.39108,6,P-GPS,
970200,2025-09-08 23:52:57,39.3932667652957,-76.9726071895208,121.719164,,,713.4002052435,38.385828,0,34.04035542,34.086615264,23,5,14.15,713.4002052435,121.719164,3.131716,34.196523404,0,0,-0.447388,172.3, -1.2, -1.1,0,0,1108,1024,1248,1684,13,0,34,100,192,0,0,38,3.544,3.539,3.534,3.523,0,0,9.581,113.72,713.4002052435,121.719164,6,P-GPS,
970300,2025-09-08 23:52:57,39.3932666759441,-76.9726072185767,121.719164,,,713.4002052435,38.385828,0,34.036746496,34.120079832,23,5,14.15,713.4002052435,121.719164,3.131716,34.196523404,0,0,-0.894776,178.3, -1, -1,0,0,1107,1024,1270,1684,13,0,37,100,198,0,0,38,3.544,3.539,3.534,3.523,0,0,9.581,113.72,713.4002052435,121.719164,6,P-GPS,
970400,2025-09-08 23:52:58,39.3932666417995,-76.9726073014985,122.047248,,,713.7282892435,38.385828,0,34.015092952,34.146654636,23,5,14.15,713.7282892435,122.047248,3.131716,34.196523404,0,0,-1.11847,184.4, -0.7, -0.9,0,0,1106,1024,1334,1665,12,0,47,97,204,0,0,38,3.544,3.539,3.534,3.523,0,0,9.581,113.72,713.7282892435,122.047248,6,P-GPS,
970500,2025-09-08 23:52:58,39.3932665408051,-76.9726073424273,122.047248,,,713.7282892435,38.385828,0,34.008531272,34.185368548,23,5,14.15,713.7282892435,122.047248,3.131716,34.196523404,0,0,-1.565858,190.4, -0.4, -0.8,0,0,1106,1024,1445,1489,12,0,64,70,210,0,0,38,3.544,3.539,3.534,3.523,0,0,9.581,113.72,713.7282892435,122.047248,6,P-GPS,
970600,2025-09-08 23:52:58,39.3932664902736,-76.9726074782395,122.375332,,,714.0563732435,38.385828,0.223694,33.9730982,34.227691384,23,5,14.15,714.0563732435,122.375332,3.131716,34.196523404,-0.223694,0,-2.013246,196.3, -0.4, -0.8,0,0,1109,1024,1580,1302,13,0,84,42,215.1,0,0,38,3.544,3.539,3.534,3.523,0,0,9.581,113.72,714.0563732435,122.375332,6,P-GPS,
970700,2025-09-08 23:52:58,39.3932663904315,-76.9726075718592,123.0315,,,714.7125412435,38.385828,0.223694,33.95177274,34.272638892,23,5,14.15,714.7125412435,123.0315,3.131716,34.196523404,-0.223694,0,-2.908022,200.7, -0.7, -1,0,0,1119,1024,1614,1278,14,0,89,38,218.3,0,0,38,3.544,3.539,3.534,3.523,0,0,9.581,113.72,714.7125412435,123.0315,6,P-GPS,
970800,2025-09-08 23:52:58,39.3932663346462,-76.9726076120785,123.359584,,,715.0406252435,38.385828,0.223694,33.943242556,34.295932856,23,5,14.15,715.0406252435,123.359584,3.131716,34.196523404,-0.223694,0,-3.802798,202.9, -0.5, -1.1,0,0,1119,1024,1614,1278,14,0,89,38,219.9,0,0,38,3.544,3.539,3.534,3.523,0,0,9.581,113.72,715.0406252435,123.359584,6,P-GPS,
970900,2025-09-08 23:52:58,39.3932662140158,-76.9726076766644,124.015752,,,715.6967932435,38.385828,0.223694,33.931103448,34.34383312,23,5,14.15,715.6967932435,124.015752,3.131716,34.196523404,-0.223694,0,-5.144962,203.7, 0, -1.3,0,0,1176,1024,1506,1277,23,0,73,38,220.8,0,0,38,3.544,3.539,3.534,3.523,0,0,9.581,113.72,715.6967932435,124.015752,6,P-GPS,
971000,2025-09-08 23:52:58,39.3932661141072,-76.9726078810201,125.000004,,,716.6810452435,38.385828,0.223694,33.878938092,34.411746508,23,5,14.141,716.6810452435,125.000004,3.131716,34.196523404,-0.223694,0,-6.039738,204.3, 0.2, -1.4,0,0,1207,1024,1369,1026,28,0,52,0,221.4,0,0,38,3.532,3.525,3.521,3.51,0,0,9.656,113.54,716.6810452435,125.000004,6,P-GPS,
971100,2025-09-08 23:52:58,39.393265974629,-76.972607988375,125.984256,,,717.6652972435,38.385828,0.223694,33.855972212,34.471129712,23,5,14.141,717.6652972435,125.984256,3.131716,34.196523404,-0.223694,0,-6.487126,204.9, 0.9, -1.5,0,0,1240,1024,1395,1024,33,0,56,0,221.8,0,0,38,3.532,3.525,3.521,3.51,0,0,9.656,113.54,717.6652972435,125.984256,6,P-GPS,
971200,2025-09-08 23:52:58,39.3932657975236,-76.9726080720951,126.968508,,,718.6495492435,38.385828,0.223694,33.841536516,34.540027352,23,5,14.141,718.6495492435,126.968508,3.131716,34.196523404,-0.223694,0,-6.039738,205.1, 0.9, -1.2,0,0,1294,1024,1542,1024,41,0,78,0,221.9,0,0,38,3.532,3.525,3.521,3.51,0,0,9.656,113.54,718.6495492435,126.968508,6,P-GPS,
971300,2025-09-08 23:52:59,39.3932656191417,-76.9726081733528,127.95276,,,719.6338012435,38.385828,0.223694,33.822507644,34.610893496,23,5,14.141,719.6338012435,127.95276,3.131716,34.196523404,-0.223694,0,-5.368656,205.1, -0.1, -1.2,0,0,1323,1024,1680,1024,45,0,99,0,221.9,0,0,38,3.532,3.525,3.521,3.51,0,0,9.656,113.54,719.6338012435,127.95276,6,P-GPS,
971400,2025-09-08 23:52:59,39.3932655311137,-76.9726081887732,128.608928,,,720.2899692435,38.385828,0.223694,33.822835728,34.643373812,23,5,14.141,720.2899692435,128.608928,3.131716,34.196523404,-0.223694,0,-5.144962,205.1, -3.1, -0.9,0,0,1364,1024,1684,1024,52,0,100,0,221.9,0,0,38,3.532,3.525,3.521,3.51,0,0,9.656,113.54,720.2899692435,128.608928,6,P-GPS,
971500,2025-09-08 23:52:59,39.3932653302857,-76.9726083055732,129.59318,,,721.2742212435,38.385828,0.4921268,33.8008541,34.723754392,23,5,14.141,721.2742212435,129.59318,3.131716,34.196523404,-0.447388,-0.223694,-5.816044,205.2, -5.4, -0.6,0,0,1364,1024,1684,1024,52,0,100,0,221.9,0,0,38,3.532,3.525,3.521,3.51,0,0,9.656,113.54,721.2742212435,129.59318,6,P-GPS,
971600,2025-09-08 23:52:59,39.3932650511621,-76.9726084137374,130.905516,,,722.5865572435,38.385828,0.7158208,33.785762236,34.830053608,23,5,14.141,722.5865572435,130.905516,3.131716,34.196523404,-0.671082,-0.223694,-6.71082,205.3, -5.6, -0.6,0,0,1409,1024,1677,1024,58,0,99,0,221.9,0,0,38,3.532,3.525,3.521,3.51,0,0,9.656,113.54,722.5865572435,130.905516,6,P-GPS,
971700,2025-09-08 23:52:59,39.3932645824721,-76.9726086527917,131.889768,,,723.5708092435,38.385828,1.2079476,33.74507982,35.013780648,23,5,14.141,723.5708092435,131.889768,3.131716,34.196523404,-1.11847,-0.447388,-7.605596,205.4, -4.7, -0.6,0,0,1424,1024,1679,1024,61,0,99,0,221.9,0,0,38,3.532,3.525,3.521,3.51,0,0,9.656,113.54,723.5708092435,131.889768,6,P-GPS,
