time(millisecond),datetime(utc),latitude,longitude,height_above_takeoff(feet),height_above_ground_at_drone_location(feet),ground_elevation_at_drone_location(feet),altitude_above_seaLevel(feet),height_sonar(feet),speed(mph),distance(feet),mileage(feet),satellites,gpslevel,voltage(v),max_altitude(feet),max_ascent(feet),max_speed(mph),max_distance(feet), xSpeed(mph), ySpeed(mph), zSpeed(mph), compass_heading(degrees), pitch(degrees), roll(degrees),isPhoto,isVideo,rc_elevator,rc_aileron,rc_throttle,rc_rudder,rc_elevator(percent),rc_aileron(percent),rc_throttle(percent),rc_rudder(percent),gimbal_heading(degrees),gimbal_pitch(degrees),gimbal_roll(degrees),battery_percent,voltageCell1,voltageCell2,voltageCell3,voltageCell4,voltageCell5,voltageCell6,current(A),battery_temperature(f),altitude(feet),ascent(feet),flycStateRaw,flycState,message
28000,2025-09-08 23:34:16,39.3932810716129,-76.9727132966245,0,Available with any HD 360 subscription,Available with any HD 360 subscription,591.93245070037,0.328084,0,0,0,19,5,16.556,591.93245070037,0,0,0,0,0,0,97.3, 5.2, 0,0,0,364,364,364,1684,-100,-100,-100,100,113.7,0,0,100,4.138,4.14,4.14,4.138,0,0,0.791,75.56,591.93245070037,0,6,P-GPS,"SD card speed low SD card speed low. Normal use may be affected. Replace SD card (Code: 10028). Aircraft not in flight. Vision systems and obstacle avoidance disabled (Code: 180059). Remote ID functionality normal (Code: 30331)"
28100,2025-09-08 23:34:16,39.3932810589602,-76.9727132881688,0,,,591.93245070037,0.328084,0,0.0051956366492,0.0051956366492,19,5,16.556,591.93245070037,0,0,0.0051956366492,0,0,0,97.3, 5.2, 0,0,0,364,364,364,1684,-100,-100,-100,100,113.7,0,0,100,4.138,4.14,4.14,4.138,0,0,0.791,75.56,591.93245070037,0,41,Motors_Started,
28200,2025-09-08 23:34:17,39.3932810370078,-76.9727133614211,0,,,591.93245070037,0.328084,0,0.0222080387684,0.0273482948384,19,5,16.556,591.93245070037,0,0,0.0222080387684,0,0,0,97.3, 5.2, 0,0,0,364,364,364,1684,-100,-100,-100,100,113.7,0,0,100,4.138,4.14,4.14,4.138,0,0,0.791,75.56,591.93245070037,0,41,Motors_Started,
28300,2025-09-08 23:34:17,39.3932810203575,-76.9727133559849,0,,,591.93245070037,0.328084,0,0.0250966543464,0.033613518136,19,5,16.556,591.93245070037,0,0,0.0250966543464,0,0,0,97.3, 5.2, 0,0,0,364,364,364,1684,-100,-100,-100,100,113.7,0,0,100,4.138,4.14,4.14,4.138,0,0,0.791,75.56,591.93245070037,0,41,Motors_Started,
28400,2025-09-08 23:34:17,39.3932810580392,-76.9727133193712,0,,,591.93245070037,0.328084,0,0.0081031170572,0.050806103988,19,5,16.556,591.93245070037,0,0,0.0250966543464,0,0,0,97.3, 5.2, 0,0,0,364,364,364,1684,-100,-100,-100,100,113.7,0,0,100,4.138,4.14,4.14,4.138,0,0,0.791,75.56,591.93245070037,0,41,Motors_Started,
28500,2025-09-08 23:34:17,39.3932810538574,-76.9727133146625,0,,,591.93245070037,0.328084,0,0.008236056694,0.052828741848,19,5,16.556,591.93245070037,0,0,0.0250966543464,0,0,0,97.3, 5.2, 0,0,0,364,364,364,1684,-100,-100,-100,100,113.7,0,0,100,4.138,4.14,4.14,4.138,0,0,0.791,75.56,591.93245070037,0,41,Motors_Started,
28600,2025-09-08 23:34:17,39.3932810526687,-76.9727133906169,0,,,591.93245070037,0.328084,0,0.02738845232,0.074249018124,19,5,16.556,591.93245070037,0,0,0.02738845232,0,0,0,97.3, 5.2, 0,0,0,994,785,364,1684,-5,-36,-100,100,113.6,0,0,100,4.138,4.14,4.14,4.138,0,0,0.791,75.56,591.93245070037,0,41,Motors_Started,
28700,2025-09-08 23:34:17,39.3932810498693,-76.9727133971756,0,,,591.93245070037,0.328084,0,0.0294402240392,0.076361551,19,5,16.556,591.93245070037,0,0,0.0294402240392,0,0,0,97.3, 5.2, 0,0,0,1024,1024,1024,1024,0,0,0,0,113.6,0,0,100,4.138,4.14,4.14,4.138,0,0,0.791,75.56,591.93245070037,0,41,Motors_Started,
28800,2025-09-08 23:34:17,39.3932810692698,-76.9727133439831,0,,,591.93245070037,0.328084,0,0.0133804794308,0.0929461972,19,5,16.556,591.93245070037,0,0,0.0294402240392,0,0,0,97.3, 5.2, 0,0,0,1024,1024,1024,1024,0,0,0,0,113.6,0,0,100,4.138,4.14,4.14,4.138,0,0,0.791,75.56,591.93245070037,0,41,Motors_Started,"Setting new Return-To-Home altitude to 65m (213 ft). Data Recorder File Index is 68. Setting new Maximum Flight Altitude to 120m (394 ft)"
28900,2025-09-08 23:34:17,39.3932810712274,-76.9727133443767,0,,,591.93245070037,0.328084,0,0.0134648626356,0.093668966252,19,5,16.556,591.93245070037,0,0,0.0294402240392,0,0,0,97.3, 5.2, 0,0,0,1024,1024,1024,1024,0,0,0,0,113.6,0,0,100,4.138,4.14,4.14,4.138,0,0,0.791,75.56,591.93245070037,0,41,Motors_Started,
29000,2025-09-08 23:34:17,39.3932810707444,-76.9727133872746,0,,,591.93245070037,0.328084,0,0.025561516566,0.105765751416,19,5,16.41,591.93245070037,0,0,0.0294402240392,0,0,0,97.3, 5.2, 0,0,0,1024,1024,1024,1024,0,0,0,0,113.6,0,0,100,4.105,4.107,4.107,4.106,0,0,3.152,75.56,591.93245070037,0,41,Motors_Started,
29100,2025-09-08 23:34:18,39.3932810694433,-76.9727133890996,0,,,591.93245070037,0.328084,0,0.026086122882,0.106465882672,19,5,16.41,591.93245070037,0,0,0.0294402240392,0,0,0,97.4, 5.2, 0,0,0,1024,1024,1024,1024,0,0,0,0,113.6,0,0,100,4.105,4.107,4.107,4.106,0,0,3.152,75.56,591.93245070037,0,41,Motors_Started,
29200,2025-09-08 23:34:18,39.3932811101332,-76.9727133471758,0,,,591.93245070037,0.328084,0,0.020016896966,0.125442589316,19,5,16.41,591.93245070037,0,0,0.0294402240392,0,0,0,97.3, 5.2, 0,0,0,1024,1024,1024,1024,0,0,0,0,113.6,0,0,100,4.105,4.107,4.107,4.106,0,0,3.152,75.56,591.93245070037,0,41,Motors_Started,
29300,2025-09-08 23:34:18,39.3932811094028,-76.9727133478035,0,,,591.93245070037,0.328084,0,0.0199583011636,0.125762471216,19,5,16.41,591.93245070037,0,0,0.0294402240392,0,0,0,97.3, 5.2, 0,0,0,1024,1024,1024,1024,0,0,0,0,113.6,0,0,100,4.105,4.107,4.107,4.106,0,0,3.152,75.56,591.93245070037,0,41,Motors_Started,
29400,2025-09-08 23:34:18,39.3932810538199,-76.9727133779417,0,,,591.93245070037,0.328084,0,0.0238293642796,0.147750332812,19,5,16.41,591.93245070037,0,0,0.0294402240392,0,0,0,97.3, 5.2, 0,0,0,1024,1024,1024,1024,0,0,0,0,113.6,0,0,100,4.105,4.107,4.107,4.106,0,0,3.152,75.56,591.93245070037,0,41,Motors_Started,
29500,2025-09-08 23:34:18,39.393281053806,-76.9727133764368,0,,,591.93245070037,0.328084,0,0.0234228025868,0.148174873508,19,5,16.41,591.93245070037,0,0,0.0294402240392,0,0,0,97.3, 5.2, 0,0,0,1024,1024,1024,1024,0,0,0,0,113.6,0,0,100,4.105,4.107,4.107,4.106,0,0,3.152,75.56,591.93245070037,0,41,Motors_Started,
29600,2025-09-08 23:34:18,39.3932810875822,-76.9727133156727,0,,,591.93245070037,0.328084,0,0.0079241472352,0.169279204892,19,5,16.41,591.93245070037,0,0,0.0294402240392,0,0,0,97.4, 5.2, 0,0,0,1024,1024,1024,1024,0,0,0,0,113.6,0,0,100,4.105,4.107,4.107,4.106,0,0,3.152,75.56,591.93245070037,0,41,Motors_Started,"SD card speed low. Normal use may be affected. Replace SD card (Code: 10028). Remote ID functionality normal (Code: 30331)"
29700,2025-09-08 23:34:18,39.3932810858216,-76.972713314226,0,,,591.93245070037,0.328084,0,0.007176673458,0.170040031688,19,5,16.41,591.93245070037,0,0,0.0294402240392,0,0,0,97.4, 5.2, 0,0,0,1024,1024,1024,1024,0,0,0,0,113.6,0,0,100,4.105,4.107,4.107,4.106,0,0,3.152,75.56,591.93245070037,0,10,Assisted_Takeoff,
29800,2025-09-08 23:34:18,39.3932810330434,-76.9727133492696,0,,,591.93245070037,0.328084,0,0.0204538392372,0.191683405084,19,5,16.41,591.93245070037,0,0,0.0294402240392,0,0,0,97.3, 5.2, 0,0,0,1024,1024,1024,1024,0,0,0,0,113.6,0,0,100,4.105,4.107,4.107,4.106,0,0,3.152,75.56,591.93245070037,0,10,Assisted_Takeoff,
29900,2025-09-08 23:34:18,39.3932810322659,-76.9727133489911,0,,,591.93245070037,0.328084,0,0.0205936358296,0.191977696432,19,5,16.41,591.93245070037,0,0,0.0294402240392,0,0,0,97.4, 5.2, 0,0,0,1024,1024,1024,1024,0,0,0,0,113.6,0,0,100,4.105,4.107,4.107,4.106,0,0,3.152,75.56,591.93245070037,0,10,Assisted_Takeoff,
30000,2025-09-08 23:34:18,39.3932810600825,-76.9727133146736,0,,,591.93245070037,0.328084,0,0.0066027561168,0.206000006592,19,5,16.486,591.93245070037,0,0,0.0294402240392,0,0,0,97.4, 5.2, 0,0,0,1024,1024,1024,1024,0,0,0,0,113.6,0,0,100,4.104,4.111,4.114,4.117,0,0,2.997,75.74,591.93245070037,0,10,Assisted_Takeoff,
30100,2025-09-08 23:34:18,39.3932810606426,-76.9727133143092,0,,,591.93245070037,0.328084,0,0.006394029076,0.20622868114,19,5,16.486,591.93245070037,0,0,0.0294402240392,0,0,0,97.4, 5.2, 0,0,0,1024,1024,1024,1024,0,0,0,0,113.6,0,0,100,4.104,4.111,4.114,4.117,0,0,2.997,75.74,591.93245070037,0,10,Assisted_Takeoff,
30200,2025-09-08 23:34:19,39.3932810266372,-76.9727133727826,0,,,591.93245070037,0.328084,0,0.0270254601824,0.226862540068,19,5,16.486,591.93245070037,0,0,0.0294402240392,0,0,0,97.3, 5.2, 0,0,0,1024,1024,1024,1024,0,0,0,0,113.6,0,0,100,4.104,4.111,4.114,4.117,0,0,2.997,75.74,591.93245070037,0,10,Assisted_Takeoff,
30300,2025-09-08 23:34:19,39.3932810291185,-76.9727133769315,0,,,591.93245070037,0.328084,0,0.0274425205632,0.228341870824,19,5,16.486,591.93245070037,0,0,0.0294402240392,0,0,0,97.4, 5.2, 0,0,0,1024,1024,1024,1024,0,0,0,0,113.6,0,0,100,4.104,4.111,4.114,4.117,0,0,2.997,75.74,591.93245070037,0,10,Assisted_Takeoff,
30400,2025-09-08 23:34:19,39.3932810684366,-76.972713320089,0,,,591.93245070037,0.328084,0,0.0067167324984,0.249851385948,19,5,16.486,591.93245070037,0,0,0.0294402240392,0,0,0,97.3, 5.2, 0,0,0,1024,1024,1024,1024,0,0,0,0,113.6,0,0,100,4.104,4.111,4.114,4.117,0,0,2.997,75.74,591.93245070037,0,10,Assisted_Takeoff,
30500,2025-09-08 23:34:19,39.3932810667242,-76.9727133180756,0,,,591.93245070037,0.328084,0,0.0063058072884,0.25069554608,19,5,16.486,591.93245070037,0,0,0.0294402240392,0,0,0,97.3, 5.2, 0,0,0,1024,1024,1024,1024,0,0,0,0,113.6,0,0,100,4.104,4.111,4.114,4.117,0,0,2.997,75.74,591.93245070037,0,10,Assisted_Takeoff,
30600,2025-09-08 23:34:19,39.3932810485543,-76.9727133453647,0,,,591.93245070037,0.328084,0,0.0161133207256,0.260851714384,19,5,16.486,591.93245070037,0,0,0.0294402240392,0,0,0,97.4, 5.2, 0,0,0,1024,1024,1024,1024,0,0,0,0,113.6,0,0,100,4.104,4.111,4.114,4.117,0,0,2.997,75.74,591.93245070037,0,10,Assisted_Takeoff,
30700,2025-09-08 23:34:19,39.3932810484365,-76.9727133451887,0,,,591.93245070037,0.328084,0,0.0160935700688,0.260917331184,19,5,16.486,591.93245070037,0,0,0.0294402240392,0,0,0,97.3, 5.2, 0,0,0,1024,1024,1024,1024,0,0,0,0,113.6,0,0,100,4.104,4.111,4.114,4.117,0,0,2.997,75.74,591.93245070037,0,10,Assisted_Takeoff,
30800,2025-09-08 23:34:19,39.3932810757594,-76.9727133084573,0,,,591.93245070037,0.328084,0,0.0036633203272,0.275292331644,19,5,16.486,591.93245070037,0,0,0.0294402240392,0,0,0,97.3, 5.2, 0,0,0,1024,1024,1024,1024,0,0,0,0,113.6,0,0,100,4.104,4.111,4.114,4.117,0,0,2.997,75.74,591.93245070037,0,10,Assisted_Takeoff,
30900,2025-09-08 23:34:19,39.3932810739924,-76.9727133088328,0,,,591.93245070037,0.328084,0,0.0035500001136,0.275945546888,19,5,16.486,591.93245070037,0,0,0.0294402240392,0,0,0,97.4, 5.2, 0,0,0,1024,1024,1024,1024,0,0,0,0,113.6,0,0,100,4.104,4.111,4.114,4.117,0,0,2.997,75.74,591.93245070037,0,10,Assisted_Takeoff,
31000,2025-09-08 23:34:19,39.3932810316619,-76.9727133609499,0,,,591.93245070037,0.328084,0,0.023268373448,0.29726378904,18,5,16.502,591.93245070037,0,0,0.0294402240392,0,0,0,97.3, 5.2, 0,0,0,1024,1024,1024,1024,0,0,0,0,113.6,0,0,100,4.125,4.127,4.127,4.125,0,0,1.672,75.74,591.93245070037,0,10,Assisted_Takeoff,
31100,2025-09-08 23:34:20,39.3932810310279,-76.9727133611079,0,,,591.93245070037,0.328084,0,0.023448491564,0.297499353352,18,5,16.502,591.93245070037,0,0,0.0294402240392,0,0,0,97.3, 5.2, 0,0,0,1024,1024,1024,1024,0,0,0,0,113.6,0,0,100,4.125,4.127,4.127,4.125,0,0,1.672,75.74,591.93245070037,0,10,Assisted_Takeoff,
31200,2025-09-08 23:34:20,39.3932810574267,-76.9727132848473,0,,,591.93245070037,0.328084,0,0.0061495080708,0.321060377728,18,5,16.502,591.93245070037,0,0,0.0294402240392,0,0,0,97.3, 5.2, 0,0,0,1024,1024,1024,1024,0,0,0,0,113.6,0,0,100,4.125,4.127,4.127,4.125,0,0,1.672,75.74,591.93245070037,0,10,Assisted_Takeoff,
31300,2025-09-08 23:34:20,39.3932810549882,-76.9727132795413,0,,,591.93245070037,0.328084,0,0.007745407072,0.322800863348,18,5,16.502,591.93245070037,0,0,0.0294402240392,0,0,0,97.4, 5.2, 0,0,0,1024,1024,1024,1024,0,0,0,0,113.6,0,0,100,4.125,4.127,4.127,4.125,0,0,1.672,75.74,591.93245070037,0,10,Assisted_Takeoff,
31400,2025-09-08 23:34:20,39.3932810048455,-76.972713360785,0,,,591.93245070037,0.328084,0,0.0303427503148,0.352116153,18,5,16.502,591.93245070037,0,0,0.0303427503148,0,0,0,97.3, 5.2, 0,0,0,1024,1024,1024,1024,0,0,0,0,113.6,0,0,100,4.125,4.127,4.127,4.125,0,0,1.672,75.74,591.93245070037,0,10,Assisted_Takeoff,
31500,2025-09-08 23:34:20,39.3932810053242,-76.9727133557618,0,,,591.93245070037,0.328084,0,0.0293762476592,0.3535433184,18,5,16.502,591.93245070037,0,0,0.0303427503148,0,0,0,97.3, 5.2, 0,0,0,1024,1024,1024,1024,0,0,0,0,113.6,0,0,100,4.125,4.127,4.127,4.125,0,0,1.672,75.74,591.93245070037,0,10,Assisted_Takeoff,
31600,2025-09-08 23:34:20,39.3932810205138,-76.9727132601425,0,,,591.93245070037,0.328084,0,0.0212929468756,0.381069566,18,5,16.502,591.93245070037,0,0,0.0303427503148,0,0,0,97.4, 5.2, 0,0,0,1024,1024,1024,1024,0,0,0,0,113.6,0,0,100,4.125,4.127,4.127,4.125,0,0,1.672,75.74,591.93245070037,0,10,Assisted_Takeoff,
31700,2025-09-08 23:34:20,39.3932810215205,-76.9727132583106,0,,,591.93245070037,0.328084,0,0.0212302172148,0.38170276812,18,5,16.502,591.93245070037,0,0,0.0303427503148,0,0,0,97.3, 5.2, 0,0,0,1024,1024,1024,1024,0,0,0,0,113.6,0,0,100,4.125,4.127,4.127,4.125,0,0,1.672,75.74,591.93245070037,0,10,Assisted_Takeoff,
31800,2025-09-08 23:34:20,39.3932810073857,-76.9727133572875,0,,,591.93245070037,0.328084,0,0.0290117135268,0.41008203412,18,5,16.502,591.93245070037,0,0,0.0303427503148,0,0,0,97.3, 5.2, 0,0,0,1024,1024,1024,1024,0,0,0,0,113.6,0,0,100,4.125,4.127,4.127,4.125,0,0,1.672,75.74,591.93245070037,0,10,Assisted_Takeoff,
31900,2025-09-08 23:34:20,39.3932810080903,-76.9727133563036,0,,,591.93245070037,0.328084,0,0.028640584906,0.41045933072,18,5,16.502,591.93245070037,0,0,0.0303427503148,0,0,0,97.3, 5.2, 0,0,0,1024,1024,1024,1024,0,0,0,0,113.6,0,0,100,4.125,4.127,4.127,4.125,0,0,1.672,75.74,591.93245070037,0,10,Assisted_Takeoff,
32000,2025-09-08 23:34:20,39.3932810479224,-76.9727132835946,0,,,591.93245070037,0.328084,0,0.0093918638176,0.43559056512,18,5,16.502,591.93245070037,0,0,0.0303427503148,0,0,0,97.4, 5.2, 0,0,0,1024,1024,1024,1024,0,0,0,0,113.6,0,0,100,4.124,4.126,4.126,4.125,0,0,1.659,75.74,591.93245070037,0,10,Assisted_Takeoff,
32100,2025-09-08 23:34:21,39.3932810459199,-76.9727132803727,0,,,591.93245070037,0.328084,0,0.0104341538772,0.43675526332,18,5,16.502,591.93245070037,0,0,0.0303427503148,0,0,0,97.4, 5.2, 0,0,0,1024,1024,1024,1024,0,0,0,0,113.6,0,0,100,4.124,4.126,4.126,4.125,0,0,1.659,75.74,591.93245070037,0,10,Assisted_Takeoff,
32200,2025-09-08 23:34:21,39.3932810194354,-76.9727133658776,0,,,591.93245070037,0.328084,0,0.0272706373556,0.4627296736,18,5,16.502,591.93245070037,0,0,0.0303427503148,0,0,0,97.4, 5.2, 0,0,0,1024,1024,1149,1024,0,0,19,0,113.6,0,0,100,4.124,4.126,4.126,4.125,0,0,1.659,75.74,591.93245070037,0,10,Assisted_Takeoff,
32300,2025-09-08 23:34:21,39.3932810187426,-76.9727133634484,0,,,591.93245070037,0.328084,0,0.026964731834,0.46345802008,18,5,16.502,591.93245070037,0,0,0.0303427503148,0,0,0,97.4, 5.2, 0,0,0,1024,1024,1150,1024,0,0,19,0,113.6,0,0,100,4.124,4.126,4.126,4.125,0,0,1.659,75.74,591.93245070037,0,10,Assisted_Takeoff,
32400,2025-09-08 23:34:21,39.3932810416448,-76.9727132739735,0,,,591.93245070037,0.328084,0,0.0126624675968,0.49003610492,18,5,16.502,591.93245070037,0,0,0.0303427503148,0,0,0,97.4, 5.2, 0,0,0,1024,1024,1162,1024,0,0,21,0,113.6,0,0,100,4.124,4.126,4.126,4.125,0,0,1.659,75.74,591.93245070037,0,10,Assisted_Takeoff,
32500,2025-09-08 23:34:21,39.3932810426451,-76.9727132733582,0,,,591.93245070037,0.328084,0,0.0124393376684,0.49043964824,18,5,16.502,591.93245070037,0,0,0.0303427503148,0,0,0,97.3, 5.2, 0,0,0,1024,1024,1262,1024,0,0,36,0,113.6,0,0,100,4.124,4.126,4.126,4.125,0,0,1.659,75.74,591.93245070037,0,10,Assisted_Takeoff,
32600,2025-09-08 23:34:21,39.3932810312924,-76.972713355705,0,,,591.93245070037,0.328084,0,0.0222240164592,0.51402232616,18,5,16.502,591.93245070037,0,0,0.0303427503148,0,0,0,97.4, 5.2, 0,0,0,1024,1024,1273,1024,0,0,38,0,113.6,0,0,100,4.124,4.126,4.126,4.125,0,0,1.659,75.74,591.93245070037,0,10,Assisted_Takeoff,
32700,2025-09-08 23:34:21,39.3932810327082,-76.9727133576242,0,,,591.93245070037,0.328084,0,0.022300197564,0.51477035768,18,5,16.502,591.93245070037,0,0,0.0303427503148,0,0,0,97.4, 5.2, 0,0,0,1024,1024,1298,1024,0,0,42,0,113.6,0,0,100,4.124,4.126,4.126,4.125,0,0,1.659,75.74,591.93245070037,0,10,Assisted_Takeoff,
32800,2025-09-08 23:34:21,39.3932810778648,-76.9727132912161,0,,,591.93245070037,0.328084,0,0.00274381242376,0.53971130336,18,5,16.502,591.93245070037,0,0,0.0303427503148,0,0,0,97.4, 5.2, 0,0,0,1024,1024,1298,1024,0,0,42,0,113.6,0,0,100,4.124,4.126,4.126,4.125,0,0,1.659,75.74,591.93245070037,0,10,Assisted_Takeoff,
32900,2025-09-08 23:34:21,39.3932810768646,-76.9727132982583,0,,,591.93245070037,0.328084,0,0.00197067263524,0.5417323008,18,5,16.502,591.93245070037,0,0,0.0303427503148,0,0,0,97.1, 5.1, 0,0,0,1024,1024,1321,1024,0,0,45,0,113.6,0,0,100,4.124,4.126,4.126,4.125,0,0,1.659,75.74,591.93245070037,0,10,Assisted_Takeoff,
33000,2025-09-08 23:34:21,39.3932810437738,-76.9727134107806,0,,,591.93245070037,0.328084,0,0.033751969584,0.57567915228,18,5,16.477,591.93245070037,0,0,0.033751969584,0,0,0,97, 5, 0,0,0,1024,1024,1305,1024,0,0,43,0,113.6,0,0,100,4.124,4.126,4.127,4.125,0,0,1.916,75.74,591.93245070037,0,10,Assisted_Takeoff,
33100,2025-09-08 23:34:22,39.3932810450053,-76.9727134216724,0,,,591.93245070037,0.328084,0,0.036570211144,0.57878282692,18,5,16.477,591.93245070037,0,0,0.036570211144,0,0,0,97.2, 3.5, 0,0,0,1024,1024,1306,1024,0,0,43,0,113.6,0,0,100,4.124,4.126,4.127,4.125,0,0,1.916,75.74,591.93245070037,0,10,Assisted_Takeoff,
33200,2025-09-08 23:34:22,39.3932810971892,-76.9727133324511,0,,,591.93245070037,0.328084,0,0.0137520673692,0.61033138436,18,5,16.477,591.93245070037,0,0,0.036570211144,0,0,0,97.4, -0.1, 0,0,0,1024,1024,1306,1024,0,0,43,0,113.6,0,0,100,4.124,4.126,4.127,4.125,0,0,1.916,75.74,591.93245070037,0,10,Assisted_Takeoff,
33300,2025-09-08 23:34:22,39.3932810978671,-76.9727133131078,0.328084,,,592.26053470037,0.328084,0,0.0106467851176,0.61579070212,18,5,16.477,592.26053470037,0.328084,0,0.036570211144,0,0,0,97.1, -5, -0.1,0,0,1024,1024,1318,1024,0,0,45,0,113.6,0,0,100,4.124,4.126,4.127,4.125,0,0,1.916,75.74,592.26053470037,0.328084,10,Assisted_Takeoff,
33400,2025-09-08 23:34:22,39.3932811145656,-76.9727132774447,0.328084,,,592.26053470037,0.328084,0.223694,0.0165781173284,0.62754595184,18,5,16.477,592.26053470037,0.328084,0.223694,0.036570211144,0,0.223694,-0.223694,96.5, -8.3, -0.5,0,0,1024,1024,1327,1024,0,0,46,0,113.6,0,0,100,4.124,4.126,4.127,4.125,0,0,1.916,75.74,592.26053470037,0.328084,10,Assisted_Takeoff,
33500,2025-09-08 23:34:22,39.3932811033769,-76.9727130344314,0.328084,,,592.26053470037,0.656168,0.447388,0.074830382972,0.69618768632,18,5,16.477,592.26053470037,0.328084,0.447388,0.074830382972,0,0.447388,-0.671082,96.4, -9.6, -0.8,0,0,1024,1024,1327,1024,0,0,46,0,113.6,0,0,100,4.124,4.126,4.127,4.125,0,0,1.916,75.74,592.26053470037,0.328084,10,Assisted_Takeoff,
33600,2025-09-08 23:34:22,39.3932811838667,-76.9727126016665,0.328084,,,592.26053470037,1.312336,0.671082,0.20018373344,0.82169293968,18,5,16.477,592.26053470037,0.328084,0.671082,0.20018373344,0,0.671082,-0.894776,97.1, -5.3, -0.5,0,0,1024,1024,1327,1024,0,0,46,0,113.6,0,0,100,4.124,4.126,4.127,4.125,0,0,1.916,75.74,592.26053470037,0.328084,6,P-GPS,
33700,2025-09-08 23:34:22,39.3932811644342,-76.9727121330875,0.656168,,,592.58861870037,1.312336,0.894776,0.32981300268,0.95400593604,18,5,16.477,592.58861870037,0.656168,0.894776,0.32981300268,0,0.894776,-1.565858,97.3, 0.4, 0.3,0,0,1024,1024,1303,1024,0,0,42,0,113.6,0,0,100,4.124,4.126,4.127,4.125,0,0,1.916,75.74,592.58861870037,0.656168,6,P-GPS,
33800,2025-09-08 23:34:22,39.3932809288298,-76.9727115703068,0.984252,,,592.91670270037,1.312336,0.894776,0.48953085556,1.13447182108,19,5,16.477,592.91670270037,0.984252,0.894776,0.48953085556,0,0.894776,-2.013246,97.2, 4.1, 0.6,0,0,1024,1024,1317,1024,0,0,44,0,113.6,0,0,100,4.124,4.126,4.127,4.125,0,0,1.916,75.74,592.91670270037,0.984252,6,P-GPS,"Home Point updated (Code: 123200)"
33900,2025-09-08 23:34:22,39.3932808886614,-76.9727111696201,1.312336,,,593.24478670037,1.64042,0.671082,0.60343177784,1.24839570924,19,5,16.477,593.24478670037,1.312336,0.894776,0.60343177784,0,0.671082,-2.460634,97.2, 4.6, 0.5,0,0,1024,1024,1285,1024,0,0,40,0,113.6,0,0,100,4.124,4.126,4.127,4.125,0,0,1.916,75.74,593.24478670037,1.312336,6,P-GPS,
34000,2025-09-08 23:34:22,39.3932809040813,-76.972710824476,1.64042,,,593.57287070037,1.968504,0.447388,0.69971787016,1.34587602732,19,5,16.256,593.57287070037,1.64042,0.894776,0.69971787016,0,0.447388,-2.684328,97.2, 3.5, 0.1,0,0,1024,1024,1257,1024,0,0,35,0,113.6,0,0,100,4.016,4.016,4.014,4.017,0,0,5.185,75.74,593.57287070037,1.64042,6,P-GPS,
34100,2025-09-08 23:34:22,39.3932808520377,-76.9727106056159,2.296588,,,594.22903870037,1.968504,0.223694,0.76296918452,1.41043967768,19,5,16.256,594.22903870037,2.296588,0.894776,0.76296918452,0,0.223694,-2.908022,97.2, 2.6, -0.3,0,0,1024,1024,1299,1024,0,0,42,0,113.6,0,0,100,4.016,4.016,4.014,4.017,0,0,5.185,75.74,594.22903870037,2.296588,6,P-GPS,
34200,2025-09-08 23:34:23,39.3932806714755,-76.9727105709215,2.624672,,,594.55712270037,2.624672,0,0.78227692792,1.47704072968,20,5,16.256,594.55712270037,2.624672,0.894776,0.78227692792,0,0,-2.684328,97.2, 2, -0.5,0,0,1024,1024,1286,1024,0,0,40,0,113.6,0,0,100,4.016,4.016,4.014,4.017,0,0,5.185,75.74,594.55712270037,2.624672,6,P-GPS,
34300,2025-09-08 23:34:23,39.3932806364463,-76.9727104664031,2.952756,,,594.88520670037,2.952756,0,0.81364503916,1.50916343412,20,5,16.256,594.88520670037,2.952756,0.894776,0.81364503916,0,0,-2.460634,97.2, 1.4, -0.4,0,0,1024,1024,1296,1024,0,0,41,0,113.6,0,0,100,4.016,4.016,4.014,4.017,0,0,5.185,75.74,594.88520670037,2.952756,6,P-GPS,
34400,2025-09-08 23:34:23,39.3932807613411,-76.9727103525713,3.28084,,,595.21329070037,3.28084,0,0.83778545988,1.56489834404,21,5,16.256,595.21329070037,3.28084,0.894776,0.83778545988,0,0,-2.23694,97.2, 0.8, -0.3,0,0,1024,1024,1296,1024,0,0,41,0,113.6,0,0,100,4.016,4.016,4.014,4.017,0,0,5.185,75.74,595.21329070037,3.28084,6,P-GPS,
34500,2025-09-08 23:34:23,39.3932807621186,-76.9727102921564,3.608924,,,595.54137470037,3.28084,0,0.85462929244,1.58193574616,21,5,16.256,595.54137470037,3.608924,0.894776,0.85462929244,0,0,-2.23694,97.2, 0.5, -0.2,0,0,1024,1024,1290,1024,0,0,40,0,113.6,0,0,100,4.016,4.016,4.014,4.017,0,0,5.185,75.74,595.54137470037,3.608924,6,P-GPS,
34600,2025-09-08 23:34:23,39.393280689397,-76.972710379004,3.937008,,,595.86945870037,3.937008,0,0.8343832288,1.61804139036,20,5,16.256,595.86945870037,3.937008,0.894776,0.85462929244,0,0,-2.013246,97.1, 0.2, -0.1,0,0,1024,1024,1289,1024,0,0,40,0,113.6,0,0,100,4.016,4.016,4.014,4.017,0,0,5.185,75.74,595.86945870037,3.937008,6,P-GPS,
34700,2025-09-08 23:34:23,39.3932806732553,-76.9727103656054,4.265092,,,596.19754270037,4.265092,0,0.8391076384,1.62503614124,20,5,16.256,596.19754270037,4.265092,0.894776,0.85462929244,0,0,-2.013246,97.1, 0.2, 0,0,0,1024,1024,1288,1024,0,0,40,0,113.6,0,0,100,4.016,4.016,4.014,4.017,0,0,5.185,75.74,596.19754270037,4.265092,6,P-GPS,
34800,2025-09-08 23:34:23,39.3932806632788,-76.9727104039415,4.593176,,,596.52562670037,4.265092,0,0.82911091892,1.63644362192,21,5,16.256,596.52562670037,4.593176,0.894776,0.85462929244,0,0,-2.013246,97, 0, -0.1,0,0,1024,1024,1290,1024,0,0,40,0,113.6,0,0,100,4.016,4.016,4.014,4.017,0,0,5.185,75.74,596.52562670037,4.593176,6,P-GPS,"SD card speed low. Normal use may be affected. Replace SD card (Code: 10028)"
34900,2025-09-08 23:34:23,39.3932806646239,-76.9727104714236,4.92126,,,596.85371070037,4.92126,0,0.81031170572,1.65547577476,21,5,16.256,596.85371070037,4.92126,0.894776,0.85462929244,0,0,-2.013246,97, -0.2, -0.1,0,0,1024,1024,1297,1024,0,0,41,0,113.6,0,0,100,4.016,4.016,4.014,4.017,0,0,5.185,75.74,596.85371070037,4.92126,6,P-GPS,
35000,2025-09-08 23:34:23,39.3932806699934,-76.9727105564462,5.249344,,,597.18179470037,4.92126,0,0.78638782044,1.67953089364,21,5,16.15,597.18179470037,5.249344,0.894776,0.85462929244,0,0,-2.013246,97, -0.4, -0.1,0,0,1024,1024,1296,1024,0,0,41,0,113.6,0,0,100,4.044,4.042,4.039,4.038,0,0,8.29,75.92,597.18179470037,5.249344,6,P-GPS,
35100,2025-09-08 23:34:24,39.3932806272998,-76.9727106648487,5.577428,,,597.50987870037,5.249344,0,0.75955054924,1.71383535668,21,5,16.15,597.50987870037,5.577428,0.894776,0.85462929244,0,0,-2.013246,97.1, -0.6, -0.2,0,0,1024,1024,1287,1024,0,0,40,0,113.6,0,0,100,4.044,4.042,4.039,4.038,0,0,8.29,75.92,597.50987870037,5.577428,6,P-GPS,
35200,2025-09-08 23:34:24,39.3932807216964,-76.9727109112072,5.905512,,,597.83796270037,5.249344,0,0.6845964786,1.79136816756,21,5,16.15,597.83796270037,5.905512,0.894776,0.85462929244,0,0,-2.013246,97.1, -0.9, -0.3,0,0,1024,1024,1287,1024,0,0,40,0,113.6,0,0,100,4.044,4.042,4.039,4.038,0,0,8.29,75.92,597.83796270037,5.905512,6,P-GPS,
35300,2025-09-08 23:34:24,39.3932808589665,-76.9727107960035,6.233596,,,598.16604670037,5.249344,0,0.70932745052,1.85106305136,21,5,16.15,598.16604670037,6.233596,0.894776,0.85462929244,0,0,-2.23694,97.1, -1, -0.3,0,0,1024,1024,1245,1024,0,0,33,0,113.6,0,0,100,4.044,4.042,4.039,4.038,0,0,8.29,75.92,598.16604670037,6.233596,6,P-GPS,
35400,2025-09-08 23:34:24,39.3932808527863,-76.9727108887224,6.56168,,,598.49413070037,5.249344,0,0.68360566492,1.87729992884,20,5,16.15,598.49413070037,6.56168,0.894776,0.85462929244,0,0,-2.013246,97.2, -0.9, -0.2,0,0,1024,1024,1296,1024,0,0,41,0,113.6,0,0,100,4.044,4.042,4.039,4.038,0,0,8.29,75.92,598.49413070037,6.56168,6,P-GPS,
35500,2025-09-08 23:34:24,39.3932808470109,-76.972710955822,6.889764,,,598.82221470037,4.92126,0,0.6650754806,1.89633864336,20,5,16.15,598.82221470037,6.889764,0.894776,0.85462929244,0,0,-1.789552,97.2, -0.9, -0.2,0,0,1024,1024,1271,1024,0,0,37,0,113.6,0,0,100,4.044,4.042,4.039,4.038,0,0,8.29,75.92,598.82221470037,6.889764,6,P-GPS,
35600,2025-09-08 23:34:24,39.3932808496646,-76.9727106655873,7.217848,,,599.15029870037,5.249344,0,0.74625002388,1.97817591632,20,5,16.15,599.15029870037,7.217848,0.894776,0.85462929244,0,0,-1.789552,97.2, -1, -0.2,0,0,1024,1024,1239,1024,0,0,33,0,113.6,0,0,100,4.044,4.042,4.039,4.038,0,0,8.29,75.92,599.15029870037,7.217848,6,P-GPS,
35700,2025-09-08 23:34:24,39.3932808496111,-76.9727106617295,7.545932,,,599.47838270037,5.249344,0,0.74733270108,1.9792651552,20,5,16.15,599.47838270037,7.545932,0.894776,0.85462929244,0,0,-1.789552,97.3, -0.9, -0.2,0,0,1024,1024,1258,1024,0,0,35,0,113.6,0,0,100,4.044,4.042,4.039,4.038,0,0,8.29,75.92,599.47838270037,7.545932,6,P-GPS,"SD card speed low. Normal use may be affected. Replace SD card (Code: 10028). Vision sensor(s) blocked. Fly with caution (Code: 180038). Vision sensor(s) blocked. Fly with caution (Code: 720152)"
35800,2025-09-08 23:34:24,39.3932808561896,-76.9727106436332,7.874016,,,599.80646670037,5.577428,0,0.75215225504,1.98490491916,21,5,16.15,599.80646670037,7.874016,0.894776,0.85462929244,0,0,-1.789552,97.3, -0.6, -0.2,0,0,1024,1024,1248,1024,0,0,34,0,113.6,0,0,100,4.044,4.042,4.039,4.038,0,0,8.29,75.92,599.80646670037,7.874016,6,P-GPS,
35900,2025-09-08 23:34:24,39.3932808561714,-76.9727106079744,7.874016,,,599.80646670037,5.905512,0,0.76215225536,1.99495741292,21,5,16.17,599.80646670037,7.874016,0.894776,0.85462929244,0,0,-1.565858,97.3, -0.4, -0.1,0,0,1024,1024,1248,1024,0,0,34,0,113.6,0,0,100,4.03,4.031,4.031,4.032,0,0,8.411,75.74,599.80646670037,7.874016,6,P-GPS,
36000,2025-09-08 23:34:24,39.3932808513459,-76.9727105789476,8.2021,,,600.13455070037,5.905512,0,0.77047574644,2.0033301166,21,5,16.17,600.13455070037,8.2021,0.894776,0.85462929244,0,0,-1.565858,97.3, -0.4, -0.2,0,0,1024,1024,1232,1024,0,0,32,0,113.6,0,0,100,4.03,4.031,4.031,4.032,0,0,8.411,75.74,600.13455070037,8.2021,6,P-GPS,
36100,2025-09-08 23:34:25,39.3932808291794,-76.9727105119269,8.530184,,,600.46263470037,5.577428,0,0.79013453972,2.0238845792,21,5,16.17,600.46263470037,8.530184,0.894776,0.85462929244,0,0,-1.342164,97.3, -0.3, -0.1,0,0,1024,1024,1212,1024,0,0,28,0,113.6,0,0,100,4.03,4.031,4.031,4.032,0,0,8.411,75.74,600.46263470037,8.530184,6,P-GPS,
36200,2025-09-08 23:34:25,39.3932806171787,-76.9727104167608,8.858268,,,600.79071870037,5.577428,0,0.8287565882,2.10575466056,21,5,16.17,600.79071870037,8.858268,0.894776,0.85462929244,0,0,-1.342164,97.3, 0, -0.2,0,0,1024,1024,1329,1024,0,0,46,0,113.6,0,0,100,4.03,4.031,4.031,4.032,0,0,8.411,75.74,600.79071870037,8.858268,6,P-GPS,
36300,2025-09-08 23:34:25,39.3932805792839,-76.9727103660017,8.858268,,,600.79071870037,5.577428,0,0.84561354412,2.125656236,21,5,16.17,600.79071870037,8.858268,0.894776,0.85462929244,0,0,-1.11847,97.3, 0, -0.4,0,0,1024,1024,1396,1024,0,0,56,0,113.6,0,0,100,4.03,4.031,4.031,4.032,0,0,8.411,75.74,600.79071870037,8.858268,6,P-GPS,
36400,2025-09-08 23:34:25,39.3932806346451,-76.9727105098248,9.186352,,,601.11880270037,5.905512,0,0.8017716792,2.17095807472,21,5,16.17,601.11880270037,9.186352,0.894776,0.85462929244,0,0,-1.565858,97.2, -0.6, -0.4,0,0,1024,1024,1390,1024,0,0,55,0,113.6,0,0,100,4.03,4.031,4.031,4.032,0,0,8.411,75.74,601.11880270037,9.186352,6,P-GPS,
36500,2025-09-08 23:34:25,39.3932806147317,-76.9727104848263,9.514436,,,601.44688670037,5.249344,0,0.81014438288,2.18108274696,21,5,16.17,601.44688670037,9.514436,0.894776,0.85462929244,0,0,-2.460634,97.2, -0.7, -0.3,0,0,1024,1024,1381,1024,0,0,54,0,113.6,0,0,100,4.03,4.031,4.031,4.032,0,0,8.411,75.74,601.44688670037,9.514436,6,P-GPS,
36600,2025-09-08 23:34:25,39.3932806152393,-76.9727105378636,9.84252,,,601.77497070037,5.249344,0,0.79547902808,2.19603681568,21,5,16.17,601.77497070037,9.84252,0.894776,0.85462929244,0,0,-3.35541,97.1, -0.2, -0.3,0,0,1024,1024,1381,1024,0,0,54,0,113.6,0,0,100,4.03,4.031,4.031,4.032,0,0,8.411,75.74,601.77497070037,9.84252,6,P-GPS,
36700,2025-09-08 23:34:25,39.3932805927579,-76.9727105365305,10.498688,,,602.43113870037,5.577428,0,0.79760173156,2.2042487582,21,5,16.17,602.43113870037,10.498688,0.894776,0.85462929244,0,0,-3.802798,97.1, 0.3, -0.4,0,0,1024,1024,1381,1024,0,0,54,0,113.6,0,0,100,4.03,4.031,4.031,4.032,0,0,8.411,75.74,602.43113870037,10.498688,6,P-GPS,
36800,2025-09-08 23:34:25,39.3932805331848,-76.9727107021012,11.154856,,,603.08730670037,6.233596,0,0.757463935,2.25574482284,20,5,16.17,603.08730670037,11.154856,0.894776,0.85462929244,0,0,-4.026492,97.1, 0.4, -0.5,0,0,1024,1024,1381,1024,0,0,54,0,113.6,0,0,100,4.033,4.034,4.036,4.038,0,0,8.411,75.74,603.08730670037,11.154856,6,P-GPS,
36900,2025-09-08 23:34:25,39.3932805534548,-76.9727107691648,11.811024,,,603.74347470037,5.905512,0,0.737286769,2.27604666076,20,5,16.17,603.74347470037,11.811024,0.894776,0.85462929244,0,0,-4.026492,97.1, 0.1, -0.4,0,0,1024,1024,1386,1024,0,0,55,0,113.6,0,0,100,4.033,4.034,4.036,4.038,0,0,8.411,75.74,603.74347470037,11.811024,6,P-GPS,
37000,2025-09-08 23:34:25,39.3932804239231,-76.9727108864567,12.139108,,,604.07155870037,5.905512,0,0.71948165032,2.33373038964,21,5,16.17,604.07155870037,12.139108,0.894776,0.85462929244,0,0,-4.026492,97.1, -0.4, -0.4,0,0,1024,1024,1392,1024,0,0,56,0,113.6,0,0,100,4.033,4.034,4.036,4.038,0,0,8.411,75.74,604.07155870037,12.139108,6,P-GPS,
37100,2025-09-08 23:34:25,39.3932804414109,-76.9727110388201,13.12336,,,605.05581070037,6.233596,0,0.67685697704,2.37716214956,21,5,16.17,605.05581070037,13.12336,0.894776,0.85462929244,0,0,-4.026492,97.1, -1.2, -0.3,0,0,1024,1024,1407,1024,0,0,58,0,113.6,0,0,100,4.033,4.034,4.036,4.038,0,0,8.411,75.74,605.05581070037,13.12336,6,P-GPS,
37200,2025-09-08 23:34:26,39.3932806579522,-76.9727108778043,13.451444,,,605.38389470037,6.233596,0,0.6985072402,2.46828091888,21,5,16.17,605.38389470037,13.451444,0.894776,0.85462929244,0,0,-4.026492,97.1, -1.5, -0.2,0,0,1024,1024,1411,1024,0,0,59,0,113.6,0,0,100,4.033,4.034,4.036,4.038,0,0,8.411,75.74,605.38389470037,13.451444,6,P-GPS,
37300,2025-09-08 23:34:26,39.3932807011865,-76.9727109505147,14.107612,,,606.04006270037,6.56168,0,0.67517062528,2.49414706144,21,5,16.17,606.04006270037,14.107612,0.894776,0.85462929244,0,0,-4.250186,97.1, -1.5, 0,0,0,1024,1024,1414,1024,0,0,59,0,113.6,0,0,100,4.033,4.034,4.036,4.038,0,0,8.411,75.74,606.04006270037,14.107612,6,P-GPS,
37400,2025-09-08 23:34:26,39.3932807252186,-76.9727108714008,14.76378,,,606.69623070037,6.889764,0,0.69539372304,2.51811687848,21,5,16.17,606.69623070037,14.76378,0.894776,0.85462929244,0,0,-4.250186,97.1, -1.2, 0,0,0,1024,1024,1427,1024,0,0,61,0,113.6,0,0,100,4.033,4.034,4.036,4.038,0,0,8.411,75.74,606.69623070037,14.76378,6,P-GPS,
37500,2025-09-08 23:34:26,39.3932807530845,-76.972710823585,15.748032,,,607.68048270037,7.545932,0,0.70691275228,2.53500336196,21,5,16.17,607.68048270037,15.748032,0.894776,0.85462929244,0,0,-4.47388,97.2, -0.8, 0,0,0,1024,1024,1427,1024,0,0,61,0,113.6,0,0,100,4.033,4.034,4.036,4.038,0,0,8.411,75.74,607.68048270037,15.748032,6,P-GPS,
37600,2025-09-08 23:34:26,39.3932807383703,-76.97271077537,16.4042,,,608.33665070037,8.2021,0,0.721210653,2.54961950416,21,5,16.17,608.33665070037,16.4042,0.894776,0.85462929244,0,0,-4.47388,97.2, -0.6, 0,0,0,1024,1024,1459,1024,0,0,66,0,113.6,0,0,100,4.033,4.034,4.036,4.038,0,0,8.411,75.74,608.33665070037,16.4042,6,P-GPS,
37700,2025-09-08 23:34:26,39.3932807550699,-76.9727107272493,17.060368,,,608.99281870037,8.858268,0,0.73360566652,2.56449155188,21,5,16.17,608.99281870037,17.060368,0.894776,0.85462929244,0,0,-4.697574,97.2, -0.5, 0,0,0,1024,1024,1476,1024,0,0,68,0,113.6,0,0,100,4.033,4.034,4.036,4.038,0,0,8.411,75.74,608.99281870037,17.060368,6,P-GPS,
37800,2025-09-08 23:34:26,39.3932806836987,-76.9727108350283,18.04462,,,609.97707070037,1.64042,0,0.7083497602,2.6045112382,21,5,16.141,609.97707070037,18.04462,0.894776,0.85462929244,0,0,-5.144962,97.2, -0.7, 0,0,0,1024,1024,1504,1024,0,0,73,0,113.6,0,0,100,4.009,4.009,4.008,4.008,0,0,8.051,75.74,609.97707070037,18.04462,6,P-GPS,
37900,2025-09-08 23:34:26,39.3932806765194,-76.9727108741155,18.700788,,,610.63323870037,2.624672,0,0.69809057352,2.61583997872,21,5,16.141,610.63323870037,18.700788,0.894776,0.85462929244,0,0,-5.59235,97.3, -0.9, 0,0,0,1024,1024,1525,1024,0,0,76,0,113.6,0,0,100,4.009,4.009,4.008,4.008,0,0,8.051,75.74,610.63323870037,18.700788,6,P-GPS,
38000,2025-09-08 23:34:26,39.3932806026905,-76.972710771436,19.68504,,,611.61749070037,3.28084,0,0.73226380296,2.65538394324,21,5,16.141,611.61749070037,19.68504,0.894776,0.85462929244,0,0,-6.263432,97.3, -1, -0.1,0,0,1024,1024,1540,1024,0,0,78,0,113.6,0,0,100,4.009,4.009,4.008,4.008,0,0,8.051,75.74,611.61749070037,19.68504,6,P-GPS,
38100,2025-09-08 23:34:27,39.3932805896052,-76.9727107708526,20.997376,,,612.92982670037,4.265092,0,0.73355645392,2.66016084628,21,5,16.141,612.92982670037,20.997376,0.894776,0.85462929244,0,0,-6.934514,97.3, -0.8, -0.1,0,0,1024,1024,1563,1024,0,0,82,0,113.6,0,0,100,4.009,4.009,4.008,4.008,0,0,8.051,75.74,612.92982670037,20.997376,6,P-GPS,
38200,2025-09-08 23:34:27,39.3932805493554,-76.9727107027275,21.981628,,,613.91407870037,5.249344,0,0.75578414492,2.68434063708,21,5,16.141,613.91407870037,21.981628,0.894776,0.85462929244,0,0,-7.381902,97.3, -0.5, -0.1,0,0,1024,1024,1563,1024,0,0,82,0,113.6,0,0,100,4.009,4.009,4.008,4.008,0,0,8.051,75.74,613.91407870037,21.981628,6,P-GPS,
38300,2025-09-08 23:34:27,39.3932805469266,-76.972710704317,22.96588,,,614.89833070037,6.56168,0,0.755577452,2.68533145076,21,5,16.141,614.89833070037,22.96588,0.894776,0.85462929244,0,0,-8.052984,97.3, -0.3, -0.1,0,0,1024,1024,1583,1024,0,0,85,0,113.6,0,0,100,4.009,4.009,4.008,4.008,0,0,8.051,75.74,614.89833070037,22.96588,6,P-GPS,
38400,2025-09-08 23:34:27,39.3932804939149,-76.9727107232917,24.6063,,,616.53875070037,2.624672,0,0.75556760948,2.70540034904,21,5,16.141,616.53875070037,24.6063,0.894776,0.85462929244,0,0,-8.500372,97.3, -0.4, -0.1,0,0,1024,1024,1636,1024,0,0,93,0,113.6,0,0,100,4.009,4.009,4.008,4.008,0,0,8.051,75.74,616.53875070037,24.6063,6,P-GPS,
38500,2025-09-08 23:34:27,39.3932804642532,-76.9727107724226,26.24672,,,618.17917070037,3.608924,0,0.74541997136,2.72297908976,21,5,16.141,618.17917070037,26.24672,0.894776,0.85462929244,0,0,-8.94776,97.3, -0.8, -0.2,0,0,1024,1024,1658,1024,0,0,96,0,113.6,0,0,100,4.009,4.009,4.008,4.008,0,0,8.051,75.74,618.17917070037,26.24672,6,P-GPS,
38600,2025-09-08 23:34:27,39.3932805056445,-76.97271068532,27.88714,,,619.81959070037,4.593176,0,0.76468834468,2.75181111168,21,5,16.141,619.81959070037,27.88714,0.894776,0.85462929244,0,0,-10.06623,97.3, -1.1, -0.2,0,0,1024,1024,1680,1024,0,0,99,0,113.6,0,0,100,4.009,4.009,4.008,4.008,0,0,8.051,75.74,619.81959070037,27.88714,6,P-GPS,
38700,2025-09-08 23:34:27,39.3932804470941,-76.9727107529823,29.855644,,,621.78809470037,6.233596,0,0.7525262708,2.78045284488,21,5,16.141,621.78809470037,29.855644,0.894776,0.85462929244,0,0,-10.961006,97.3, -1.1, -0.3,0,0,1024,1024,1684,1024,0,0,100,0,113.6,0,0,100,4.009,4.009,4.008,4.008,0,0,8.051,75.74,621.78809470037,29.855644,6,P-GPS,
38800,2025-09-08 23:34:27,39.3932804451933,-76.9727106635406,31.496064,,,623.42851470037,7.874016,0,0.7768044868,2.80567922364,21,5,16.034,623.42851470037,31.496064,0.894776,0.85462929244,0,0,-11.855782,97.3, -0.9, -0.4,0,0,1024,1024,1684,1024,0,0,100,0,113.6,0,0,100,3.97,3.966,3.963,3.966,0,0,9.623,75.92,623.42851470037,31.496064,6,P-GPS,
38900,2025-09-08 23:34:27,39.3932803970756,-76.9727107058704,34.44882,,,626.38127070037,2.624672,0,0.77082679632,2.82690953928,21,5,16.034,626.38127070037,34.44882,0.894776,0.85462929244,0,0,-12.526864,97.3, -0.6, -0.4,0,0,1024,1024,1684,1024,0,0,100,0,113.6,0,0,100,3.97,3.966,3.963,3.966,0,0,9.623,75.92,626.38127070037,34.44882,6,P-GPS,
39000,2025-09-08 23:34:27,39.3932804223178,-76.972710619954,36.417324,,,628.34977470037,4.265092,0,0.79101708568,2.85282489444,21,5,16.034,628.34977470037,36.417324,0.894776,0.85462929244,0,0,-12.974252,97.3, -0.5, -0.4,0,0,1024,1024,1684,1024,0,0,100,0,113.6,0,0,100,3.97,3.966,3.963,3.966,0,0,9.623,75.92,628.34977470037,36.417324,6,P-GPS,
39100,2025-09-08 23:34:27,39.3932803773389,-76.9727106119362,39.041996,,,630.97444670037,6.233596,0,0.798228372,2.8693898556,21,5,16.034,630.97444670037,39.041996,0.894776,0.85462929244,0,0,-13.197946,97.3, -0.4, -0.4,0,0,1024,1024,1684,1024,0,0,100,0,113.6,0,0,100,3.97,3.966,3.963,3.966,0,0,9.623,75.92,630.97444670037,39.041996,6,P-GPS,
39200,2025-09-08 23:34:28,39.3932803885416,-76.9727104418744,41.338584,,,633.27103470037,8.2021,0,0.8426181372,2.91751321672,21,5,16.034,633.27103470037,41.338584,0.894776,0.85462929244,0,0,-13.42164,97.3, -0.2, -0.6,0,0,1024,1024,1684,1024,0,0,100,0,113.6,0,0,100,3.97,3.966,3.963,3.966,0,0,9.623,75.92,633.27103470037,41.338584,6,P-GPS,
39300,2025-09-08 23:34:28,39.3932803980298,-76.9727104773171,43.635172,,,635.56762270037,9.514436,0,0.83205055156,2.92809064488,21,5,16.034,635.56762270037,43.635172,0.894776,0.85462929244,0,0,-13.42164,97.3, -0.4, -0.7,0,0,1024,1024,1684,1024,0,0,100,0,113.6,0,0,100,3.97,3.966,3.963,3.966,0,0,9.623,75.92,635.56762270037,43.635172,6,P-GPS,
39400,2025-09-08 23:34:28,39.3932804353603,-76.9727103639966,45.603676,,,637.53612670037,3.28084,0,0.85884517184,2.96282489796,21,5,16.034,637.53612670037,45.603676,0.894776,0.85884517184,0,0,-13.42164,97.3, -0.7, -0.6,0,0,1024,1024,1684,1024,0,0,100,0,113.6,0,0,100,3.97,3.966,3.963,3.966,0,0,9.623,75.92,637.53612670037,45.603676,6,P-GPS,
39500,2025-09-08 23:34:28,39.3932804820804,-76.9727103995335,47.900264,,,639.83271470037,4.92126,0,0.84470475144,2.9825952398,21,5,16.034,639.83271470037,47.900264,0.894776,0.85884517184,0,0,-13.42164,97.3, -1.1, -0.4,0,0,1024,1024,1684,1024,0,0,100,0,113.6,0,0,100,3.97,3.966,3.963,3.966,0,0,9.623,75.92,639.83271470037,47.900264,6,P-GPS,
39600,2025-09-08 23:34:28,39.3932804593152,-76.9727102538549,49.868768,,,641.80121870037,6.889764,0,0.88654202312,3.02450468996,21,5,16.034,641.80121870037,49.868768,0.894776,0.88654202312,0,0,-13.42164,97.3, -1.3, -0.1,0,0,1024,1024,1684,1024,0,0,100,0,113.6,0,0,100,3.97,3.966,3.963,3.966,0,0,9.623,75.92,641.80121870037,49.868768,6,P-GPS,
39700,2025-09-08 23:34:28,39.3932804997106,-76.9727102347984,52.165356,,,644.09780670037,8.858268,0,0.88816603892,3.040190386,21,5,16.034,644.09780670037,52.165356,0.894776,0.88816603892,0,0,-13.197946,97.3, -1.1, 0,0,0,1024,1024,1684,1024,0,0,100,0,113.6,0,0,100,3.97,3.966,3.963,3.966,0,0,9.623,75.92,644.09780670037,52.165356,6,P-GPS,
39800,2025-09-08 23:34:28,39.3932804280867,-76.9727100470728,54.13386,,,646.06631070037,2.624672,0,0.94584320612,3.09921925928,21,5,15.868,646.06631070037,54.13386,0.894776,0.94584320612,0,0,-13.197946,97.2, -0.9, 0.1,0,0,1024,1024,1684,1024,0,0,100,0,113.6,0,0,100,3.913,3.911,3.912,3.915,0,0,12.601,75.92,646.06631070037,54.13386,6,P-GPS,
39900,2025-09-08 23:34:28,39.3932804220908,-76.9727099962707,56.102364,,,648.03481470037,4.593176,0,0.96026249792,3.11371072956,21,5,15.868,648.03481470037,56.102364,0.894776,0.96026249792,0,0,-13.197946,97.2, -0.6, 0,0,0,1024,1024,1684,1024,0,0,100,0,113.6,0,0,100,3.913,3.911,3.912,3.915,0,0,12.601,75.92,648.03481470037,56.102364,6,P-GPS,
40000,2025-09-08 23:34:28,39.3932803761834,-76.9727098304201,57.742784,,,649.67523470037,6.56168,0,1.00972444176,3.16338264716,21,5,15.868,649.67523470037,57.742784,0.894776,1.00972444176,0,0,-13.42164,97.3, -0.5, -0.1,0,0,1024,1024,1684,1024,0,0,100,0,113.6,0,0,100,3.913,3.911,3.912,3.915,0,0,12.601,75.92,649.67523470037,57.742784,6,P-GPS,
40100,2025-09-08 23:34:29,39.3932803755495,-76.9727098096162,59.711288,,,651.64373870037,8.858268,0,1.01545935008,3.16925206992,21,5,15.868,651.64373870037,59.711288,0.894776,1.01545935008,0,0,-13.42164,97.2, -0.7, -0.4,0,0,1024,1024,1684,1024,0,0,100,0,113.6,0,0,100,3.913,3.911,3.912,3.915,0,0,12.601,75.92,651.64373870037,59.711288,6,P-GPS,
40200,2025-09-08 23:34:29,39.3932803279244,-76.9727096893726,61.679792,,,653.61224270037,3.608924,0,1.05266735652,3.207349184,21,5,15.868,653.61224270037,61.679792,0.894776,1.05266735652,0,0,-13.42164,97.3, -0.7, -0.6,0,0,1024,1024,1684,1024,0,0,100,0,113.6,0,0,100,3.913,3.911,3.912,3.915,0,0,12.601,75.92,653.61224270037,61.679792,6,P-GPS,
40300,2025-09-08 23:34:29,39.393280326226,-76.9727096884068,63.648296,,,655.58074670037,4.265092,0,1.05309058488,3.20802831788,21,5,15.868,655.58074670037,63.648296,0.894776,1.05309058488,0,0,-13.42164,97.3, -1, -0.7,0,0,1024,1024,1684,1024,0,0,100,0,113.6,0,0,100,3.913,3.911,3.912,3.915,0,0,12.601,75.92,655.58074670037,63.648296,6,P-GPS,
40400,2025-09-08 23:34:29,39.3932802400025,-76.9727094429324,65.6168,,,657.54925070037,6.233596,0,1.1281496424,3.2840552232,21,5,15.868,657.54925070037,65.6168,0.894776,1.1281496424,0,0,-13.42164,97.2, -1.3, -0.4,0,0,1024,1024,1684,1024,0,0,100,0,113.6,0,0,100,3.913,3.911,3.912,3.915,0,0,12.601,75.92,657.54925070037,65.6168,6,P-GPS,
40500,2025-09-08 23:34:29,39.393280220269,-76.972709333758,67.25722,,,659.18967070037,8.2021,0,1.15973428908,3.3156825208,21,5,15.868,659.18967070037,67.25722,0.894776,1.15973428908,0,0,-13.42164,97.2, -1, -0.3,0,0,1024,1024,1684,1024,0,0,100,0,113.6,0,0,100,3.913,3.911,3.912,3.915,0,0,12.601,75.92,659.18967070037,67.25722,6,P-GPS,
40600,2025-09-08 23:34:29,39.393280014622,-76.9727092998826,69.225724,,,661.15817470037,9.514436,0,1.1910761536,3.3913058828,21,5,15.868,661.15817470037,69.225724,0.894776,1.1910761536,0,0,-13.42164,97.2, -0.8, -0.7,0,0,1024,1024,1684,1024,0,0,100,0,113.6,0,0,100,3.913,3.911,3.912,3.915,0,0,12.601,75.92,661.15817470037,69.225724,6,P-GPS,
40700,2025-09-08 23:34:29,39.3932799401505,-76.9727092281823,70.866144,,,662.79859470037,4.265092,0,1.21915030148,3.4251641516,21,5,15.868,662.79859470037,70.866144,0.894776,1.21915030148,0,0,-13.197946,97.2, -0.5, -1,0,0,1024,1024,1684,1024,0,0,100,0,113.6,0,0,100,3.913,3.911,3.912,3.915,0,0,12.601,75.92,662.79859470037,70.866144,6,P-GPS,
40800,2025-09-08 23:34:29,39.3932800731006,-76.972709351681,72.834648,,,664.76709870037,5.577428,0,1.17044951252,3.4848754396,21,5,15.774,664.76709870037,72.834648,0.894776,1.21915030148,0,0,-13.197946,97.2, -0.4, -1.1,0,0,1024,1024,1684,1024,0,0,100,0,113.6,0,0,99,3.961,3.961,3.962,3.962,0,0,15.74,76.1,664.76709870037,72.834648,6,P-GPS,
40900,2025-09-08 23:34:29,39.3932800665992,-76.9727093044582,74.475068,,,666.40751870037,7.545932,0,1.18384518224,3.4983925004,21,5,15.774,666.40751870037,74.475068,0.894776,1.21915030148,0,0,-13.197946,97.2, -0.6, -0.9,0,0,1024,1024,1684,1024,0,0,100,0,113.6,0,0,99,3.961,3.961,3.962,3.962,0,0,15.74,76.1,666.40751870037,74.475068,6,P-GPS,
41000,2025-09-08 23:34:29,39.3932801044533,-76.9727095099697,76.771656,,,668.70410670037,9.514436,0,1.12448166328,3.5579725548,21,5,15.774,668.70410670037,76.771656,0.894776,1.21915030148,0,0,-13.197946,97.2, -0.9, -0.8,0,0,1024,1024,1684,1024,0,0,100,0,113.6,0,0,99,3.961,3.961,3.962,3.962,0,0,15.74,76.1,668.70410670037,76.771656,6,P-GPS,
41100,2025-09-08 23:34:29,39.39328010682,-76.972709539918,78.412076,,,670.34452670037,3.28084,0,1.11619426144,3.5664699304,21,5,15.774,670.34452670037,78.412076,0.894776,1.21915030148,0,0,-13.197946,97.1, -1.2, -0.8,0,0,1024,1024,1684,1024,0,0,100,0,113.6,0,0,99,3.961,3.961,3.962,3.962,0,0,15.74,76.1,670.34452670037,78.412076,6,P-GPS,
41200,2025-09-08 23:34:30,39.3932801100456,-76.9727096709356,80.708664,,,672.64111470037,4.265092,0,1.08081696372,3.6034121888,21,5,15.774,672.64111470037,80.708664,0.894776,1.21915030148,0,0,-13.197946,97.2, -1.4, -0.7,0,0,1024,1024,1684,1024,0,0,100,0,113.6,-0.3,0,99,3.961,3.961,3.962,3.962,0,0,15.74,76.1,672.64111470037,80.708664,6,P-GPS,
41300,2025-09-08 23:34:30,39.3932801270611,-76.9727097303042,82.349084,,,674.28153470037,6.233596,0,1.06296919412,3.6212927668,21,5,15.774,674.28153470037,82.349084,0.894776,1.21915030148,0,0,-13.42164,97.2, -1.6, -0.7,0,0,1024,1024,1684,1024,0,0,100,0,113.6,-0.8,0,99,3.961,3.961,3.962,3.962,0,0,15.74,76.1,674.28153470037,82.349084,6,P-GPS,
41400,2025-09-08 23:34:30,39.3932801197244,-76.9727098670781,84.317588,,,676.25003870037,8.2021,0,1.02746394364,3.659941062,21,5,15.774,676.25003870037,84.317588,0.894776,1.21915030148,0,0,-13.197946,97.1, -1.7, -0.7,0,0,1024,1024,1684,1024,0,0,100,0,113.6,-1.5,0,99,3.961,3.961,3.962,3.962,0,0,15.74,76.1,676.25003870037,84.317588,6,P-GPS,
41500,2025-09-08 23:34:30,39.3932801419691,-76.9727099290159,86.614176,,,678.54662670037,9.514436,0,1.00828743384,3.6791995928,21,5,15.774,678.54662670037,86.614176,0.894776,1.21915030148,0,0,-13.42164,97.2, -1.8, -0.8,0,0,1024,1024,1684,1024,0,0,100,0,113.6,-2.5,0,99,3.961,3.961,3.962,3.962,0,0,15.74,76.1,678.54662670037,86.614176,6,P-GPS,
41600,2025-09-08 23:34:30,39.3932801030087,-76.9727100487745,88.254596,,,680.18704670037,4.92126,0,0.98158139624,3.7158137672,21,5,15.774,680.18704670037,88.254596,0.894776,1.21915030148,0,0,-13.42164,97.2, -1.9, -0.8,0,0,1024,1024,1684,1024,0,0,100,0,113.6,-3.5,0,99,3.961,3.961,3.962,3.962,0,0,15.74,76.1,680.18704670037,88.254596,6,P-GPS,
41700,2025-09-08 23:34:30,39.3932801116369,-76.9727101237783,90.551184,,,682.48363470037,6.889764,0,0.9607283772,3.737204844,21,5,15.774,682.48363470037,90.551184,0.894776,1.21915030148,0,0,-13.42164,97.1, -1.9, -0.8,0,0,1024,1024,1684,1024,0,0,100,0,113.6,-4.5,0,99,3.961,3.961,3.962,3.962,0,0,15.74,76.1,682.48363470037,90.551184,6,P-GPS,
41800,2025-09-08 23:34:30,39.3932800463292,-76.9727102205366,92.191604,,,684.12405470037,9.186352,0,0.94456039768,3.7734253176,21,5,15.846,684.12405470037,92.191604,0.894776,1.21915030148,0,0,-13.42164,97.1, -2, -0.8,0,0,1024,1024,1684,1024,0,0,100,0,113.6,-5.5,0,99,3.959,3.959,3.958,3.958,0,0,12.691,76.28,684.12405470037,92.191604,6,P-GPS,
41900,2025-09-08 23:34:30,39.3932800429387,-76.9727102988647,94.488192,,,686.42064270037,2.952756,0,0.92482286424,3.7955381792,21,5,15.846,686.42064270037,94.488192,0.894776,1.21915030148,0,0,-13.42164,97.1, -2.1, -0.9,0,0,1024,1024,1684,1024,0,0,100,0,113.6,-6.5,0,99,3.959,3.959,3.958,3.958,0,0,12.691,76.28,686.42064270037,94.488192,6,P-GPS,
42000,2025-09-08 23:34:30,39.3932799218039,-76.9727103552429,96.128612,,,688.06106270037,4.265092,0,0.92940947856,3.842519808,21,5,15.846,688.06106270037,96.128612,0.894776,1.21915030148,0,0,-13.42164,97.1, -2.1, -1,0,0,1024,1024,1684,1024,0,0,100,0,113.6,-7.3,0,99,3.959,3.959,3.958,3.958,0,0,12.691,76.28,688.06106270037,96.128612,6,P-GPS,
42100,2025-09-08 23:34:31,39.3932798545717,-76.9727104126037,98.4252,,,690.35765070037,4.593176,0,0.926509216,3.8719161344,21,5,15.846,690.35765070037,98.4252,0.894776,1.21915030148,0,0,-13.42164,97.1, -2.1, -1.3,0,0,1024,1024,1684,1024,0,0,100,0,113.6,-7.8,0,99,3.959,3.959,3.958,3.958,0,0,12.691,76.28,690.35765070037,98.4252,6,P-GPS,
42200,2025-09-08 23:34:31,39.3932799812495,-76.9727104044279,100.393704,,,692.32615470037,6.56168,0,0.90733926788,3.9181759784,21,5,15.846,692.32615470037,100.393704,0.894776,1.21915030148,0,0,-13.197946,97.1, -2, -1.5,0,0,1024,1024,1684,1024,0,0,100,0,113.6,-8.1,0,99,3.959,3.959,3.958,3.958,0,0,12.691,76.28,692.32615470037,100.393704,6,P-GPS,
42300,2025-09-08 23:34:31,39.3932799469197,-76.9727104017784,102.362208,,,694.29465870037,8.530184,0,0.91356958304,3.9307087872,21,5,15.846,694.29465870037,102.362208,0.894776,1.21915030148,0,0,-13.197946,97.1, -1.8, -1.4,0,0,1024,1024,1684,1024,0,0,100,0,113.6,-8.1,0,99,3.959,3.959,3.958,3.958,0,0,12.691,76.28,694.29465870037,102.362208,6,P-GPS,
42400,2025-09-08 23:34:31,39.3932799771994,-76.972710469848,104.002628,,,695.93507870037,9.514436,0,0.89146000228,3.9528544572,21,5,15.846,695.93507870037,104.002628,0.894776,1.21915030148,0,0,-13.197946,97.2, -1.7, -1.2,0,0,1024,1024,1684,1024,0,0,100,0,113.6,-8.1,0,99,3.959,3.959,3.958,3.958,0,0,12.691,76.28,695.93507870037,104.002628,6,P-GPS,
42500,2025-09-08 23:34:31,39.3932799249255,-76.9727104595036,106.299216,,,698.23166670037,3.28084,0,0.90274609188,3.9721786048,21,5,15.846,698.23166670037,106.299216,0.894776,1.21915030148,0,0,-13.197946,97.2, -1.6, -1.2,0,0,1024,1024,1684,1024,0,0,100,0,113.6,-8.1,0,99,3.959,3.959,3.958,3.958,0,0,12.691,76.28,698.23166670037,106.299216,6,P-GPS,
42600,2025-09-08 23:34:31,39.393279974278,-76.9727104644575,108.26772,,,700.20017070037,4.265092,0,0.89329727268,3.9902232248,21,5,15.846,700.20017070037,108.26772,0.894776,1.21915030148,0,0,-13.197946,97.2, -1.5, -1.4,0,0,1024,1024,1684,1024,0,0,100,0,113.6,-8.1,0,99,3.959,3.959,3.958,3.958,0,0,12.691,76.28,700.20017070037,108.26772,6,P-GPS,
42700,2025-09-08 23:34:31,39.3932798755699,-76.9727104058081,109.90814,,,701.84059070037,6.233596,0,0.92455055452,4.029855772,21,5,15.846,701.84059070037,109.90814,0.894776,1.21915030148,0,0,-13.197946,97.3, -1.5, -1.5,0,0,1024,1024,1684,1024,0,0,100,0,113.6,-8.1,0,99,3.959,3.959,3.958,3.958,0,0,12.691,76.28,701.84059070037,109.90814,6,P-GPS,
42800,2025-09-08 23:34:31,39.393279985546,-76.9727105206058,112.204728,,,704.13717870037,8.2021,0,0.87730645852,4.0813977684,21,5,15.83,704.13717870037,112.204728,0.894776,1.21915030148,0,0,-13.42164,97.3, -1.6, -1.6,0,0,1024,1024,1684,1024,0,0,100,0,113.6,-8.5,0,99,3.958,3.957,3.958,3.958,0,0,12.728,76.46,704.13717870037,112.204728,6,P-GPS,
42900,2025-09-08 23:34:31,39.3932799528321,-76.9727104863659,113.517064,,,705.44951470037,9.514436,0,0.89133533036,4.0967520996,21,5,15.83,705.44951470037,113.517064,0.894776,1.21915030148,0,0,-13.42164,97.3, -1.7, -1.6,0,0,1024,1024,1684,1024,0,0,100,0,113.6,-9,0,99,3.958,3.957,3.958,3.958,0,0,12.728,76.46,705.44951470037,113.517064,6,P-GPS,
43000,2025-09-08 23:34:31,39.3932802032278,-76.9727106464532,115.813652,,,707.74610270037,3.937008,0,0.8116306034,4.19865499,21,5,15.83,707.74610270037,115.813652,0.894776,1.21915030148,0,0,-13.42164,97.4, -1.8, -1.5,0,0,1024,1024,1684,1024,0,0,100,0,113.6,-9.3,0,99,3.958,3.957,3.958,3.958,0,0,12.728,76.46,707.74610270037,115.813652,6,P-GPS,
43100,2025-09-08 23:34:31,39.3932801798607,-76.9727105651555,117.782156,,,709.71460670037,5.249344,0,0.83606629972,4.223097248,21,5,15.83,709.71460670037,117.782156,0.894776,1.21915030148,0,0,-13.42164,97.4, -1.7, -1.4,0,0,1024,1024,1684,1024,0,0,100,0,113.6,-10.3,0,99,3.958,3.957,3.958,3.958,0,0,12.728,76.46,709.71460670037,117.782156,6,P-GPS,
43200,2025-09-08 23:34:32,39.3932803939454,-76.9727106395745,119.75066,,,711.68311070037,7.217848,0,0.78892390976,4.3040027624,21,5,15.83,711.68311070037,119.75066,0.894776,1.21915030148,0,0,-13.42164,97.4, -1.4, -1.2,0,0,1024,1024,1684,1024,0,0,100,0,113.6,-10.9,0,99,3.958,3.957,3.958,3.958,0,0,12.728,76.46,711.68311070037,119.75066,6,P-GPS,
43300,2025-09-08 23:34:32,39.3932804179014,-76.9727105423963,121.719164,,,713.65161470037,9.186352,0,0.81237863492,4.3327429208,21,5,15.83,713.65161470037,121.719164,0.894776,1.21915030148,0,0,-13.42164,97.4, -1.3, -1.1,0,0,1024,1024,1684,1024,0,0,100,0,113.6,-11.6,0,99,3.958,3.957,3.958,3.958,0,0,12.728,76.46,713.65161470037,121.719164,6,P-GPS,
43400,2025-09-08 23:34:32,39.3932806098045,-76.9727109206093,123.687668,,,715.62011870037,3.28084,0,0.69080054704,4.4603347884,21,5,15.83,715.62011870037,123.687668,0.894776,1.21915030148,0,0,-13.42164,97.3, -1.4, -1.1,0,0,1024,1024,1684,1024,0,0,100,0,113.6,-12.3,0,99,3.958,3.957,3.958,3.958,0,0,12.728,76.46,715.62011870037,123.687668,6,P-GPS,
43500,2025-09-08 23:34:32,39.3932805731315,-76.972710892971,125.656172,,,717.58862270037,4.265092,0,0.70170934004,4.4758203532,21,5,15.83,717.58862270037,125.656172,0.894776,1.21915030148,0,0,-13.42164,97.3, -1.6, -1.2,0,0,1024,1024,1684,1024,0,0,100,0,113.6,-13,0,99,3.958,3.957,3.958,3.958,0,0,12.728,76.46,717.58862270037,125.656172,6,P-GPS,
43600,2025-09-08 23:34:32,39.3932807574837,-76.9727111436959,127.624676,,,719.55712670037,6.233596,0,0.61776248696,4.5733925348,21,5,15.83,719.55712670037,127.624676,0.894776,1.21915030148,0,0,-13.197946,97.3, -1.9, -1.3,0,0,1024,1024,1684,1024,0,0,100,0,113.6,-13.7,0,99,3.958,3.957,3.958,3.958,0,0,12.728,76.46,719.55712670037,127.624676,6,P-GPS,
43700,2025-09-08 23:34:32,39.3932807926564,-76.9727112524477,129.59318,,,721.52563070037,8.2021,0,0.58528873264,4.606627444,21,5,15.83,721.52563070037,129.59318,0.894776,1.21915030148,0,0,-13.197946,97.3, -2, -1.2,0,0,1024,1024,1684,1024,0,0,100,0,113.6,-14.4,0,99,3.958,3.957,3.958,3.958,0,0,12.728,76.46,721.52563070037,129.59318,6,P-GPS,
43800,2025-09-08 23:34:32,39.3932811081381,-76.9727114491612,131.889768,,,723.82221870037,9.186352,0,0.521079413,4.7343833536,21,5,15.826,723.82221870037,131.889768,0.894776,1.21915030148,0,0,-13.197946,97.3, -2.2, -1,0,0,1024,1024,1684,1024,0,0,100,0,113.6,-15,0,99,3.952,3.952,3.953,3.952,0,0,12.643,76.46,723.82221870037,131.889768,6,P-GPS,
43900,2025-09-08 23:34:32,39.3932812203427,-76.9727116158265,133.858272,,,725.79072270037,3.937008,0,0.47701117012,4.7967193136,21,5,15.826,725.79072270037,133.858272,0.894776,1.21915030148,0,0,-13.197946,97.3, -2.5, -0.8,0,0,1024,1024,1684,1024,0,0,100,0,113.6,-15.7,0,99,3.952,3.952,3.953,3.952,0,0,12.643,76.46,725.79072270037,133.858272,6,P-GPS,
44000,2025-09-08 23:34:32,39.3932816282939,-76.9727117436293,135.826776,,,727.75922670037,5.249344,0.223694,0.48269030416,4.9498689248,21,5,15.826,727.75922670037,135.826776,0.894776,1.21915030148,0.223694,0,-13.197946,97.3, -2.8, -0.4,0,0,1024,1024,1684,1024,0,0,100,0,113.6,-16.4,0,99,3.952,3.952,3.953,3.952,0,0,12.643,76.46,727.75922670037,135.826776,6,P-GPS,
44100,2025-09-08 23:34:33,39.3932819612972,-76.9727118482072,137.467196,,,729.39964670037,7.217848,0.223694,0.52167980672,5.0748689288,21,5,15.826,729.39964670037,137.467196,0.894776,1.21915030148,0.223694,0,-13.42164,97.3, -3.2, 0.3,0,0,1024,1024,1684,1024,0,0,100,0,113.6,-17,0,99,3.952,3.952,3.953,3.952,0,0,12.643,76.46,729.39964670037,137.467196,6,P-GPS,
44200,2025-09-08 23:34:33,39.3932819334216,-76.9727115626369,139.4357,,,731.36815070037,9.186352,0.223694,0.58129266952,5.1560369104,21,5,15.826,731.36815070037,139.4357,0.894776,1.21915030148,0.223694,0,-13.42164,97.3, -3.3, 0.8,0,0,1024,1024,1684,1024,0,0,100,0,113.6,-17.4,0,99,3.952,3.952,3.953,3.952,0,0,12.643,76.46,731.36815070037,139.4357,6,P-GPS,
44300,2025-09-08 23:34:33,39.3932822404122,-76.9727115267854,141.404204,,,733.33665470037,3.608924,0,0.65640750132,5.2685041056,21,5,15.826,733.33665470037,141.404204,0.894776,1.21915030148,0,0,-13.42164,97.3, -2.9, 1.2,0,0,1024,1024,1684,1024,0,0,100,0,113.6,-17.6,0,99,3.952,3.952,3.953,3.952,0,0,12.643,76.46,733.33665470037,141.404204,6,P-GPS,
44400,2025-09-08 23:34:33,39.3932819622438,-76.9727114429808,143.372708,,,735.30515870037,4.92126,0,0.61542980972,5.372703584,21,5,15.826,735.30515870037,143.372708,0.894776,1.21915030148,0,0,-13.42164,97.3, -2.6, 1.5,0,0,1024,1024,1684,1024,0,0,100,0,113.6,-17.7,0,99,3.952,3.952,3.953,3.952,0,0,12.643,76.46,735.30515870037,143.372708,6,P-GPS,
44500,2025-09-08 23:34:33,39.3932821416918,-76.9727113021814,145.013128,,,736.94557870037,6.889764,0,0.68458991692,5.4492783896,21,5,15.826,736.94557870037,145.013128,0.894776,1.21915030148,0,0,-13.42164,97.4, -2.3, 1.5,0,0,1024,1024,1684,1024,0,0,100,0,113.6,-17.7,0,99,3.952,3.952,3.953,3.952,0,0,12.643,76.46,736.94557870037,145.013128,6,P-GPS,
44600,2025-09-08 23:34:33,39.393281794194,-76.9727113586469,147.309716,,,739.24216670037,8.858268,0,0.60670277532,5.5770671076,21,5,15.826,739.24216670037,147.309716,0.894776,1.21915030148,0,0,-13.42164,97.4, -2.1, 1.2,0,0,1024,1024,1684,1024,0,0,100,0,113.6,-17.7,0,99,3.952,3.952,3.953,3.952,0,0,12.643,76.46,739.24216670037,147.309716,6,P-GPS,
44700,2025-09-08 23:34:33,39.393281743897,-76.9727114445412,148.950136,,,740.88258670037,3.608924,0,0.57694555652,5.607447686,21,5,15.826,740.88258670037,148.950136,0.894776,1.21915030148,0,0,-13.42164,97.3, -2.2, 0.7,0,0,1024,1024,1684,1024,0,0,100,0,113.6,-17.7,0,99,3.952,3.952,3.953,3.952,0,0,12.643,76.46,740.88258670037,148.950136,6,P-GPS,
44800,2025-09-08 23:34:33,39.3932813703757,-76.9727121270568,150.91864,,,742.85109070037,5.249344,0,0.34731956492,5.8432416568,21,5,15.802,742.85109070037,150.91864,0.894776,1.21915030148,0,0,-13.197946,97.3, -2.8, 0,0,0,1024,1024,1684,1024,0,0,100,0,113.6,-17.7,0,99,3.948,3.947,3.948,3.948,0,0,12.665,76.64,742.85109070037,150.91864,6,P-GPS,"SD card speed low. Normal use may be affected. Replace SD card (Code: 10028). Ambient light too low. Vision system and obstacle sensing unavailable. Fly with caution (Code: 180037). Vision sensor(s) blocked. Fly with caution (Code: 180038). Ambient l"
44900,2025-09-08 23:34:33,39.3932811502566,-76.9727125998872,152.55906,,,744.49151070037,7.217848,0,0.198535439424,5.9988847064,21,5,15.802,744.49151070037,152.55906,0.894776,1.21915030148,0,0,-13.197946,97.3, -4.1, -1.1,0,0,1024,1024,1684,1024,0,0,100,0,113.6,-17.7,0,99,3.948,3.947,3.948,3.948,0,0,12.665,76.64,744.49151070037,152.55906,6,P-GPS,
45000,2025-09-08 23:34:33,39.3932810798599,-76.9727116586884,154.855648,,,746.78809870037,9.186352,0,0.46184056596,6.2655185732,21,5,15.802,746.78809870037,154.855648,0.894776,1.21915030148,0,0,-13.197946,97.4, -4.6, -2.1,0,0,1024,1024,1684,1024,0,0,100,0,113.6,-17.7,0,99,3.948,3.947,3.948,3.948,0,0,12.665,76.64,746.78809870037,154.855648,6,P-GPS,
45100,2025-09-08 23:34:33,39.3932808137531,-76.9727116001374,156.824152,,,748.75660270037,3.28084,0,0.48750329644,6.3639765816,21,5,15.802,748.75660270037,156.824152,0.894776,1.21915030148,0,0,-13.197946,97.4, -4, -2.4,0,0,1024,1024,1684,1024,0,0,100,0,113.6,-17.7,0,99,3.948,3.947,3.948,3.948,0,0,12.665,76.64,748.75660270037,156.824152,6,P-GPS,
45200,2025-09-08 23:34:34,39.393281042146,-76.9727114341066,158.792656,,,750.72510670037,4.265092,0,0.525262484,6.4595802592,21,5,15.802,750.72510670037,158.792656,0.894776,1.21915030148,0,0,-13.197946,97.4, -3.4, -2.3,0,0,1024,1024,1684,1024,0,0,100,0,113.6,-17.7,0,99,3.948,3.947,3.948,3.948,0,0,12.665,76.64,750.72510670037,158.792656,6,P-GPS,
45300,2025-09-08 23:34:34,39.3932810165108,-76.9727115280505,160.433076,,,752.36552670037,5.905512,0,0.49906825744,6.4876642496,21,5,15.802,752.36552670037,160.433076,0.894776,1.21915030148,0,0,-13.197946,97.4, -3.1, -1.9,0,0,1024,1024,1684,1024,0,0,100,0,113.6,-17.7,0,99,3.948,3.947,3.948,3.948,0,0,12.665,76.64,752.36552670037,160.433076,6,P-GPS,
