time(millisecond),datetime(utc),latitude,longitude,height_above_takeoff(feet),height_above_ground_at_drone_location(feet),ground_elevation_at_drone_location(feet),altitude_above_seaLevel(feet),height_sonar(feet),speed(mph),distance(feet),mileage(feet),satellites,gpslevel,voltage(v),max_altitude(feet),max_ascent(feet),max_speed(mph),max_distance(feet), xSpeed(mph), ySpeed(mph), zSpeed(mph), compass_heading(degrees), pitch(degrees), roll(degrees),isPhoto,isVideo,rc_elevator,rc_aileron,rc_throttle,rc_rudder,rc_elevator(percent),rc_aileron(percent),rc_throttle(percent),rc_rudder(percent),gimbal_heading(degrees),gimbal_pitch(degrees),gimbal_roll(degrees),battery_percent,voltageCell1,voltageCell2,voltageCell3,voltageCell4,voltageCell5,voltageCell6,current(A),battery_temperature(f),altitude(feet),ascent(feet),flycStateRaw,flycState,message
0,2025-09-09 00:33:48,39.393252770594,-76.9726705007718,0,Available with any HD 360 subscription,Available with any HD 360 subscription,592.18075648259,0,0,0,0,21,2,0,592.18075648259,0,0,0,0,0,0,110.6, 4.9, 0,0,0,364,364,364,1684,-100,-100,-100,100,66,-45.4,0,72,3.912,3.909,3.907,3.903,0,0,0,83.48,592.18075648259,0,6,P-GPS,"Setting new Return-To-Home altitude to 65m (213 ft). Data Recorder File Index is 70. Setting new Maximum Flight Altitude to 120m (394 ft). SD card speed low SD card speed low. Normal use may be affected. Replace SD card (Code: 10028). Aircraft not in flight. Vision systems and obstacle avoidance disabled (Code: 180059). Satellite positioning signal weak. Hovering unstable. Fly with caution (Code: 30002)."
100,2025-09-09 00:33:48,39.3932521574944,-76.9726703782071,0,,,592.18075648259,0,0,0.226342855012,0.226342855012,21,2,0,592.18075648259,0,0,0.226342855012,0,0,0,110.6, 4.9, 0,0,0,364,364,364,1684,-100,-100,-100,100,66,-45.4,0,72,3.912,3.909,3.907,3.903,0,0,0,83.48,592.18075648259,0,41,Motors_Started,
200,2025-09-09 00:33:48,39.3932521767668,-76.972670374837,0,,,592.18075648259,0,0,0.219547907288,0.23343832768,21,2,0,592.18075648259,0,0,0.226342855012,0,0,0,110.6, 4.9, 0,0,0,364,364,364,1684,-100,-100,-100,100,66,-45.4,0,72,3.912,3.909,3.907,3.903,0,0,0,83.48,592.18075648259,0,41,Motors_Started,
300,2025-09-09 00:33:48,39.3932518464042,-76.9726703590619,0,,,592.18075648259,0.328084,0,0.3395505358,0.3540518486,21,5,0,592.18075648259,0,0,0.3395505358,0,0,0,110.6, 4.9, 0,0,0,364,364,364,1684,-100,-100,-100,100,66,-45.4,0,72,3.912,3.909,3.907,3.903,0,0,0,83.48,592.18075648259,0,41,Motors_Started,"SD card speed low. Normal use may be affected. Replace SD card (Code: 10028). Aircraft not in flight. Vision systems and obstacle avoidance disabled (Code: 180059). Remote ID functionality normal (Code: 30331)"
400,2025-09-09 00:33:48,39.3932518431144,-76.9726703391074,0,,,592.18075648259,0.328084,0,0.34144686132,0.35980644196,21,5,0,592.18075648259,0,0,0.34144686132,0,0,0,110.6, 4.9, 0,0,0,415,490,364,1684,-92,-81,-100,100,66.1,-45.4,0,72,3.912,3.909,3.907,3.903,0,0,0,83.48,592.18075648259,0,41,Motors_Started,
500,2025-09-09 00:33:48,39.3932513296958,-76.9726702509309,0,,,592.18075648259,0.328084,0,0.53041012196,0.5487697026,21,5,0,592.18075648259,0,0,0.53041012196,0,0,0,110.6, 4.9, 0.1,0,0,1024,1024,1024,1024,0,0,0,0,66,-45.4,0,72,3.912,3.909,3.907,3.903,0,0,0,83.48,592.18075648259,0,41,Motors_Started,
600,2025-09-09 00:33:48,39.3932513265377,-76.9726702532146,0,,,592.18075648259,0.328084,0,0.53146655244,0.55008860028,21,5,0,592.18075648259,0,0,0.53146655244,0,0,0,110.6, 4.9, 0,0,0,1024,1024,1024,1024,0,0,0,0,65.8,-45.4,0,72,3.912,3.909,3.907,3.903,0,0,0,83.48,592.18075648259,0,41,Motors_Started,
700,2025-09-09 00:33:49,39.3932511281213,-76.9726702760402,0,,,592.18075648259,0.328084,0,0.60259516364,0.62276576796,21,5,0,592.18075648259,0,0,0.60259516364,0,0,0,110.4, 4.9, 0,0,0,1024,1024,1024,1024,0,0,0,0,65.6,-45.4,0,72,3.912,3.909,3.907,3.903,0,0,0,83.48,592.18075648259,0,41,Motors_Started,
800,2025-09-09 00:33:49,39.3932511040635,-76.9726702787008,0,,,592.18075648259,0.328084,0,0.61124673872,0.63157482336,21,5,0,592.18075648259,0,0,0.61124673872,0,0,0,110.3, 4.9, 0,0,0,1024,1024,1024,1024,0,0,0,0,65.3,-45.4,0,72,3.912,3.909,3.907,3.903,0,0,0,83.48,592.18075648259,0,41,Motors_Started,
900,2025-09-09 00:33:49,39.3932508596883,-76.9726703055728,0,,,592.18075648259,0.328084,0,0.6993602586,0.72105645352,21,5,0,592.18075648259,0,0,0.6993602586,0,0,0,110.4, 4.9, 0,0,0,1024,1024,1024,1024,0,0,0,0,64.9,-45.4,0,72,3.912,3.909,3.907,3.903,0,0,0,83.48,592.18075648259,0,41,Motors_Started,
1000,2025-09-09 00:33:49,39.3932508681591,-76.9726703157496,0,,,592.18075648259,0.328084,0,0.69605973356,0.72527561376,21,5,0,592.18075648259,0,0,0.6993602586,0,0,0,110.3, 4.9, 0,0,0,1024,1024,1024,1024,0,0,0,0,64.7,-45.4,0,72,3.912,3.909,3.907,3.903,0,0,0,83.48,592.18075648259,0,41,Motors_Started,
1100,2025-09-09 00:33:49,39.3932507337076,-76.972670173042,0,,,592.18075648259,0.328084,0,0.74888125756,0.78872049768,21,5,0,592.18075648259,0,0,0.74888125756,0,0,0,110.3, 4.9, 0,0,0,1024,1024,1024,1024,0,0,0,0,64.6,-45.4,0,72,3.912,3.909,3.907,3.903,0,0,0,83.48,592.18075648259,0,41,Motors_Started,
1200,2025-09-09 00:33:49,39.3932507650742,-76.9726701568235,0,,,592.18075648259,0.328084,0,0.73811025984,0.80104333272,21,5,0,592.18075648259,0,0,0.74888125756,0,0,0,110.4, 4.9, 0,0,0,1024,1024,1037,1024,0,0,2,0,64.5,-45.4,0,72,3.912,3.909,3.907,3.903,0,0,0,83.48,592.18075648259,0,41,Motors_Started,
1300,2025-09-09 00:33:49,39.3932506475022,-76.9726703613234,0,,,592.18075648259,0.328084,0,0.7756069802,0.87291013292,21,5,15.717,592.18075648259,0,0,0.7756069802,0,0,0,110.4, 4.9, 0,0,0,1024,1024,1051,1024,0,0,4,0,64.5,-45.4,0,72,3.912,3.909,3.907,3.903,0,0,0.837,83.48,592.18075648259,0,41,Motors_Started,
1400,2025-09-09 00:33:49,39.3932506242005,-76.9726703964765,0,,,592.18075648259,0.328084,0,0.7836614424,0.88597115696,21,5,15.717,592.18075648259,0,0,0.7836614424,0,0,0,110.4, 4.9, 0,0,0,1024,1024,1079,1024,0,0,8,0,64.4,-45.4,0,72,3.912,3.909,3.907,3.903,0,0,0.837,83.48,592.18075648259,0,41,Motors_Started,
1500,2025-09-09 00:33:49,39.3932505214893,-76.9726705866978,0,,,592.18075648259,0.328084,0,0.82094162732,0.95139766824,21,5,15.717,592.18075648259,0,0,0.82094162732,0,0,0,110.4, 4.9, 0,0,0,1024,1024,1079,1024,0,0,8,0,64.4,-45.4,0,72,3.912,3.909,3.907,3.903,0,0,0.837,83.48,592.18075648259,0,41,Motors_Started,
1600,2025-09-09 00:33:50,39.3932504761174,-76.9726705958547,0,,,592.18075648259,0.328084,0,0.83756892444,0.96815291812,21,5,15.717,592.18075648259,0,0,0.83756892444,0,0,0,110.4, 4.9, 0,0,0,1024,1024,1078,1024,0,0,8,0,64.4,-45.4,0,72,3.912,3.909,3.907,3.903,0,0,0.837,83.48,592.18075648259,0,41,Motors_Started,"SD card speed low. Normal use may be affected. Replace SD card (Code: 10028). Remote ID functionality normal (Code: 30331)"
1700,2025-09-09 00:33:50,39.3932504110399,-76.9726708991624,0,,,592.18075648259,0.328084,0,0.86817916164,1.05690948264,21,5,15.717,592.18075648259,0,0,0.86817916164,0,0,0,110.4, 4.9, 0,0,0,1024,1024,1082,1024,0,0,9,0,64.4,-45.4,0,72,3.912,3.909,3.907,3.903,0,0,0.837,83.48,592.18075648259,0,10,Assisted_Takeoff,
1800,2025-09-09 00:33:50,39.3932503877157,-76.9726709160905,0,,,592.18075648259,0.328084,0,0.87724412256,1.0666667008,21,5,15.717,592.18075648259,0,0,0.87724412256,0,0,0,110.4, 4.9, 0,0,0,1024,1024,1111,1024,0,0,13,0,64.3,-45.4,0,72,3.912,3.909,3.907,3.903,0,0,0.837,83.48,592.18075648259,0,10,Assisted_Takeoff,
1900,2025-09-09 00:33:50,39.3932503462343,-76.9726710760587,0,,,592.18075648259,0.328084,0,0.89927496316,1.11424216164,21,5,15.717,592.18075648259,0,0,0.89927496316,0,0,0,110.4, 4.9, 0,0,0,1024,1024,1176,1024,0,0,23,0,64.3,-45.4,0,72,3.912,3.909,3.907,3.903,0,0,0.837,83.48,592.18075648259,0,10,Assisted_Takeoff,"SD card speed low. Normal use may be affected. Replace SD card (Code: 10028). Ambient light too low. Vision system and obstacle sensing unavailable. Fly with caution (Code: 180037). Remote ID functionality normal (Code: 30331). Ambient light too low."
2000,2025-09-09 00:33:50,39.3932503439737,-76.9726710723339,0,,,592.18075648259,0.328084,0,0.89989832276,1.11557746352,21,5,15.717,592.18075648259,0,0,0.89989832276,0,0,0,110.4, 4.9, 0,0,0,1024,1024,1235,1024,0,0,32,0,64.3,-45.4,0,72,3.912,3.909,3.907,3.903,0,0,0.837,83.48,592.18075648259,0,10,Assisted_Takeoff,
2100,2025-09-09 00:33:50,39.3932502364938,-76.9726714802362,0,,,592.18075648259,0.328084,0,0.96493113324,1.2370899346,21,5,15.717,592.18075648259,0,0,0.96493113324,0,0,0,110.3, 5, 0,0,0,1024,1024,1271,1024,0,0,37,0,64.3,-45.4,0,72,3.912,3.909,3.907,3.903,0,0,0.837,83.48,592.18075648259,0,10,Assisted_Takeoff,
2200,2025-09-09 00:33:50,39.3932502378592,-76.972671492874,0,,,592.18075648259,0.328084,0,0.96547903352,1.24068573524,21,5,15.717,592.18075648259,0,0,0.96547903352,0,0,0,110.1, 5, 0,0,0,1024,1024,1271,1024,0,0,37,0,64.3,-45.4,0,72,3.912,3.909,3.907,3.903,0,0,0.837,83.48,592.18075648259,0,10,Assisted_Takeoff,
2300,2025-09-09 00:33:50,39.3932502363343,-76.9726716884387,0,,,592.18075648259,0.328084,0,0.98339570076,1.29583009396,21,5,15.618,592.18075648259,0,0,0.98339570076,0,0,0,110.3, 4.9, 0,0,0,1024,1024,1288,1024,0,0,40,0,64.3,-45.4,0,72,3.91,3.908,3.906,3.902,0,0,3.026,83.48,592.18075648259,0,10,Assisted_Takeoff,
2400,2025-09-09 00:33:50,39.3932502344345,-76.9726717127721,0,,,592.18075648259,0.328084,0,0.98640423104,1.30272641964,21,5,15.618,592.18075648259,0,0,0.98640423104,0,0,0,110.7, 4.8, 0,0,0,1024,1024,1296,1024,0,0,41,0,64.3,-45.4,0,72,3.91,3.908,3.906,3.902,0,0,3.026,83.48,592.18075648259,0,10,Assisted_Takeoff,
2500,2025-09-09 00:33:50,39.3932500346269,-76.9726720971503,0,,,592.18075648259,0.328084,0,1.09500659672,1.43334322172,21,5,15.618,592.18075648259,0,0,1.09500659672,0,0,0,110.6, 3.5, 0,0,0,1024,1024,1313,1024,0,0,44,0,64.3,-45.4,0,72,3.91,3.908,3.906,3.902,0,0,3.026,83.48,592.18075648259,0,10,Assisted_Takeoff,
2600,2025-09-09 00:33:50,39.3932500544525,-76.9726721196988,0,,,592.18075648259,0.328084,0,1.0910597462,1.44297248712,21,5,15.618,592.18075648259,0,0,1.09500659672,0,0,0,110.4, 0.4, 0,0,0,1024,1024,1324,1024,0,0,45,0,64.3,-45.4,0,72,3.91,3.908,3.906,3.902,0,0,3.026,83.48,592.18075648259,0,10,Assisted_Takeoff,
2700,2025-09-09 00:33:51,39.3932498994204,-76.9726724287379,0,,,592.18075648259,0.328084,0,1.18019688816,1.54685700488,21,5,15.618,592.18075648259,0,0,1.18019688816,0,0,0,109.8, -3.9, -0.1,0,0,1024,1024,1328,1024,0,0,46,0,64.3,-45.4,0,72,3.91,3.908,3.906,3.902,0,0,3.026,83.48,592.18075648259,0,10,Assisted_Takeoff,
2800,2025-09-09 00:33:51,39.3932498486929,-76.97267239813,0,,,592.18075648259,0.328084,0,1.19275922452,1.56728023388,21,5,15.618,592.18075648259,0,0,1.19275922452,0,0,-0.223694,109.4, -7.4, -0.7,0,0,1024,1024,1332,1024,0,0,47,0,64.3,-45.4,0,72,3.91,3.908,3.906,3.902,0,0,3.026,83.48,592.18075648259,0,10,Assisted_Takeoff,
2900,2025-09-09 00:33:51,39.3932497980104,-76.9726723959904,0,,,592.18075648259,0.328084,0.223694,1.20904531428,1.58578089064,21,5,15.618,592.18075648259,0,0.223694,1.20904531428,0,0.223694,-0.447388,109.6, -9.3, -0.9,0,0,1024,1024,1332,1024,0,0,47,0,64.3,-45.4,0,72,3.91,3.908,3.906,3.902,0,0,3.026,83.48,592.18075648259,0,10,Assisted_Takeoff,
3000,2025-09-09 00:33:51,39.3932497157192,-76.9726720490046,0.328084,,,592.50884048259,0.984252,0.671082,1.19700791232,1.68812013276,21,5,15.618,592.50884048259,0.328084,0.671082,1.20904531428,0,0.671082,-0.894776,110.1, -7.4, -0.7,0,0,1024,1024,1332,1024,0,0,47,0,64.3,-45.4,0,72,3.91,3.908,3.906,3.902,0,0,3.026,83.48,592.50884048259,0.328084,10,Assisted_Takeoff,
3100,2025-09-09 00:33:51,39.3932499048145,-76.972670913186,0.328084,,,592.50884048259,1.312336,0.9171454,1.05202431188,2.01572184928,21,5,15.618,592.50884048259,0.328084,0.9171454,1.20904531428,-0.223694,0.894776,-1.342164,110.6, -1.9, -0.1,0,0,1024,1024,1333,1024,0,0,47,0,64.3,-45.4,0,72,3.91,3.908,3.906,3.902,0,0,3.026,83.48,592.50884048259,0.328084,6,P-GPS,
3200,2025-09-09 00:33:51,39.3932498582218,-76.9726703856789,0.656168,,,592.83692448259,1.312336,0.9171454,1.063074181,2.16542329764,21,5,15.618,592.83692448259,0.656168,0.9171454,1.20904531428,-0.223694,0.894776,-2.013246,110.3, 2.7, 0.4,0,0,1024,1024,1332,1024,0,0,47,0,64.3,-45.4,0,72,3.91,3.908,3.906,3.902,0,0,3.026,83.48,592.83692448259,0.656168,6,P-GPS,
3300,2025-09-09 00:33:51,39.393250444452,-76.9726691240806,0.984252,,,593.16500848259,1.312336,0.9171454,0.93324806136,2.58049220856,21,5,15.627,593.16500848259,0.984252,0.9171454,1.20904531428,-0.223694,0.671082,-2.460634,110.1, 4.3, 0.3,0,0,1024,1024,1332,1024,0,0,47,0,64.3,-45.4,0,72,3.866,3.865,3.859,3.85,0,0,2.652,83.48,593.16500848259,0.984252,6,P-GPS,
3400,2025-09-09 00:33:51,39.3932505130924,-76.9726686786972,1.312336,,,593.49309248259,1.64042,0.447388,0.97073822004,2.7085466746,21,5,15.627,593.49309248259,1.312336,0.9171454,1.20904531428,0,0.447388,-2.684328,110.2, 3.7, 0.4,0,0,1024,1024,1333,1024,0,0,47,0,64.3,-45.4,0,72,3.866,3.865,3.859,3.85,0,0,2.652,83.48,593.49309248259,1.312336,6,P-GPS,
3500,2025-09-09 00:33:51,39.3932506485517,-76.9726686813578,1.968504,,,594.14926048259,1.968504,0.223694,0.92875987224,2.7579725292,20,5,15.627,594.14926048259,1.968504,0.9171454,1.20904531428,0,0.223694,-3.131716,110.3, 2.5, 0.4,0,0,1024,1024,1330,1024,0,0,46,0,64.3,-45.4,0,72,3.866,3.865,3.859,3.85,0,0,2.652,83.48,594.14926048259,1.968504,6,P-GPS,
3600,2025-09-09 00:33:51,39.3932506294929,-76.9726685503568,2.624672,,,594.80542848259,2.624672,0.223694,0.95533795708,2.79555783224,20,5,15.627,594.80542848259,2.624672,0.9171454,1.20904531428,0,0.223694,-3.131716,110.4, 1.6, 0.1,0,0,1024,1024,1325,1024,0,0,46,0,64.3,-45.4,0,72,3.866,3.865,3.859,3.85,0,0,2.652,83.48,594.80542848259,2.624672,6,P-GPS,
3700,2025-09-09 00:33:52,39.3932508412153,-76.9726688992383,2.952756,,,595.13351248259,2.952756,0,0.83632220524,2.92063329556,20,5,15.627,595.13351248259,2.952756,0.9171454,1.20904531428,0,0,-3.131716,110.4, 1, 0,0,0,1024,1024,1318,1024,0,0,45,0,64.3,-45.4,0,72,3.866,3.865,3.859,3.85,0,0,2.652,83.48,595.13351248259,2.952756,6,P-GPS,
3800,2025-09-09 00:33:52,39.3932508416608,-76.9726689655758,3.608924,,,595.78968048259,3.608924,0,0.82623362224,2.93934064524,20,5,15.627,595.78968048259,3.608924,0.9171454,1.20904531428,0,0,-3.131716,110.4, 0.5, 0,0,0,1024,1024,1318,1024,0,0,45,0,64.3,-45.4,0,72,3.866,3.865,3.859,3.85,0,0,2.652,83.48,595.78968048259,3.608924,6,P-GPS,
3900,2025-09-09 00:33:52,39.3932511547878,-76.972668944424,3.937008,,,596.11776448259,3.937008,0,0.73492128336,3.0537402552,20,5,15.627,596.11776448259,3.937008,0.9171454,1.20904531428,0,0,-2.908022,110.4, 0.2, 0,0,0,1024,1024,1314,1024,0,0,44,0,64.3,-45.4,0,72,3.866,3.865,3.859,3.85,0,0,2.652,83.48,596.11776448259,3.937008,6,P-GPS,
4000,2025-09-09 00:33:52,39.3932512209737,-76.9726690956012,4.265092,,,596.44584848259,4.593176,0,0.69038059952,3.10272975808,20,5,15.627,596.44584848259,4.265092,0.9171454,1.20904531428,0,0,-2.908022,110.4, 0, 0,0,0,1024,1024,1317,1024,0,0,44,0,64.3,-45.4,0,72,3.866,3.865,3.859,3.85,0,0,2.652,83.48,596.44584848259,4.265092,6,P-GPS,
4100,2025-09-09 00:33:52,39.393251158129,-76.9726690397731,4.92126,,,597.10201648259,4.92126,0,0.7181922802,3.13054143876,20,5,15.627,597.10201648259,4.92126,0.9171454,1.20904531428,0,0,-2.684328,110.3, -0.5, 0,0,0,1024,1024,1321,1024,0,0,45,0,64.3,-45.4,0,72,3.866,3.865,3.859,3.85,0,0,2.652,83.48,597.10201648259,4.92126,6,P-GPS,
4200,2025-09-09 00:33:52,39.3932510833041,-76.9726689382603,5.249344,,,597.43010048259,5.577428,0,0.75701117908,3.1700952458,20,5,15.627,597.43010048259,5.249344,0.9171454,1.20904531428,0,0,-2.460634,110.4, -0.1, -0.2,0,0,1024,1024,1323,1024,0,0,45,0,64.3,-45.4,0,72,3.866,3.865,3.859,3.85,0,0,2.652,83.48,597.43010048259,5.249344,6,P-GPS,
4300,2025-09-09 00:33:52,39.3932512785121,-76.972669137694,5.905512,,,598.08626848259,5.905512,0,0.66638125492,3.26083999936,21,5,15.44,598.08626848259,5.905512,0.9171454,1.20904531428,0,0,-2.460634,110.4, 0.2, -0.3,0,0,1024,1024,1317,1024,0,0,44,0,64.3,-45.4,0,72,3.839,3.84,3.839,3.844,0,0,7.054,83.48,598.08626848259,5.905512,6,P-GPS,
4400,2025-09-09 00:33:52,39.393251236279,-76.9726689994429,6.233596,,,598.41435248259,6.56168,0,0.70182745028,3.3027560112,21,5,15.44,598.41435248259,6.233596,0.9171454,1.20904531428,0,0,-2.460634,110.4, 0.4, -0.2,0,0,1024,1024,1332,1024,0,0,47,0,64.3,-45.4,0,72,3.839,3.84,3.839,3.844,0,0,7.054,83.48,598.41435248259,6.233596,6,P-GPS,
4500,2025-09-09 00:33:52,39.3932516368606,-76.9726693707177,6.56168,,,598.74243648259,6.889764,0,0.52213256264,3.4825460432,20,5,15.44,598.74243648259,6.56168,0.9171454,1.20904531428,0,0,-2.460634,110.4, 0.5, -0.2,0,0,1024,1024,1345,1024,0,0,49,0,64.3,-45.4,0,72,3.839,3.84,3.839,3.844,0,0,7.054,83.48,598.74243648259,6.56168,6,P-GPS,
4600,2025-09-09 00:33:52,39.3932516575498,-76.9726692812885,7.217848,,,599.39860448259,7.217848,0,0.53210959708,3.50885838,20,5,15.44,599.39860448259,7.217848,0.9171454,1.20904531428,0,0,-2.684328,110.4, 0.4, 0,0,0,1024,1024,1346,1024,0,0,49,0,64.3,-45.4,0,72,3.839,3.84,3.839,3.844,0,0,7.054,83.48,599.39860448259,7.217848,6,P-GPS,
4700,2025-09-09 00:33:53,39.3932520864391,-76.9726696620971,7.545932,,,599.72668848259,7.874016,0,0.34383859368,3.6986221656,20,5,15.44,599.72668848259,7.545932,0.9171454,1.20904531428,0,0,-2.684328,110.4, 0.3, 0.1,0,0,1024,1024,1348,1024,0,0,49,0,64.3,-45.4,0,72,3.839,3.84,3.839,3.844,0,0,7.054,83.48,599.72668848259,7.545932,6,P-GPS,
4800,2025-09-09 00:33:53,39.3932521111297,-76.9726696571972,8.2021,,,600.38285648259,8.2021,0,0.33832678248,3.7077429008,20,5,15.44,600.38285648259,8.2021,0.9171454,1.20904531428,0,0,-2.908022,110.4, 0, 0.2,0,0,1024,1024,1361,1024,0,0,51,0,64.3,-45.4,0,72,3.839,3.84,3.839,3.844,0,0,7.054,83.48,600.38285648259,8.2021,6,P-GPS,
4900,2025-09-09 00:33:53,39.393252379181,-76.9726700532598,8.530184,,,600.71094048259,8.858268,0,0.190565294812,3.8562009108,20,5,15.44,600.71094048259,8.530184,0.9171454,1.20904531428,0,0,-2.908022,110.4, -0.2, 0.1,0,0,1024,1024,1370,1024,0,0,52,0,64.3,-45.4,0,72,3.839,3.84,3.839,3.844,0,0,7.054,83.48,600.71094048259,8.530184,6,P-GPS,
5000,2025-09-09 00:33:53,39.3932523642574,-76.9726701639738,9.186352,,,601.36710848259,9.186352,0,0.176058404584,3.8878610168,20,5,15.44,601.36710848259,9.186352,0.9171454,1.20904531428,0,0,-3.131716,110.4, -0.4, 0,0,0,1024,1024,1404,1024,0,0,58,0,64.3,-45.4,0,72,3.839,3.84,3.839,3.844,0,0,7.054,83.48,601.36710848259,9.186352,6,P-GPS,
5100,2025-09-09 00:33:53,39.3932527507208,-76.9726703290415,9.84252,,,602.02327648259,9.84252,0,0.048960631488,4.0363518352,21,5,15.44,602.02327648259,9.84252,0.9171454,1.20904531428,0,0,-3.35541,110.4, -0.7, -0.1,0,0,1024,1024,1419,1024,0,0,60,0,64.3,-45.4,0,72,3.839,3.84,3.839,3.844,0,0,7.054,83.48,602.02327648259,9.84252,6,P-GPS,
5200,2025-09-09 00:33:53,39.3932527439361,-76.9726704145242,10.498688,,,602.67944448259,10.170604,0,0.026191109762,4.0605972428,21,5,15.44,602.67944448259,10.498688,0.9171454,1.20904531428,0,0,-3.579104,110.4, -0.9, -0.1,0,0,1024,1024,1427,1024,0,0,61,0,64.3,-45.4,0,72,3.839,3.84,3.839,3.844,0,0,7.054,83.48,602.67944448259,10.498688,6,P-GPS,
5300,2025-09-09 00:33:53,39.3932528565086,-76.9726704948297,11.154856,,,603.33561248259,10.826772,0,0.0313906178024,4.1074804464,20,5,15.386,603.33561248259,11.154856,0.9171454,1.20904531428,0,0,-4.026492,110.4, -0.9, -0.1,0,0,1024,1024,1424,1024,0,0,61,0,64.3,-45.4,0,72,3.845,3.846,3.841,3.833,0,0,10.751,83.66,603.33561248259,11.154856,6,P-GPS,
5400,2025-09-09 00:33:53,39.3932528742738,-76.9726705286415,11.811024,,,603.99178048259,11.48294,0,0.03863517184,4.1190290032,20,5,15.386,603.99178048259,11.811024,0.9171454,1.20904531428,0,0,-4.47388,110.4, -0.7, -0.1,0,0,1024,1024,1423,1024,0,0,60,0,64.3,-45.4,0,72,3.845,3.846,3.841,3.833,0,0,10.751,83.66,603.99178048259,11.811024,6,P-GPS,
5500,2025-09-09 00:33:53,39.3932531697513,-76.9726704276941,12.795276,,,604.97603248259,12.139108,0,0.147082681872,4.2305119464,20,5,15.386,604.97603248259,12.795276,0.9171454,1.20904531428,0,0,-4.697574,110.4, -0.4, -0.1,0,0,1024,1024,1419,1024,0,0,60,0,64.3,-45.4,0,72,3.845,3.846,3.841,3.833,0,0,10.751,83.66,604.97603248259,12.795276,6,P-GPS,
5600,2025-09-09 00:33:53,39.3932531755866,-76.9726704502426,13.451444,,,605.63220048259,12.467192,0,0.14844652706,4.23720486,20,5,15.386,605.63220048259,13.451444,0.9171454,1.20904531428,0,0,-4.921268,110.4, -0.2, 0,0,0,1024,1024,1417,1024,0,0,60,0,64.3,-45.4,0,72,3.845,3.846,3.841,3.833,0,0,10.751,83.66,605.63220048259,13.451444,6,P-GPS,
5700,2025-09-09 00:33:54,39.393253355772,-76.9726707481848,14.435696,,,606.61645248259,13.451444,0,0.22460958724,4.3438977768,19,5,15.386,606.61645248259,14.435696,0.9171454,1.20904531428,0,0,-4.921268,110.4, -0.2, 0,0,0,1024,1024,1421,1024,0,0,60,0,64.3,-45.4,0,72,3.845,3.846,3.841,3.833,0,0,10.751,83.66,606.61645248259,14.435696,6,P-GPS,
5800,2025-09-09 00:33:54,39.393253356361,-76.9726707859763,15.091864,,,607.27262048259,14.107612,0,0.228345151664,4.3545605068,19,5,15.386,607.27262048259,15.091864,0.9171454,1.20904531428,0,0,-4.921268,110.4, -0.4, -0.1,0,0,1024,1024,1425,1024,0,0,61,0,64.3,-45.4,0,72,3.845,3.846,3.841,3.833,0,0,10.751,83.66,607.27262048259,15.091864,6,P-GPS,
5900,2025-09-09 00:33:54,39.3932534653011,-76.9726709615534,16.076116,,,608.25687248259,14.76378,0,0.284821531424,4.4180447608,20,5,15.386,608.25687248259,16.076116,0.9171454,1.20904531428,0,0,-4.697574,110.4, -0.6, 0,0,0,1024,1024,1428,1024,0,0,61,0,64.3,-45.4,0,72,3.845,3.846,3.841,3.833,0,0,10.751,83.66,608.25687248259,16.076116,6,P-GPS,
6000,2025-09-09 00:33:54,39.3932534911778,-76.9726710152419,17.060368,,,609.24112448259,15.091864,0,0.300268382312,4.4358925304,20,5,15.386,609.24112448259,17.060368,0.9171454,1.20904531428,0,0,-4.697574,110.4, -0.9, 0,0,0,1024,1024,1430,1024,0,0,62,0,64.3,-45.4,0,72,3.845,3.846,3.841,3.833,0,0,10.751,83.66,609.24112448259,17.060368,6,P-GPS,
6100,2025-09-09 00:33:54,39.3932535855755,-76.9726712649054,17.716536,,,609.89729248259,16.076116,0,0.36719817448,4.5142389896,20,5,15.386,609.89729248259,17.716536,0.9171454,1.20904531428,0,0,-4.921268,110.4, -1, 0,0,0,1024,1024,1430,1024,0,0,62,0,64.3,-45.4,0,72,3.845,3.846,3.841,3.833,0,0,10.751,83.66,609.89729248259,17.716536,6,P-GPS,
6200,2025-09-09 00:33:54,39.3932536119454,-76.9726713171639,18.372704,,,610.55346048259,16.4042,0,0.38368767632,4.5318571004,20,5,15.386,610.55346048259,18.372704,0.9171454,1.20904531428,0,0,-4.921268,110.4, -0.9, 0.1,0,0,1024,1024,1436,1024,0,0,62,0,64.3,-45.4,0,72,3.845,3.846,3.841,3.833,0,0,10.751,83.66,610.55346048259,18.372704,6,P-GPS,
6300,2025-09-09 00:33:54,39.3932537804896,-76.9726713786458,19.356956,,,611.53771248259,16.732284,0,0.4438812478,4.5957350552,20,5,15.333,611.53771248259,19.356956,0.9171454,1.20904531428,0,0,-4.921268,110.4, -0.9, 0,0,0,1024,1024,1438,1024,0,0,63,0,64.3,-45.4,0,72,3.836,3.838,3.835,3.831,0,0,10.424,83.48,611.53771248259,19.356956,6,P-GPS,"SD card speed low. Normal use may be affected. Replace SD card (Code: 10028). Ambient light too low. Vision system and obstacle sensing unavailable. Fly with caution (Code: 180037)"
6400,2025-09-09 00:33:54,39.393253796771,-76.9726714312369,20.013124,,,612.19388048259,17.388452,0,0.4571686498,4.611712746,20,5,15.333,612.19388048259,20.013124,0.9171454,1.20904531428,0,0,-4.921268,110.4, -0.9, 0,0,0,1024,1024,1441,1024,0,0,63,0,64.3,-45.4,0,72,3.836,3.838,3.835,3.831,0,0,10.424,83.48,612.19388048259,20.013124,6,P-GPS,
6500,2025-09-09 00:33:54,39.3932539676375,-76.9726714653923,20.997376,,,613.17813248259,17.716536,0,0.51450789048,4.6748032992,21,5,15.333,613.17813248259,20.997376,0.9171454,1.20904531428,0,0,-5.144962,110.4, -1, 0,0,0,1024,1024,1452,1024,0,0,65,0,64.3,-45.4,0,72,3.836,3.838,3.835,3.831,0,0,10.424,83.48,613.17813248259,20.997376,6,P-GPS,
6600,2025-09-09 00:33:54,39.3932539797408,-76.9726715196019,21.981628,,,614.16238448259,18.700788,0,0.5264435864,4.6906825648,21,5,15.333,614.16238448259,21.981628,0.9171454,1.20904531428,0,0,-5.144962,110.4, -1, 0,0,0,1024,1024,1456,1024,0,0,65,0,64.3,-45.4,0,72,3.836,3.838,3.835,3.831,0,0,10.424,83.48,614.16238448259,21.981628,6,P-GPS,
6700,2025-09-09 00:33:55,39.3932540792965,-76.9726716328988,22.637796,,,614.81855248259,19.356956,0,0.57435369292,4.7390749548,21,5,15.333,614.81855248259,22.637796,0.9171454,1.20904531428,0,0,-5.368656,110.4, -1.1, 0,0,0,1024,1024,1459,1024,0,0,66,0,64.3,-45.4,0,72,3.836,3.838,3.835,3.831,0,0,10.424,83.48,614.81855248259,22.637796,6,P-GPS,
6800,2025-09-09 00:33:55,39.3932541022925,-76.9726716539175,23.622048,,,615.80280448259,20.341208,0,0.58462272212,4.749343984,21,5,15.333,615.80280448259,23.622048,0.9171454,1.20904531428,0,0,-5.368656,110.5, -1, 0,0,0,1024,1024,1462,1024,0,0,66,0,64.3,-45.4,0,72,3.836,3.838,3.835,3.831,0,0,10.424,83.48,615.80280448259,23.622048,6,P-GPS,
6900,2025-09-09 00:33:55,39.3932539883444,-76.9726718401813,24.278216,,,616.45897248259,7.217848,0,0.58311681656,4.8163387368,21,5,15.333,616.45897248259,24.278216,0.9171454,1.20904531428,0,0,-5.59235,110.5, -1, 0,0,0,1024,1024,1462,1024,0,0,66,0,64.3,-45.4,0,72,3.836,3.838,3.835,3.831,0,0,10.424,83.48,616.45897248259,24.278216,6,P-GPS,
7000,2025-09-09 00:33:55,39.3932540418466,-76.9726718180651,25.262468,,,617.44322448259,7.217848,0,0.59420605576,4.8368111784,21,5,15.333,617.44322448259,25.262468,0.9171454,1.20904531428,0,0,-5.59235,110.4, -0.9, 0.2,0,0,1024,1024,1464,1024,0,0,67,0,64.3,-45.4,0,72,3.836,3.838,3.835,3.831,0,0,10.424,83.48,617.44322448259,25.262468,6,P-GPS,
7100,2025-09-09 00:33:55,39.3932532715398,-76.9726724065552,26.24672,,,618.42747648259,8.530184,0,0.56758532,5.1631891416,21,5,15.333,618.42747648259,26.24672,0.9171454,1.20904531428,0,0,-5.816044,110.3, -0.9, 0.5,0,0,1024,1024,1465,1024,0,0,67,0,64.3,-45.4,0,72,3.836,3.838,3.835,3.831,0,0,10.424,83.48,618.42747648259,26.24672,6,P-GPS,
7200,2025-09-09 00:33:55,39.3932528250595,-76.9726726872811,27.230972,,,619.41172848259,9.186352,0,0.61682416672,5.3442915096,21,5,15.333,619.41172848259,27.230972,0.9171454,1.20904531428,0,0,-5.816044,110.5, -1.1, -1.4,0,0,1024,1024,1466,1024,0,0,67,0,64.3,-45.4,0,72,3.836,3.838,3.835,3.831,0,0,10.424,83.48,619.41172848259,27.230972,6,P-GPS,
7300,2025-09-09 00:33:55,39.3932533058306,-76.9726724836459,28.215224,,,620.39598048259,10.170604,0,0.59221130504,5.528871568,21,5,15.349,620.39598048259,28.215224,0.9171454,1.20904531428,0,0,-5.816044,110.5, -1.2, -2.6,0,0,1024,1024,1468,1024,0,0,67,0,64.3,-45.4,0,72,3.835,3.834,3.83,3.825,0,0,10.825,83.66,620.39598048259,28.215224,6,P-GPS,
7400,2025-09-09 00:33:55,39.3932531330419,-76.9726725709134,29.199476,,,621.38023248259,10.498688,0,0.59848755196,5.5965552972,21,5,15.349,621.38023248259,29.199476,0.9171454,1.20904531428,0,0,-5.816044,110.5, -1.1, -2.7,0,0,1024,1024,1469,1024,0,0,67,0,64.3,-45.4,0,72,3.835,3.834,3.83,3.825,0,0,10.825,83.66,621.38023248259,29.199476,6,P-GPS,
7500,2025-09-09 00:33:55,39.3932533153884,-76.972672704442,30.511812,,,622.69256848259,10.498688,0,0.6523622256,5.6729988692,20,5,15.349,622.69256848259,30.511812,0.9171454,1.20904531428,0,0,-5.816044,110.5, -0.8, -2.1,0,0,1024,1024,1469,1024,0,0,67,0,64.3,-45.4,0,72,3.835,3.834,3.83,3.825,0,0,10.825,83.66,622.69256848259,30.511812,6,P-GPS,
7600,2025-09-09 00:33:55,39.393253371963,-76.9726726282492,31.16798,,,623.34873648259,10.498688,0,0.63872705456,5.7027888964,20,5,15.349,623.34873648259,31.16798,0.9171454,1.20904531428,0,0,-5.816044,110.5, -0.5, -1.2,0,0,1024,1024,1469,1024,0,0,67,0,64.3,-45.4,0,72,3.835,3.834,3.83,3.825,0,0,10.825,83.66,623.34873648259,31.16798,6,P-GPS,
7700,2025-09-09 00:33:56,39.393253415267,-76.9726728035713,32.152232,,,624.33298848259,10.498688,0,0.6905840116,5.7546589768,20,5,15.349,624.33298848259,32.152232,0.9171454,1.20904531428,0,0,-6.039738,110.4, -0.4, -0.6,0,0,1024,1024,1469,1024,0,0,67,0,64.3,-45.4,0,72,3.835,3.834,3.83,3.825,0,0,10.825,83.66,624.33298848259,32.152232,6,P-GPS,
7800,2025-09-09 00:33:56,39.3932533893485,-76.9726727965872,33.136484,,,625.31724048259,10.498688,0,0.68556104556,5.7643374548,20,5,15.349,625.31724048259,33.136484,0.9171454,1.20904531428,0,0,-6.039738,110.5, -0.3, -0.7,0,0,1024,1024,1469,1024,0,0,67,0,64.3,-45.4,0,72,3.835,3.834,3.83,3.825,0,0,10.825,83.66,625.31724048259,33.136484,6,P-GPS,
7900,2025-09-09 00:33:56,39.3932536875638,-76.9726728352878,34.120736,,,626.30149248259,10.498688,0,0.73837928872,5.873687852,21,5,15.349,626.30149248259,34.120736,0.9171454,1.20904531428,0,0,-6.039738,110.5, -0.4, -0.8,0,0,1024,1024,1469,1024,0,0,67,0,64.3,-45.4,0,72,3.835,3.834,3.83,3.825,0,0,10.825,83.66,626.30149248259,34.120736,6,P-GPS,"Home Point updated (Code: 123200)"
8000,2025-09-09 00:33:56,39.3932537480943,-76.9726727323006,35.104988,,,627.28574448259,10.498688,0,0.7232447738,5.9101707928,21,5,15.349,627.28574448259,35.104988,0.9171454,1.20904531428,0,0,-6.039738,110.5, -0.3, -0.7,0,0,1024,1024,1469,1024,0,0,67,0,64.3,-45.4,0,72,3.835,3.834,3.83,3.825,0,0,10.825,83.66,627.28574448259,35.104988,6,P-GPS,
8100,2025-09-09 00:33:56,39.3932538872958,-76.9726730449869,36.08924,,,628.26999648259,10.498688,0,0.82499018388,6.0119096412,20,5,15.349,628.26999648259,36.08924,0.9171454,1.20904531428,0,0,-6.039738,110.4, -0.2, -0.4,0,0,1024,1024,1469,1024,0,0,67,0,64.3,-45.4,0,72,3.835,3.834,3.83,3.825,0,0,10.825,83.66,628.26999648259,36.08924,6,P-GPS,
8200,2025-09-09 00:33:56,39.3932539043108,-76.9726731176766,37.073492,,,629.25424848259,10.498688,0,0.84588913468,6.0333335264,20,5,15.349,629.25424848259,37.073492,0.9171454,1.20904531428,0,0,-6.039738,110.4, -0.6, -0.4,0,0,1024,1024,1471,1024,0,0,68,0,64.3,-45.4,0,72,3.835,3.834,3.83,3.825,0,0,10.825,83.66,629.25424848259,37.073492,6,P-GPS,
8300,2025-09-09 00:33:56,39.3932540853873,-76.9726730514832,38.057744,,,630.23850048259,10.498688,0,0.86449805916,6.1019686992,21,5,15.314,630.23850048259,38.057744,0.9171454,1.20904531428,0,0,-6.039738,110.5, -0.8, -0.5,0,0,1024,1024,1471,1024,0,0,68,0,64.3,-45.4,0,72,3.829,3.829,3.826,3.821,0,0,10.413,83.66,630.23850048259,38.057744,6,P-GPS,
8400,2025-09-09 00:33:56,39.3932541093658,-76.9726730615048,39.041996,,,631.22275248259,10.498688,0,0.87172246884,6.1111550512,21,5,15.314,631.22275248259,39.041996,0.9171454,1.20904531428,0,0,-6.039738,110.5, -0.8, -0.7,0,0,1024,1024,1472,1024,0,0,68,0,64.3,-45.4,0,72,3.829,3.829,3.826,3.821,0,0,10.413,83.66,631.22275248259,39.041996,6,P-GPS,
8500,2025-09-09 00:33:56,39.3932544202262,-76.97267292679,40.026248,,,632.20700448259,10.498688,0,0.91112535724,6.2307744776,21,5,15.314,632.20700448259,40.026248,0.9171454,1.20904531428,0,0,-6.039738,110.5, -0.7, -0.6,0,0,1024,1024,1472,1024,0,0,68,0,64.3,-45.4,0,72,3.829,3.829,3.826,3.821,0,0,10.413,83.66,632.20700448259,40.026248,6,P-GPS,
8600,2025-09-09 00:33:56,39.3932544938062,-76.9726728108657,41.338584,,,633.51934048259,10.498688,0,0.9052821812,6.2730645052,21,5,15.314,633.51934048259,41.338584,0.9171454,1.20904531428,0,0,-6.039738,110.5, -0.2, -0.2,0,0,1024,1024,1473,1024,0,0,68,0,64.3,-45.4,0,72,3.829,3.829,3.826,3.821,0,0,10.413,83.66,633.51934048259,41.338584,6,P-GPS,
8700,2025-09-09 00:33:57,39.393254760356,-76.9726727249285,42.322836,,,634.50359248259,10.498688,0,0.95932417768,6.3732941672,21,5,15.314,634.50359248259,42.322836,0.9171454,1.20904531428,0,0,-6.039738,110.5, 0.1, 0.2,0,0,1024,1024,1473,1024,0,0,68,0,64.3,-45.4,0,72,3.829,3.829,3.826,3.821,0,0,10.413,83.66,634.50359248259,42.322836,6,P-GPS,
8800,2025-09-09 00:33:57,39.3932548723154,-76.9726726586021,43.307088,,,635.48784448259,10.498688,0,0.97886486072,6.4182088668,21,5,15.314,635.48784448259,43.307088,0.9171454,1.20904531428,0,0,-6.039738,110.5, 0.1, 0.5,0,0,1024,1024,1473,1024,0,0,68,0,64.3,-45.4,0,72,3.829,3.829,3.826,3.821,0,0,10.413,83.66,635.48784448259,43.307088,6,P-GPS,
8900,2025-09-09 00:33:57,39.3932550451336,-76.9726723891616,43.963256,,,636.14401248259,10.498688,0,0.9859908452,6.5169621508,22,5,15.314,636.14401248259,43.963256,0.9171454,1.20904531428,0,0,-6.039738,110.5, 0, 0.7,0,0,1024,1024,1473,1024,0,0,68,0,64.3,-45.4,0,72,3.829,3.829,3.826,3.821,0,0,10.413,83.66,636.14401248259,43.963256,6,P-GPS,
9000,2025-09-09 00:33:57,39.3932551056668,-76.9726720746018,45.275592,,,637.45634848259,10.498688,0,0.96059058192,6.6083663532,22,5,15.314,637.45634848259,45.275592,0.9171454,1.20904531428,0,0,-6.039738,110.5, 0.3, 0.8,0,0,1024,1024,1473,1024,0,0,68,0,64.3,-45.4,0,72,3.829,3.829,3.826,3.821,0,0,10.413,83.66,637.45634848259,45.275592,6,P-GPS,
9100,2025-09-09 00:33:57,39.3932552693009,-76.9726722434386,46.259844,,,638.44060048259,10.498688,0,1.03563651608,6.6847115,22,5,15.314,638.44060048259,46.259844,0.9171454,1.20904531428,0,0,-6.039738,110.5, 0.6, 0.8,0,0,1024,1024,1473,1024,0,0,68,0,64.3,-45.4,0,72,3.829,3.829,3.826,3.821,0,0,10.413,83.66,638.44060048259,46.259844,6,P-GPS,
9200,2025-09-09 00:33:57,39.393255282662,-76.9726721561157,46.916012,,,639.09676848259,10.498688,0,1.0285269358,6.709809926,22,5,15.314,639.09676848259,46.916012,0.9171454,1.20904531428,0,0,-6.039738,110.5, 0.6, 0.6,0,0,1024,1024,1473,1024,0,0,68,0,64.3,-45.4,0,72,3.829,3.829,3.826,3.821,0,0,10.413,83.66,639.09676848259,46.916012,6,P-GPS,
9300,2025-09-09 00:33:57,39.393255502436,-76.9726723630988,47.900264,,,640.08102048259,10.498688,0,1.12657155836,6.8089897192,22,5,15.303,640.08102048259,47.900264,0.9171454,1.20904531428,0,0,-6.039738,110.5, 0.4, 0.4,0,0,1024,1024,1473,1024,0,0,68,0,64.3,-45.4,0,72,3.826,3.825,3.821,3.815,0,0,10.425,83.84,640.08102048259,47.900264,6,P-GPS,
9400,2025-09-09 00:33:57,39.3932555725939,-76.9726723858691,48.884516,,,641.06527248259,10.498688,0,1.15222772716,6.8353676728,22,5,15.303,641.06527248259,48.884516,0.9171454,1.20904531428,0,0,-6.039738,110.5, 0, 0.5,0,0,1024,1024,1473,1024,0,0,68,0,64.3,-45.4,0,72,3.826,3.825,3.821,3.815,0,0,10.425,83.84,641.06527248259,48.884516,6,P-GPS,
9500,2025-09-09 00:33:57,39.3932555329631,-76.9726723613805,50.196852,,,642.37760848259,10.498688,0,1.13621394712,6.8514109804,22,5,15.303,642.37760848259,50.196852,0.9171454,1.20904531428,0,0,-6.039738,110.4, -0.1, 0.5,0,0,1024,1024,1473,1024,0,0,68,0,64.3,-45.4,0,72,3.826,3.825,3.821,3.815,0,0,10.425,83.84,642.37760848259,50.196852,6,P-GPS,
9600,2025-09-09 00:33:57,39.3932554964271,-76.9726724029191,51.181104,,,643.36186048259,10.498688,0,1.12991801516,6.8691275164,22,5,15.303,643.36186048259,51.181104,0.9171454,1.20904531428,0,0,-6.039738,110.5, -0.2, 0,0,0,1024,1024,1473,1024,0,0,68,0,64.3,-45.4,0,72,3.826,3.825,3.821,3.815,0,0,10.425,83.84,643.36186048259,51.181104,6,P-GPS,
9700,2025-09-09 00:33:58,39.3932555620664,-76.9726721520361,51.837272,,,644.01802848259,10.498688,0,1.11984255552,6.9438322432,22,5,15.303,644.01802848259,51.837272,0.9171454,1.20904531428,0,0,-6.039738,110.5, -0.2, -0.2,0,0,1024,1024,1472,1024,0,0,68,0,64.3,-45.4,0,72,3.826,3.825,3.821,3.815,0,0,10.425,83.84,644.01802848259,51.837272,6,P-GPS,
9800,2025-09-09 00:33:58,39.3932554938447,-76.9726720826944,52.821524,,,645.00228048259,10.498688,0,1.08910108472,6.9754923492,22,5,15.303,645.00228048259,52.821524,0.9171454,1.20904531428,0,0,-6.039738,110.5, 0.1, -0.4,0,0,1024,1024,1472,1024,0,0,68,0,64.3,-45.4,0,72,3.826,3.825,3.821,3.815,0,0,10.425,83.84,645.00228048259,52.821524,6,P-GPS,
9900,2025-09-09 00:33:58,39.3932557144271,-76.9726720740031,53.805776,,,645.98653248259,10.498688,0,1.16205056212,7.0560041628,22,5,15.303,645.98653248259,53.805776,0.9171454,1.20904531428,0,0,-6.039738,110.5, 0.2, -0.3,0,0,1024,1024,1471,1024,0,0,68,0,64.3,-45.4,0,72,3.826,3.825,3.821,3.815,0,0,10.425,83.84,645.98653248259,53.805776,6,P-GPS,
10000,2025-09-09 00:33:58,39.3932557000921,-76.9726720638485,54.790028,,,646.97078448259,10.498688,0,1.15612536508,7.0619424832,22,5,15.303,646.97078448259,54.790028,0.9171454,1.20904531428,0,0,-6.039738,110.5, 0.2, -0.3,0,0,1024,1024,1471,1024,0,0,68,0,64.3,-45.4,0,72,3.826,3.825,3.821,3.815,0,0,10.425,83.84,646.97078448259,54.790028,6,P-GPS,
10100,2025-09-09 00:33:58,39.39325572888,-76.9726719808269,55.77428,,,647.95503648259,10.498688,0,1.15719491892,7.087598652,22,5,15.303,647.95503648259,55.77428,0.9171454,1.20904531428,0,0,-6.039738,110.5, 0.2, -0.1,0,0,1024,1024,1473,1024,0,0,68,0,64.3,-45.4,0,72,3.826,3.825,3.821,3.815,0,0,10.425,83.84,647.95503648259,55.77428,6,P-GPS,
10200,2025-09-09 00:33:58,39.3932557285036,-76.9726719684884,56.758532,,,648.93928848259,10.498688,0,1.15581696612,7.0911091508,22,5,15.303,648.93928848259,56.758532,0.9171454,1.20904531428,0,0,-6.039738,110.5, 0.2, -0.1,0,0,1024,1024,1472,1024,0,0,68,0,64.3,-45.4,0,72,3.826,3.825,3.821,3.815,0,0,10.425,83.84,648.93928848259,56.758532,6,P-GPS,
10300,2025-09-09 00:33:58,39.3932558241554,-76.9726720174655,57.4147,,,649.59545648259,10.498688,0,1.19334649488,7.1286419604,22,5,15.282,649.59545648259,57.4147,0.9171454,1.20904531428,0,0,-6.039738,110.5, 0, 0,0,0,1024,1024,1472,1024,0,0,68,0,64.3,-45.4,0,72,3.824,3.823,3.82,3.813,0,0,10.575,83.84,649.59545648259,57.4147,6,P-GPS,
10400,2025-09-09 00:33:58,39.3932557638203,-76.9726720402025,58.398952,,,650.57970848259,10.498688,0,1.17517392212,7.1515422236,22,5,15.282,650.57970848259,58.398952,0.9171454,1.20904531428,0,0,-6.039738,110.4, -0.1, -0.1,0,0,1024,1024,1472,1024,0,0,68,0,64.3,-45.4,0,72,3.824,3.823,3.82,3.813,0,0,10.575,83.84,650.57970848259,58.398952,6,P-GPS,
10500,2025-09-09 00:33:58,39.3932560531583,-76.9726722010354,59.383204,,,651.56396048259,10.498688,0,1.29002956884,7.2664372404,22,5,15.282,651.56396048259,59.383204,0.9171454,1.29002956884,0,0,-6.039738,110.5, -0.3, -0.4,0,0,1024,1024,1473,1024,0,0,68,0,64.3,-45.4,0,72,3.824,3.823,3.82,3.813,0,0,10.575,83.84,651.56396048259,59.383204,6,P-GPS,
10600,2025-09-09 00:33:58,39.3932560811648,-76.9726722998211,60.367456,,,652.54821248259,10.498688,0,1.31005253536,7.2961288424,22,5,15.282,652.54821248259,60.367456,0.9171454,1.31005253536,0,0,-6.039738,110.5, -0.6, -0.5,0,0,1024,1024,1473,1024,0,0,68,0,64.3,-45.4,0,72,3.824,3.823,3.82,3.813,0,0,10.575,83.84,652.54821248259,60.367456,6,P-GPS,
10700,2025-09-09 00:33:59,39.3932561485059,-76.9726721708377,61.351708,,,653.53246448259,10.498688,0,1.3193241892,7.3399936732,22,5,15.282,653.53246448259,61.351708,0.9171454,1.3193241892,0,0,-6.039738,110.4, -0.8, -0.4,0,0,1024,1024,1473,1024,0,0,68,0,64.3,-45.4,0,72,3.824,3.823,3.82,3.813,0,0,10.575,83.84,653.53246448259,61.351708,6,P-GPS,
10800,2025-09-09 00:33:59,39.3932561547937,-76.9726722100038,62.007876,,,654.18863248259,10.498688,0,1.3254429558,7.3512797628,22,5,15.282,654.18863248259,62.007876,0.9171454,1.3254429558,0,0,-6.039738,110.5, -0.7, -0.5,0,0,1024,1024,1473,1024,0,0,68,0,64.3,-45.4,0,72,3.824,3.823,3.82,3.813,0,0,10.575,83.84,654.18863248259,62.007876,6,P-GPS,
10900,2025-09-09 00:33:59,39.3932563570301,-76.9726720432289,62.992128,,,655.17288448259,10.498688,0,1.37889112024,7.4387797656,22,5,15.282,655.17288448259,62.992128,0.9171454,1.37889112024,0,0,-6.039738,110.4, -0.6, -0.5,0,0,1024,1024,1473,1024,0,0,68,0,64.3,-45.4,0,72,3.824,3.823,3.82,3.813,0,0,10.575,83.84,655.17288448259,62.992128,6,P-GPS,
11000,2025-09-09 00:33:59,39.3932563457505,-76.9726720566095,63.97638,,,656.15713648259,10.498688,0,1.37618442724,7.4443571936,22,5,15.282,656.15713648259,63.97638,0.9171454,1.37889112024,0,0,-6.039738,110.5, -0.4, -0.5,0,0,1024,1024,1473,1024,0,0,68,0,64.3,-45.4,0,72,3.824,3.823,3.82,3.813,0,0,10.575,83.84,656.15713648259,63.97638,6,P-GPS,
11100,2025-09-09 00:33:59,39.3932565788237,-76.9726719099775,64.960632,,,657.14138848259,10.498688,0,1.445127999,7.5389110024,22,5,15.282,657.14138848259,64.960632,0.9171454,1.445127999,0,0,-6.039738,110.5, -0.5, -0.5,0,0,1024,1024,1473,1024,0,0,68,0,64.3,-45.4,0,72,3.824,3.823,3.82,3.813,0,0,10.575,83.84,657.14138848259,64.960632,6,P-GPS,
11200,2025-09-09 00:33:59,39.3932566291012,-76.972671897894,65.944884,,,658.12564048259,10.498688,0,1.46185044048,7.557578982,22,5,15.282,658.12564048259,65.944884,0.9171454,1.46185044048,0,0,-6.039738,110.5, -0.4, -0.3,0,0,1024,1024,1473,1024,0,0,68,0,64.3,-45.4,0,72,3.824,3.823,3.82,3.813,0,0,10.575,83.84,658.12564048259,65.944884,6,P-GPS,
11300,2025-09-09 00:33:59,39.3932568192682,-76.9726719131148,66.601052,,,658.78180848259,10.498688,0,1.52989178124,7.6270999816,22,5,15.275,658.78180848259,66.601052,0.9171454,1.52989178124,0,0,-6.039738,110.5, -0.5, -0.2,0,0,1024,1024,1474,1024,0,0,68,0,64.3,-45.4,0,72,3.82,3.82,3.817,3.81,0,0,10.605,83.84,658.78180848259,66.601052,6,P-GPS,
11400,2025-09-09 00:33:59,39.3932568897319,-76.9726719137024,67.585304,,,659.76606048259,10.498688,0,1.5547736718,7.6527889588,22,5,15.275,659.76606048259,67.585304,0.9171454,1.5547736718,0,0,-6.039738,110.5, -0.8, 0,0,0,1024,1024,1476,1024,0,0,68,0,64.3,-45.4,0,72,3.82,3.82,3.817,3.81,0,0,10.605,83.84,659.76606048259,67.585304,6,P-GPS,
11500,2025-09-09 00:33:59,39.393256853284,-76.9726719612937,68.569556,,,660.75031248259,10.498688,0,1.54544296284,7.6716865972,22,5,15.275,660.75031248259,68.569556,0.9171454,1.5547736718,0,0,-6.039738,110.4, -0.9, 0,0,0,1024,1024,1478,1024,0,0,69,0,64.3,-45.4,0,72,3.82,3.82,3.817,3.81,0,0,10.605,83.84,660.75031248259,68.569556,6,P-GPS,
11600,2025-09-09 00:33:59,39.3932568509165,-76.9726719961475,69.553808,,,661.73456448259,10.498688,0,1.5472605482,7.6815619256,22,5,15.275,661.73456448259,69.553808,0.9171454,1.5547736718,0,0,-6.039738,110.5, -0.8, -0.2,0,0,1024,1024,1476,1024,0,0,68,0,64.3,-45.4,0,72,3.82,3.82,3.817,3.81,0,0,10.605,83.84,661.73456448259,69.553808,6,P-GPS,
11700,2025-09-09 00:34:00,39.3932570280453,-76.9726719298211,70.53806,,,662.71881648259,10.498688,0,1.60473758416,7.7488191456,22,5,15.275,662.71881648259,70.53806,0.9171454,1.60473758416,0,0,-6.039738,110.4, -0.7, -0.2,0,0,1024,1024,1477,1024,0,0,69,0,64.3,-45.4,0,72,3.82,3.82,3.817,3.81,0,0,10.605,83.84,662.71881648259,70.53806,6,P-GPS,
11800,2025-09-09 00:34:00,39.3932570133164,-76.9726719453412,71.522312,,,663.70306848259,10.498688,0,1.60064637668,7.7557745264,22,5,15.275,663.70306848259,71.522312,0.9171454,1.60473758416,0,0,-6.039738,110.4, -0.3, -0.4,0,0,1024,1024,1476,1024,0,0,68,0,64.3,-45.4,0,72,3.82,3.82,3.817,3.81,0,0,10.605,83.84,663.70306848259,71.522312,6,P-GPS,
11900,2025-09-09 00:34:00,39.3932572590177,-76.9726718344277,72.17848,,,664.35923648259,10.498688,0,1.6802165892,7.850722036,22,5,15.275,664.35923648259,72.17848,0.9171454,1.6802165892,0,0,-6.263432,110.4, -0.3, -0.5,0,0,1024,1024,1477,1024,0,0,69,0,64.3,-45.4,0,72,3.82,3.82,3.817,3.81,0,0,10.605,83.84,664.35923648259,72.17848,6,P-GPS,
12000,2025-09-09 00:34:00,39.3932572886383,-76.9726718396159,73.490816,,,665.67157248259,10.498688,0,1.69107945044,7.8616144248,22,5,15.275,665.67157248259,73.490816,0.9171454,1.69107945044,0,0,-6.263432,110.4, -0.5, -0.5,0,0,1024,1024,1477,1024,0,0,69,0,64.3,-45.4,0,72,3.82,3.82,3.817,3.81,0,0,10.605,83.84,665.67157248259,73.490816,6,P-GPS,
12100,2025-09-09 00:34:00,39.393257468402,-76.9726718460457,74.146984,,,666.32774048259,10.498688,0,1.7554626546,7.9272312248,22,5,15.275,666.32774048259,74.146984,0.9171454,1.7554626546,0,0,-6.263432,110.4, -1, -0.3,0,0,1024,1024,1480,1024,0,0,69,0,64.3,-45.4,0,72,3.82,3.82,3.817,3.81,0,0,10.605,83.84,666.32774048259,74.146984,6,P-GPS,
12200,2025-09-09 00:34:00,39.3932574881703,-76.972671901519,75.131236,,,667.31199248259,10.498688,0,1.76593837672,7.9444556348,22,5,15.275,667.31199248259,75.131236,0.9171454,1.76593837672,0,0,-6.263432,110.4, -1.3, -0.3,0,0,1024,1024,1480,1024,0,0,69,0,64.3,-45.4,0,72,3.82,3.82,3.817,3.81,0,0,10.605,83.84,667.31199248259,75.131236,6,P-GPS,
12300,2025-09-09 00:34:00,39.3932576641999,-76.9726719931322,76.115488,,,668.29624448259,10.498688,0,1.83434389072,8.0136813588,22,5,15.268,668.29624448259,76.115488,0.9171454,1.83434389072,0,0,-6.263432,110.4, -1.6, -0.4,0,0,1024,1024,1480,1024,0,0,69,0,64.3,-45.4,0,72,3.818,3.818,3.814,3.808,0,0,10.318,84.02,668.29624448259,76.115488,6,P-GPS,
12400,2025-09-09 00:34:00,39.39325764897,-76.9726720656001,77.09974,,,669.28049648259,10.498688,0,1.833743497,8.0348427768,22,5,15.268,669.28049648259,77.09974,0.9171454,1.83434389072,0,0,-6.263432,110.4, -1.6, -0.6,0,0,1024,1024,1480,1024,0,0,69,0,64.3,-45.4,0,72,3.818,3.818,3.814,3.808,0,0,10.318,84.02,669.28049648259,77.09974,6,P-GPS,
12500,2025-09-09 00:34:00,39.3932577672277,-76.9726720816191,78.083992,,,670.26474848259,10.498688,0,1.87671922016,8.0782154816,22,5,15.268,670.26474848259,78.083992,0.9171454,1.87671922016,0,0,-6.263432,110.4, -1.6, -0.7,0,0,1024,1024,1480,1024,0,0,69,0,64.3,-45.4,0,72,3.818,3.818,3.814,3.808,0,0,10.318,84.02,670.26474848259,78.083992,6,P-GPS,
12600,2025-09-09 00:34:00,39.3932578068157,-76.9726721367377,78.74016,,,670.92091648259,10.498688,0,1.89447840708,8.0994425164,22,5,15.268,670.92091648259,78.74016,0.9171454,1.89447840708,0,0,-6.263432,110.4, -1.6, -0.6,0,0,1024,1024,1480,1024,0,0,69,0,64.3,-45.4,0,72,3.818,3.818,3.814,3.808,0,0,10.318,84.02,670.92091648259,78.74016,6,P-GPS,
12700,2025-09-09 00:34:01,39.3932578910953,-76.9726721535771,80.052496,,,672.23325248259,10.498688,0,1.9254593792,8.1305448796,22,5,15.268,672.23325248259,80.052496,0.9171454,1.9254593792,0,0,-6.263432,110.4, -1.7, -0.6,0,0,1024,1024,1480,1024,0,0,69,0,64.3,-45.4,0,72,3.818,3.818,3.814,3.808,0,0,10.318,84.02,672.23325248259,80.052496,6,P-GPS,
12800,2025-09-09 00:34:01,39.3932579217163,-76.9726721753496,80.708664,,,672.88942048259,10.498688,0,1.93778877592,8.1433073472,22,5,15.268,672.88942048259,80.708664,0.9171454,1.93778877592,0,0,-6.263432,110.4, -1.7, -0.5,0,0,1024,1024,1480,1024,0,0,69,0,64.3,-45.4,0,72,3.818,3.818,3.814,3.808,0,0,10.318,84.02,672.88942048259,80.708664,6,P-GPS,
12900,2025-09-09 00:34:01,39.3932579751864,-76.9726722884248,82.021,,,674.20175648259,10.498688,0,1.96465229384,8.1806761148,22,5,15.268,674.20175648259,82.021,0.9171454,1.96465229384,0,0,-6.263432,110.4, -1.7, -0.4,0,0,1024,1024,1480,1024,0,0,69,0,64.3,-45.4,0,72,3.818,3.818,3.814,3.808,0,0,10.318,84.02,674.20175648259,82.021,6,P-GPS,
13000,2025-09-09 00:34:01,39.3932579823376,-76.9726723607597,83.005252,,,675.18600848259,10.498688,0,1.97249678228,8.2012469816,22,5,15.268,675.18600848259,83.005252,0.9171454,1.97249678228,0,0,-6.263432,110.4, -1.9, -0.5,0,0,1024,1024,1480,1024,0,0,69,0,64.3,-45.4,0,72,3.818,3.818,3.814,3.808,0,0,10.318,84.02,675.18600848259,83.005252,6,P-GPS,
13100,2025-09-09 00:34:01,39.393258060931,-76.9726724078412,83.989504,,,676.17026048259,10.498688,0,2.0036746048,8.2328414708,22,5,15.268,676.17026048259,83.989504,0.9171454,2.0036746048,0,0,-6.263432,110.5, -1.9, -0.6,0,0,1024,1024,1480,1024,0,0,69,0,64.3,-45.4,0,72,3.818,3.818,3.814,3.808,0,0,10.318,84.02,676.17026048259,83.989504,6,P-GPS,
13200,2025-09-09 00:34:01,39.393258064363,-76.9726724639686,84.645672,,,676.82642848259,10.498688,0,2.00918313516,8.2487207364,22,5,15.268,676.82642848259,84.645672,0.9171454,2.00918313516,0,0,-6.263432,110.5, -2.1, -0.7,0,0,1024,1024,1480,1024,0,0,69,0,64.3,-45.4,0,72,3.818,3.818,3.814,3.808,0,0,10.318,84.02,676.82642848259,84.645672,6,P-GPS,
13300,2025-09-09 00:34:01,39.3932582638415,-76.9726724873818,85.629924,,,677.81068048259,10.498688,0,2.08101056528,8.3217850432,22,5,15.256,677.81068048259,85.629924,0.9171454,2.08101056528,0,0,-6.263432,110.5, -2.1, -0.7,0,0,1024,1024,1480,1024,0,0,69,0,64.3,-45.4,0,72,3.817,3.815,3.811,3.805,0,0,10.362,84.02,677.81068048259,85.629924,6,P-GPS,
13400,2025-09-09 00:34:01,39.3932582659541,-76.9726725738511,86.94226,,,679.12301648259,10.498688,0,2.08844494872,8.3461944928,22,5,15.256,679.12301648259,86.94226,0.9171454,2.08844494872,0,0,-6.263432,110.5, -2.1, -0.7,0,0,1024,1024,1480,1024,0,0,69,0,64.3,-45.4,0,72,3.817,3.815,3.811,3.805,0,0,10.362,84.02,679.12301648259,86.94226,6,P-GPS,
13500,2025-09-09 00:34:01,39.3932583829872,-76.9726724729703,87.598428,,,679.77918448259,10.498688,0,2.12184061908,8.3975068304,22,5,15.256,679.77918448259,87.598428,0.9171454,2.12184061908,0,0,-6.263432,110.5, -2.2, -0.7,0,0,1024,1024,1480,1024,0,0,69,0,64.3,-45.4,0,72,3.817,3.815,3.811,3.805,0,0,10.362,84.02,679.77918448259,87.598428,6,P-GPS,
13600,2025-09-09 00:34:01,39.3932584047771,-76.9726724928693,88.58268,,,680.76343648259,10.498688,0,2.130987601,8.4072181168,22,5,15.256,680.76343648259,88.58268,0.9171454,2.130987601,0,0,-6.263432,110.5, -2.2, -0.6,0,0,1024,1024,1480,1024,0,0,69,0,64.3,-45.4,0,72,3.817,3.815,3.811,3.805,0,0,10.362,84.02,680.76343648259,88.58268,6,P-GPS,
13700,2025-09-09 00:34:02,39.3932584995164,-76.9726722899214,89.566932,,,681.74768848259,10.498688,0,2.15021004256,8.474081636,22,5,15.256,681.74768848259,89.566932,0.9171454,2.15021004256,0,0,-6.263432,110.5, -2.1, -0.7,0,0,1024,1024,1480,1024,0,0,69,0,64.3,-45.4,0,72,3.817,3.815,3.811,3.805,0,0,10.362,84.02,681.74768848259,89.566932,6,P-GPS,
13800,2025-09-09 00:34:02,39.3932585461324,-76.9726722377959,90.551184,,,682.73194048259,10.498688,0,2.1633694918,8.49655539,22,5,15.256,682.73194048259,90.551184,0.9171454,2.1633694918,0,0,-6.263432,110.5, -1.9, -0.5,0,0,1024,1024,1480,1024,0,0,69,0,64.3,-45.4,0,72,3.817,3.815,3.811,3.805,0,0,10.362,84.02,682.73194048259,90.551184,6,P-GPS,
13900,2025-09-09 00:34:02,39.3932586791522,-76.9726723079026,91.535436,,,683.71619248259,10.498688,0,2.21513458532,8.5489504048,22,5,15.256,683.71619248259,91.535436,0.9171454,2.21513458532,0,0,-6.263432,110.5, -1.8, -0.3,0,0,1024,1024,1478,1024,0,0,69,0,64.3,-45.4,0,72,3.817,3.815,3.811,3.805,0,0,10.362,84.02,683.71619248259,91.535436,6,P-GPS,
14000,2025-09-09 00:34:02,39.3932586825901,-76.9726723404173,92.519688,,,684.70044448259,10.498688,0,2.21848104212,8.5582023736,22,5,15.256,684.70044448259,92.519688,0.9171454,2.21848104212,0,0,-6.263432,110.5, -1.8, -0.4,0,0,1024,1024,1479,1024,0,0,69,0,64.3,-45.4,0,72,3.817,3.815,3.811,3.805,0,0,10.362,84.02,684.70044448259,92.519688,6,P-GPS,
14100,2025-09-09 00:34:02,39.3932586369836,-76.9726723531438,93.50394,,,685.68469648259,10.498688,0,2.20315295764,8.5752299332,22,5,15.256,685.68469648259,93.50394,0.9171454,2.21848104212,0,0,-6.263432,110.5, -1.9, -0.5,0,0,1024,1024,1493,1024,0,0,71,0,64.3,-45.4,0,72,3.817,3.815,3.811,3.805,0,0,10.362,84.02,685.68469648259,93.50394,6,P-GPS,
14200,2025-09-09 00:34:02,39.393258600539,-76.9726723890618,94.488192,,,686.66894848259,10.498688,0,2.19267395468,8.5919622172,22,5,15.256,686.66894848259,94.488192,0.9171454,2.21848104212,0,0,-6.263432,110.5, -2, -0.8,0,0,1024,1024,1481,1024,0,0,69,0,64.3,-45.4,0,72,3.817,3.815,3.811,3.805,0,0,10.362,84.02,686.66894848259,94.488192,6,P-GPS,
14300,2025-09-09 00:34:02,39.3932588284154,-76.9726723367479,95.472444,,,687.65320048259,10.498688,0,2.27000663432,8.6763782304,22,5,15.247,687.65320048259,95.472444,0.9171454,2.27000663432,0,0,-6.263432,110.5, -2.2, -0.8,0,0,1024,1024,1467,1024,0,0,67,0,64.3,-45.4,0,72,3.814,3.813,3.809,3.803,0,0,10.404,84.02,687.65320048259,95.472444,6,P-GPS,
14400,2025-09-09 00:34:02,39.3932587960795,-76.9726723283005,96.128612,,,688.30936848259,10.498688,0,2.25797579404,8.6884189132,22,5,15.247,688.30936848259,96.128612,0.9171454,2.27000663432,0,0,-6.487126,110.5, -2.1, -0.8,0,0,1024,1024,1464,1024,0,0,67,0,64.3,-45.4,0,72,3.814,3.813,3.809,3.803,0,0,10.404,84.02,688.30936848259,96.128612,6,P-GPS,
14500,2025-09-09 00:34:02,39.3932589694166,-76.9726723080135,97.112864,,,689.29362048259,10.498688,0,2.31833012668,8.7519359756,22,5,15.247,689.29362048259,97.112864,0.9171454,2.31833012668,0,0,-6.487126,110.5, -1.7, -0.8,0,0,1024,1024,1464,1024,0,0,67,0,64.3,-45.4,0,72,3.814,3.813,3.809,3.803,0,0,10.404,84.02,689.29362048259,97.112864,6,P-GPS,
14600,2025-09-09 00:34:02,39.3932589861031,-76.9726722991116,98.097116,,,690.27787248259,10.498688,0,2.3237205468,8.7584976556,22,5,15.247,690.27787248259,98.097116,0.9171454,2.3237205468,0,0,-6.263432,110.5, -1.6, -0.8,0,0,1024,1024,1463,1024,0,0,67,0,64.3,-45.4,0,72,3.814,3.813,3.809,3.803,0,0,10.404,84.02,690.27787248259,98.097116,6,P-GPS,
14700,2025-09-09 00:34:03,39.393258899105,-76.9726723275577,99.081368,,,691.26212448259,10.498688,0,2.29454403668,8.7912404388,22,5,15.247,691.26212448259,99.081368,0.9171454,2.3237205468,0,0,-6.039738,110.5, -1.8, -0.6,0,0,1024,1024,1466,1024,0,0,67,0,64.3,-45.4,0,72,3.814,3.813,3.809,3.803,0,0,10.404,84.02,691.26212448259,99.081368,6,P-GPS,
14800,2025-09-09 00:34:03,39.3932588496013,-76.9726723389429,99.737536,,,691.91829248259,10.498688,0,2.2776739574,8.8095803344,22,5,15.247,691.91829248259,99.737536,0.9171454,2.3237205468,0,0,-5.816044,110.5, -2.2, -0.8,0,0,1024,1024,1467,1024,0,0,67,0,64.3,-45.4,0,72,3.814,3.813,3.809,3.803,0,0,10.404,84.02,691.91829248259,99.737536,6,P-GPS,
14900,2025-09-09 00:34:03,39.393259153929,-76.9726723243429,100.721788,,,692.90254448259,10.498688,0,2.3850394464,8.9207023852,22,5,15.247,692.90254448259,100.721788,0.9171454,2.3850394464,0,0,-5.816044,110.5, -2.3, -0.9,0,0,1024,1024,1466,1024,0,0,67,0,64.3,-45.4,0,72,3.814,3.813,3.809,3.803,0,0,10.404,84.02,692.90254448259,100.721788,6,P-GPS,
15000,2025-09-09 00:34:03,39.3932591788234,-76.9726723137227,101.70604,,,693.88679648259,10.498688,0,2.39326779312,8.930282438,22,5,15.247,693.88679648259,101.70604,0.9171454,2.39326779312,0,0,-5.816044,110.5, -2.3, -0.9,0,0,1024,1024,1466,1024,0,0,67,0,64.3,-45.4,0,72,3.814,3.813,3.809,3.803,0,0,10.404,84.02,693.88679648259,101.70604,6,P-GPS,
15100,2025-09-09 00:34:03,39.3932592765224,-76.9726724332277,102.362208,,,694.54296448259,10.498688,0,2.4354167446,8.979330996,22,5,15.247,694.54296448259,102.362208,0.9171454,2.4354167446,0,0,-5.816044,110.5, -2.2, -0.8,0,0,1024,1024,1466,1024,0,0,67,0,64.3,-45.4,0,72,3.814,3.813,3.809,3.803,0,0,10.404,84.02,694.54296448259,102.362208,6,P-GPS,
15200,2025-09-09 00:34:03,39.3932592874413,-76.9726724358107,103.34646,,,695.52721648259,10.498688,0,2.43946530116,8.9833664292,22,5,15.247,695.52721648259,103.34646,0.9171454,2.43946530116,0,0,-5.816044,110.5, -2.1, -0.8,0,0,1024,1024,1466,1024,0,0,67,0,64.3,-45.4,0,72,3.814,3.813,3.809,3.803,0,0,10.404,84.02,695.52721648259,103.34646,6,P-GPS,
15300,2025-09-09 00:34:03,39.393259228526,-76.9726725407046,104.330712,,,696.51146848259,10.498688,0,2.42536097,9.0199149868,22,5,15.245,696.51146848259,104.330712,0.9171454,2.43946530116,0,0,-5.816044,110.4, -2, -0.7,0,0,1024,1024,1466,1024,0,0,67,0,64.3,-45.4,0,71,3.814,3.817,3.815,3.808,0,0,10.351,84.2,696.51146848259,104.330712,6,P-GPS,
15400,2025-09-09 00:34:03,39.3932591546864,-76.9726725908568,105.314964,,,697.49572048259,10.498688,0,2.40262802964,9.050361182,22,5,15.245,697.49572048259,105.314964,0.9171454,2.43946530116,0,0,-5.816044,110.5, -2, -1,0,0,1024,1024,1466,1024,0,0,67,0,64.3,-45.4,0,71,3.814,3.817,3.815,3.808,0,0,10.351,84.2,697.49572048259,105.314964,6,P-GPS,
15500,2025-09-09 00:34:03,39.3932592985966,-76.9726726592451,106.299216,,,698.47997248259,10.498688,0,2.45826451436,9.106299504,22,5,15.245,698.47997248259,106.299216,0.9171454,2.45826451436,0,0,-5.816044,110.5, -2, -1.2,0,0,1024,1024,1466,1024,0,0,67,0,64.3,-45.4,0,71,3.814,3.817,3.815,3.808,0,0,10.351,84.2,698.47997248259,106.299216,6,P-GPS,
15600,2025-09-09 00:34:03,39.3932592508441,-76.9726726949193,106.955384,,,699.13614048259,10.498688,0,2.44391740104,9.1264110532,22,5,15.245,699.13614048259,106.955384,0.9171454,2.45826451436,0,0,-5.816044,110.4, -2.1, -1.3,0,0,1024,1024,1465,1024,0,0,67,0,64.3,-45.4,0,71,3.814,3.817,3.815,3.808,0,0,10.351,84.2,699.13614048259,106.955384,6,P-GPS,
15700,2025-09-09 00:34:04,39.3932593492211,-76.9726727525433,107.939636,,,700.12039248259,10.498688,0,2.48276254664,9.1658139416,22,5,15.245,700.12039248259,107.939636,0.9171454,2.48276254664,0,0,-5.816044,110.5, -2.2, -1.2,0,0,1024,1024,1464,1024,0,0,67,0,64.3,-45.4,0,71,3.814,3.817,3.815,3.808,0,0,10.351,84.2,700.12039248259,107.939636,6,P-GPS,
15800,2025-09-09 00:34:04,39.3932593689171,-76.9726727744045,108.595804,,,700.77656048259,10.498688,0,2.4912894498,9.1752627608,22,5,15.245,700.77656048259,108.595804,0.9171454,2.4912894498,0,0,-5.816044,110.5, -2.3, -1.1,0,0,1024,1024,1465,1024,0,0,67,0,64.3,-45.4,0,71,3.814,3.817,3.815,3.808,0,0,10.351,84.2,700.77656048259,108.595804,6,P-GPS,
15900,2025-09-09 00:34:04,39.3932594558118,-76.9726727649705,109.580056,,,701.76081248259,10.498688,0,2.52126320404,9.2070869088,22,5,15.245,701.76081248259,109.580056,0.9171454,2.52126320404,0,0,-5.816044,110.5, -2.3, -0.9,0,0,1024,1024,1465,1024,0,0,67,0,64.3,-45.4,0,71,3.814,3.817,3.815,3.808,0,0,10.351,84.2,701.76081248259,109.580056,6,P-GPS,
16000,2025-09-09 00:34:04,39.3932594523116,-76.9726727889934,110.564308,,,702.74506448259,10.498688,0,2.5217520492,9.2139766728,22,5,15.245,702.74506448259,110.564308,0.9171454,2.5217520492,0,0,-5.816044,110.5, -2.4, -1,0,0,1024,1024,1465,1024,0,0,67,0,64.3,-45.4,0,71,3.814,3.817,3.815,3.808,0,0,10.351,84.2,702.74506448259,110.564308,6,P-GPS,
16100,2025-09-09 00:34:04,39.3932594156153,-76.9726727459805,111.54856,,,703.72931648259,10.498688,0,2.50571858412,9.2320541012,22,5,15.245,703.72931648259,111.54856,0.9171454,2.5217520492,0,0,-5.816044,110.5, -2.4, -1.1,0,0,1024,1024,1466,1024,0,0,67,0,64.3,-45.4,0,71,3.814,3.817,3.815,3.808,0,0,10.351,84.2,703.72931648259,111.54856,6,P-GPS,
16200,2025-09-09 00:34:04,39.3932593652038,-76.9726727570774,112.204728,,,704.38548448259,10.498688,0,2.48872711376,9.2506892724,22,5,15.245,704.38548448259,112.204728,0.9171454,2.5217520492,0,0,-5.816044,110.5, -2.3, -1.3,0,0,1024,1024,1466,1024,0,0,67,0,64.3,-45.4,0,71,3.814,3.817,3.815,3.808,0,0,10.351,84.2,704.38548448259,112.204728,6,P-GPS,
16300,2025-09-09 00:34:04,39.3932595201218,-76.9726725774762,113.18898,,,705.36973648259,10.498688,0,2.53122055344,9.32660791,22,5,15.235,705.36973648259,113.18898,0.9171454,2.53122055344,0,0,-5.816044,110.5, -2.3, -1.4,0,0,1024,1024,1466,1024,0,0,67,0,64.3,-45.4,0,71,3.812,3.811,3.806,3.801,0,0,10.061,84.2,705.36973648259,113.18898,6,P-GPS,
16400,2025-09-09 00:34:04,39.3932595052752,-76.9726724906521,114.173232,,,706.35398848259,10.498688,0,2.52038721976,9.3516735276,22,5,15.235,706.35398848259,114.173232,0.9171454,2.53122055344,0,0,-5.816044,110.5, -2.2, -1.2,0,0,1024,1024,1466,1024,0,0,67,0,64.3,-45.4,0,71,3.812,3.811,3.806,3.801,0,0,10.061,84.2,706.35398848259,114.173232,6,P-GPS,
16500,2025-09-09 00:34:04,39.3932596319034,-76.9726724373183,114.8294,,,707.01015648259,10.498688,0,2.56220152556,9.400262768,22,5,15.235,707.01015648259,114.8294,0.9171454,2.56220152556,0,0,-5.816044,110.5, -2, -1.1,0,0,1024,1024,1466,1024,0,0,67,0,64.3,-45.4,0,71,3.812,3.811,3.806,3.801,0,0,10.061,84.2,707.01015648259,114.8294,6,P-GPS,
16600,2025-09-09 00:34:04,39.3932596210534,-76.9726723702048,115.813652,,,707.99440848259,10.498688,0,2.5543635988,9.4195869156,22,5,15.235,707.99440848259,115.813652,0.9171454,2.56220152556,0,0,-5.816044,110.5, -1.8, -1,0,0,1024,1024,1466,1024,0,0,67,0,64.3,-45.4,0,71,3.812,3.811,3.806,3.801,0,0,10.061,84.2,707.99440848259,115.813652,6,P-GPS,
16700,2025-09-09 00:34:05,39.393259770088,-76.9726724753537,116.797904,,,708.97866048259,10.498688,0,2.6137468028,9.4815291748,22,5,15.235,708.97866048259,116.797904,0.9171454,2.6137468028,0,0,-5.816044,110.5, -1.7, -1,0,0,1024,1024,1466,1024,0,0,67,0,64.3,-45.4,0,71,3.812,3.811,3.806,3.801,0,0,10.061,84.2,708.97866048259,116.797904,6,P-GPS,
16800,2025-09-09 00:34:05,39.3932598030672,-76.9726724365978,117.782156,,,709.96291248259,10.498688,0,2.62320874536,9.4977693328,22,5,15.235,709.96291248259,117.782156,0.9171454,2.62320874536,0,0,-5.816044,110.5, -1.7, -0.8,0,0,1024,1024,1464,1024,0,0,67,0,64.3,-45.4,0,71,3.812,3.811,3.806,3.801,0,0,10.061,84.2,709.96291248259,117.782156,6,P-GPS,
16900,2025-09-09 00:34:05,39.3932597853861,-76.9726724869162,118.438324,,,710.61908048259,10.498688,0,2.61989509696,9.5133533228,22,5,15.235,710.61908048259,118.438324,0.9171454,2.62320874536,0,0,-5.816044,110.6, -1.8, -0.7,0,0,1024,1024,1462,1024,0,0,66,0,64.3,-45.4,0,71,3.812,3.811,3.806,3.801,0,0,10.061,84.2,710.61908048259,118.438324,6,P-GPS,
17000,2025-09-09 00:34:05,39.3932597448923,-76.9726725540186,119.422576,,,711.60333248259,10.498688,0,2.6095965402,9.5373690716,22,5,15.235,711.60333248259,119.422576,0.9171454,2.62320874536,0,0,-5.816044,110.5, -1.9, -0.8,0,0,1024,1024,1438,1024,0,0,63,0,64.3,-45.4,0,71,3.812,3.811,3.806,3.801,0,0,10.061,84.2,711.60333248259,119.422576,6,P-GPS,
