time(millisecond),datetime(utc),latitude,longitude,height_above_takeoff(feet),height_above_ground_at_drone_location(feet),ground_elevation_at_drone_location(feet),altitude_above_seaLevel(feet),height_sonar(feet),speed(mph),distance(feet),mileage(feet),satellites,gpslevel,voltage(v),max_altitude(feet),max_ascent(feet),max_speed(mph),max_distance(feet), xSpeed(mph), ySpeed(mph), zSpeed(mph), compass_heading(degrees), pitch(degrees), roll(degrees),isPhoto,isVideo,rc_elevator,rc_aileron,rc_throttle,rc_rudder,rc_elevator(percent),rc_aileron(percent),rc_throttle(percent),rc_rudder(percent),gimbal_heading(degrees),gimbal_pitch(degrees),gimbal_roll(degrees),battery_percent,voltageCell1,voltageCell2,voltageCell3,voltageCell4,voltageCell5,voltageCell6,current(A),battery_temperature(f),altitude(feet),ascent(feet),flycStateRaw,flycState,message
2200,2025-09-09 00:00:51,39.3932722957082,-76.9726734034328,0,Available with any HD 360 subscription,Available with any HD 360 subscription,592.36142906055,0.328084,0,0,0,19,2,0,592.36142906055,0,0,0,0,0,0,116.8, 5, 0.1,0,0,364,364,364,1684,-100,-100,-100,100,117.7,0,0,99,4.129,4.129,4.129,4.129,0,0,0,75.56,592.36142906055,0,6,P-GPS,"SD card speed low SD card speed low. Normal use may be affected. Replace SD card (Code: 10028). Aircraft not in flight. Vision systems and obstacle avoidance disabled (Code: 180059). Satellite positioning signal weak. Hovering unstable. Fly with caution (Code: 30002)."
2300,2025-09-09 00:00:52,39.3932723038428,-76.9726734242131,0,,,592.36142906055,0.328084,0,0.0065679792128,0.0065679792128,20,2,0,592.36142906055,0,0,0.0065679792128,0,0,0,116.8, 5, 0.1,0,0,364,364,364,1684,-100,-100,-100,100,117.7,0,0,99,4.129,4.129,4.129,4.129,0,0,0,75.56,592.36142906055,0,41,Motors_Started,
2400,2025-09-09 00:00:52,39.3932723138536,-76.9726734460494,0,,,592.36142906055,0.328084,0,0.013719160544,0.0137267392844,20,2,0,592.36142906055,0,0,0.013719160544,0,0,0,116.8, 5, 0.1,0,0,364,364,364,1684,-100,-100,-100,100,117.7,0,0,99,4.129,4.129,4.129,4.129,0,0,0,75.56,592.36142906055,0,41,Motors_Started,"Setting new Return-To-Home altitude to 65m (213 ft). Data Recorder File Index is 69. Setting new Maximum Flight Altitude to 120m (394 ft)"
2500,2025-09-09 00:00:52,39.3932723305125,-76.972673478625,0,,,592.36142906055,0.328084,0,0.0247130257252,0.024740650398,20,2,16.519,592.36142906055,0,0,0.0247130257252,0,0,0,116.8, 5, 0.1,0,0,364,364,364,1684,-100,-100,-100,100,117.8,0,0,99,4.129,4.129,4.129,4.129,0,0,0.803,75.56,592.36142906055,0,41,Motors_Started,
2600,2025-09-09 00:00:52,39.39327235431,-76.9726735180932,0,,,592.36142906055,0.328084,0,0.03875984376,0.038855316204,20,2,16.519,592.36142906055,0,0,0.03875984376,0,0,0,116.8, 5, 0.1,0,0,364,364,364,1684,-100,-100,-100,100,117.9,0,0,99,4.129,4.129,4.129,4.129,0,0,0.803,75.56,592.36142906055,0,41,Motors_Started,
2700,2025-09-09 00:00:52,39.393272341577,-76.9726734654606,0,,,592.36142906055,0.328084,0,0.0242062343704,0.054405841636,20,2,16.519,592.36142906055,0,0,0.03875984376,0,0,0,116.8, 5, 0.1,0,0,891,424,364,1684,-20,-91,-100,100,117.9,0,0,99,4.129,4.129,4.129,4.129,0,0,0.803,75.56,592.36142906055,0,41,Motors_Started,
2800,2025-09-09 00:00:52,39.3932723579639,-76.9726734815017,0,,,592.36142906055,0.328084,0,0.031630086314,0.061902561036,20,2,16.519,592.36142906055,0,0,0.03875984376,0,0,0,116.8, 5, 0.1,0,0,1024,1024,1024,1024,0,0,0,0,117.8,0,0,99,4.129,4.129,4.129,4.129,0,0,0.803,75.56,592.36142906055,0,41,Motors_Started,
2900,2025-09-09 00:00:52,39.3932723628065,-76.9726734925848,0,,,592.36142906055,0.328084,0,0.035088255716,0.065492456164,20,2,16.519,592.36142906055,0,0,0.03875984376,0,0,0,116.8, 5, 0.1,0,0,1024,1024,1024,1024,0,0,0,0,117.7,0,0,99,4.129,4.129,4.129,4.129,0,0,0.803,75.56,592.36142906055,0,41,Motors_Started,
3000,2025-09-09 00:00:52,39.3932724072703,-76.9726735099063,0,,,592.36142906055,0.328084,0,0.050577101356,0.08243438584,20,2,16.519,592.36142906055,0,0,0.050577101356,0,0,0,116.8, 5, 0.1,0,0,1024,1024,1024,1024,0,0,0,0,117.5,0,0,99,4.129,4.129,4.129,4.129,0,0,0.803,75.56,592.36142906055,0,41,Motors_Started,
3100,2025-09-09 00:00:52,39.3932723732307,-76.9726734708843,0,,,592.36142906055,0.328084,0,0.034083662508,0.099026249888,20,2,16.519,592.36142906055,0,0,0.050577101356,0,0,0,116.8, 5, 0.1,0,0,1024,1024,1024,1024,0,0,0,0,117.3,0,0,99,4.129,4.129,4.129,4.129,0,0,0.803,75.56,592.36142906055,0,41,Motors_Started,
3200,2025-09-09 00:00:53,39.3932723976772,-76.9726735050286,0,,,592.36142906055,0.328084,0,0.046954069744,0.112150266056,20,2,16.519,592.36142906055,0,0,0.050577101356,0,0,0,116.8, 5, 0.1,0,0,1024,1024,1024,1024,0,0,0,0,117.1,0,0,99,4.129,4.129,4.129,4.129,0,0,0.803,75.56,592.36142906055,0,41,Motors_Started,
3300,2025-09-09 00:00:53,39.3932723203582,-76.9726734948186,0,,,592.36142906055,0.328084,0,0.0272914378812,0.140506566176,20,5,16.519,592.36142906055,0,0,0.050577101356,0,0,0,116.8, 5, 0.1,0,0,1024,1024,1024,1024,0,0,0,0,117,0,0,99,4.129,4.129,4.129,4.129,0,0,0.803,75.56,592.36142906055,0,41,Motors_Started,"SD card speed low. Normal use may be affected. Replace SD card (Code: 10028). Aircraft not in flight. Vision systems and obstacle avoidance disabled (Code: 180059). Remote ID functionality normal (Code: 30331)"
3400,2025-09-09 00:00:53,39.3932723458049,-76.9726735145901,0,,,592.36142906055,0.328084,0,0.036281825308,0.151335962848,20,5,16.519,592.36142906055,0,0,0.050577101356,0,0,0,116.8, 5, 0.1,0,0,1024,1024,1024,1024,0,0,0,0,116.9,0,0,99,4.129,4.129,4.129,4.129,0,0,0.803,75.56,592.36142906055,0,41,Motors_Started,
3500,2025-09-09 00:00:53,39.39327224151,-76.9726734948213,0,,,592.36142906055,0.328084,0,0.0324807425092,0.189793969328,20,5,16.346,592.36142906055,0,0,0.050577101356,0,0,0,116.8, 5, 0.1,0,0,1024,1024,1024,1024,0,0,0,0,116.8,0,0,99,4.092,4.089,4.088,4.088,0,0,4.017,75.56,592.36142906055,0,41,Motors_Started,
3600,2025-09-09 00:00:53,39.3932722524289,-76.9726735292234,0,,,592.36142906055,0.328084,0,0.03882382014,0.200280190136,20,5,16.346,592.36142906055,0,0,0.050577101356,0,0,0,116.8, 5, 0.1,0,0,1024,1024,1024,1024,0,0,0,0,116.7,0,0,99,4.092,4.089,4.088,4.088,0,0,4.017,75.56,592.36142906055,0,41,Motors_Started,
3700,2025-09-09 00:00:53,39.3932722733029,-76.9726735184951,0,,,592.36142906055,0.328084,0,0.033456693984,0.208474744204,20,5,16.346,592.36142906055,0,0,0.050577101356,0,0,0,116.8, 5, 0.1,0,0,1024,1024,1024,1024,0,0,0,0,116.7,0,0,99,4.092,4.089,4.088,4.088,0,0,4.017,75.56,592.36142906055,0,41,Motors_Started,
3800,2025-09-09 00:00:53,39.3932722855068,-76.9726735609371,0,,,592.36142906055,0.328084,0,0.04456529014,0.221243117316,20,5,16.346,592.36142906055,0,0,0.050577101356,0,0,0,116.8, 5, 0.1,0,0,1024,1024,1024,1024,0,0,0,0,116.7,0,0,99,4.092,4.089,4.088,4.088,0,0,4.017,75.56,592.36142906055,0,41,Motors_Started,"SD card speed low. Normal use may be affected. Replace SD card (Code: 10028). Remote ID functionality normal (Code: 30331)"
3900,2025-09-09 00:00:53,39.3932723247532,-76.9726734709009,0,,,592.36142906055,0.328084,0,0.0217756896732,0.250389443708,20,5,16.346,592.36142906055,0,0,0.050577101356,0,0,0,116.8, 5, 0.1,0,0,1024,1024,1024,1024,0,0,0,0,116.7,0,0,99,4.092,4.089,4.088,4.088,0,0,4.017,75.56,592.36142906055,0,10,Assisted_Takeoff,
4000,2025-09-09 00:00:53,39.3932723410758,-76.9726734929063,0,,,592.36142906055,0.328084,0,0.030173229312,0.2589895096,20,5,16.346,592.36142906055,0,0,0.050577101356,0,0,0,116.8, 5, 0.1,0,0,1024,1024,1024,1024,0,0,0,0,116.7,0,0,99,4.092,4.089,4.088,4.088,0,0,4.017,75.56,592.36142906055,0,10,Assisted_Takeoff,"SD card speed low. Normal use may be affected. Replace SD card (Code: 10028). Ambient light too low. Vision system and obstacle sensing unavailable. Fly with caution (Code: 180037). Remote ID functionality normal (Code: 30331). Ambient light too low."
4100,2025-09-09 00:00:53,39.3932723262996,-76.9726734602309,0,,,592.36142906055,0.328084,0,0.019520341832,0.269664050624,20,5,16.346,592.36142906055,0,0,0.050577101356,0,0,0,116.8, 5, 0.1,0,0,1024,1024,1024,1024,0,0,0,0,116.7,0,0,99,4.092,4.089,4.088,4.088,0,0,4.017,75.56,592.36142906055,0,10,Assisted_Takeoff,
4200,2025-09-09 00:00:53,39.3932723346312,-76.9726734488513,0.328084,,,592.68951306055,0.328084,0,0.0191224087484,0.274083998272,20,5,16.346,592.68951306055,0.328084,0,0.050577101356,0,0,0,116.8, 5, 0.1,0,0,1024,1024,1024,1024,0,0,0,0,116.7,0,0,99,4.092,4.089,4.088,4.088,0,0,4.017,75.56,592.68951306055,0.328084,10,Assisted_Takeoff,
4300,2025-09-09 00:00:54,39.3932722996363,-76.9726734829734,0.328084,,,592.68951306055,0.328084,0,0.0224729009816,0.290070875424,20,5,16.346,592.68951306055,0.328084,0,0.050577101356,0,0,0,116.8, 5, 0.1,0,0,1024,1024,1062,1024,0,0,6,0,116.6,0,0,99,4.092,4.089,4.088,4.088,0,0,4.017,75.56,592.68951306055,0.328084,10,Assisted_Takeoff,
4400,2025-09-09 00:00:54,39.3932723393367,-76.9726735317565,0.328084,,,592.68951306055,0.328084,0,0.039528544572,0.31004594168,20,5,16.346,592.68951306055,0.328084,0,0.050577101356,0,0,0,116.8, 5, 0.1,0,0,1024,1024,1148,1024,0,0,19,0,116.6,0,0,99,4.092,4.089,4.088,4.088,0,0,4.017,75.56,592.68951306055,0.328084,10,Assisted_Takeoff,
4500,2025-09-09 00:00:54,39.3932723239521,-76.9726734802047,0.328084,,,592.68951306055,0.328084,0,0.0239741477488,0.325627635092,20,5,16.346,592.68951306055,0.328084,0,0.050577101356,0,0,0,116.8, 5, 0.1,0,0,1024,1024,1248,1024,0,0,34,0,116.6,0,0,99,4.092,4.089,4.088,4.088,0,0,4.017,75.56,592.68951306055,0.328084,10,Assisted_Takeoff,
4600,2025-09-09 00:00:54,39.3932723295829,-76.9726734924434,0.328084,,,592.68951306055,0.328084,0,0.0279754274044,0.329642399,20,5,16.346,592.68951306055,0.328084,0,0.050577101356,0,0,0,116.8, 5, 0.1,0,0,1024,1024,1287,1024,0,0,40,0,116.6,0,0,99,4.092,4.089,4.088,4.088,0,0,4.017,75.56,592.68951306055,0.328084,10,Assisted_Takeoff,
4700,2025-09-09 00:00:54,39.3932723108143,-76.9726734530528,0.328084,,,592.68951306055,0.328084,0,0.015037238014,0.34269029968,20,5,16.346,592.68951306055,0.328084,0,0.050577101356,0,0,0,116.8, 5, 0.1,0,0,1024,1024,1290,1024,0,0,40,0,116.6,0,0,99,4.092,4.089,4.088,4.088,0,0,4.017,75.56,592.68951306055,0.328084,10,Assisted_Takeoff,
4800,2025-09-09 00:00:54,39.3932723458392,-76.9726734661008,0.328084,,,592.68951306055,0.328084,0,0.0254313656432,0.35599082504,20,5,16.346,592.68951306055,0.328084,0,0.050577101356,0,0,0,116.8, 5, 0.1,0,0,1024,1024,1325,1024,0,0,46,0,116.6,0,0,99,4.092,4.089,4.088,4.088,0,0,4.017,75.56,592.68951306055,0.328084,10,Assisted_Takeoff,
4900,2025-09-09 00:00:54,39.3932723655566,-76.9726734682459,0.328084,,,592.68951306055,0.328084,0,0.031359252972,0.36320867304,20,5,16.346,592.68951306055,0.328084,0,0.050577101356,0,0,0,116.9, 5.1, 0.1,0,0,1024,1024,1347,1024,0,0,49,0,116.6,0,0,99,4.092,4.089,4.088,4.088,0,0,4.017,75.56,592.68951306055,0.328084,10,Assisted_Takeoff,
5000,2025-09-09 00:00:54,39.3932723939612,-76.9726735136727,0.328084,,,592.68951306055,0.328084,0,0.047446851912,0.37968505152,20,5,16.346,592.68951306055,0.328084,0,0.050577101356,0,0,0,117.1, 5, 0.1,0,0,1024,1024,1356,1024,0,0,50,0,116.6,0,0,99,4.092,4.089,4.088,4.088,0,0,4.017,75.56,592.68951306055,0.328084,10,Assisted_Takeoff,
5100,2025-09-09 00:00:54,39.3932723478032,-76.9726734764799,0.328084,,,592.68951306055,0.328084,0,0.0280261491908,0.399524291,20,5,16.423,592.68951306055,0.328084,0,0.050577101356,0,0,0,117, 5, 0.1,0,0,1024,1024,1364,1024,0,0,52,0,116.6,0,0,99,4.116,4.114,4.114,4.112,0,0,2.082,75.56,592.68951306055,0.328084,10,Assisted_Takeoff,
5200,2025-09-09 00:00:55,39.3932724003394,-76.972673502174,0.328084,,,592.68951306055,0.328084,0,0.047248361092,0.4200131368,20,5,16.423,592.68951306055,0.328084,0,0.050577101356,0,0,0,116.7, 4.1, 0.1,0,0,1024,1024,1371,1024,0,0,53,0,116.6,0,0,99,4.116,4.114,4.114,4.112,0,0,2.082,75.56,592.68951306055,0.328084,10,Assisted_Takeoff,
5300,2025-09-09 00:00:55,39.3932723883304,-76.972673499009,0.328084,,,592.68951306055,0.328084,0,0.043222770412,0.42448492172,20,5,16.423,592.68951306055,0.328084,0,0.050577101356,0,0,0,116.7, 0.7, 0.1,0,0,1024,1024,1375,1024,0,0,53,0,116.6,0,0,99,4.116,4.114,4.114,4.112,0,0,2.082,75.56,592.68951306055,0.328084,10,Assisted_Takeoff,
5400,2025-09-09 00:00:55,39.3932724249187,-76.9726735463897,0.328084,,,592.68951306055,0.328084,0,0.062025264452,0.4433727176,20,5,16.423,592.68951306055,0.328084,0,0.062025264452,0,0,0,116.8, -4.8, 0.1,0,0,1024,1024,1375,1024,0,0,53,0,116.6,0,0,99,4.116,4.114,4.114,4.112,0,0,2.082,75.56,592.68951306055,0.328084,10,Assisted_Takeoff,
5500,2025-09-09 00:00:55,39.3932723252072,-76.9726734482471,0.328084,,,592.68951306055,0.328084,0,0.0165981632608,0.48908138048,20,5,16.423,592.68951306055,0.328084,0,0.062025264452,0,0,-0.223694,116.3, -9.2, 0,0,0,1024,1024,1377,1024,0,0,53,0,116.6,0,0,99,4.116,4.114,4.114,4.112,0,0,2.082,75.56,592.68951306055,0.328084,10,Assisted_Takeoff,
5600,2025-09-09 00:00:55,39.3932722994714,-76.9726732666728,0.328084,,,592.68951306055,0.328084,0.223694,0.038584974988,0.54113190708,20,5,16.423,592.68951306055,0.328084,0.223694,0.062025264452,0,0.223694,-0.447388,115.9, -11.4, 0.1,0,0,1024,1024,1377,1024,0,0,53,0,116.6,0,0,99,4.116,4.114,4.114,4.112,0,0,2.082,75.56,592.68951306055,0.328084,10,Assisted_Takeoff,
5700,2025-09-09 00:00:55,39.3932722048017,-76.9726729108823,0.656168,,,593.01759706055,0.984252,0.7158208,0.142784453388,0.647227711,20,5,16.423,593.01759706055,0.656168,0.7158208,0.142784453388,-0.223694,0.671082,-0.894776,116.5, -7.9, -0.2,0,0,1024,1024,1362,1024,0,0,51,0,116.6,0,0,99,4.116,4.114,4.114,4.112,0,0,2.082,75.56,593.01759706055,0.656168,6,P-GPS,
5800,2025-09-09 00:00:55,39.3932720598596,-76.972672449142,0.656168,,,593.01759706055,1.312336,0.9171454,0.28249508778,0.78774936904,20,5,16.423,593.01759706055,0.656168,0.9171454,0.28249508778,-0.223694,0.894776,-1.565858,116.7, -0.9, -0.1,0,0,1024,1024,1317,1024,0,0,44,0,116.6,0,0,99,4.116,4.114,4.114,4.112,0,0,2.082,75.56,593.01759706055,0.656168,6,P-GPS,
5900,2025-09-09 00:00:55,39.3932719373508,-76.972672015568,0.984252,,,593.34568106055,1.64042,0.9171454,0.41258531504,0.9179134152,20,5,16.423,593.34568106055,0.984252,0.9171454,0.41258531504,-0.223694,0.894776,-2.23694,116.6, 4.1, 0.1,0,0,1024,1024,1316,1024,0,0,44,0,116.6,0,0,99,4.116,4.114,4.114,4.112,0,0,2.082,75.56,593.34568106055,0.984252,6,P-GPS,
6000,2025-09-09 00:00:55,39.3932718288151,-76.972671632584,1.312336,,,593.67376506055,1.64042,0.7158208,0.52756563368,1.03293310392,20,5,16.423,593.67376506055,1.312336,0.9171454,0.52756563368,-0.223694,0.671082,-2.684328,116.6, 5.2, 0.2,0,0,1024,1024,1210,1024,0,0,28,0,116.6,0,0,99,4.116,4.114,4.114,4.112,0,0,2.082,75.56,593.67376506055,1.312336,6,P-GPS,
6100,2025-09-09 00:00:55,39.3932722550761,-76.9726712475131,1.968504,,,594.32993306055,1.968504,0.447388,0.60806104308,1.22260174516,20,5,16.153,594.32993306055,1.968504,0.9171454,0.60806104308,0,0.447388,-3.131716,114.6, 4.1, 0.1,0,0,1024,1024,1168,1024,0,0,22,0,116.6,0,0,99,4.075,4.067,4.064,4.062,0,0,5.94,75.56,594.32993306055,1.968504,6,P-GPS,
6200,2025-09-09 00:00:55,39.3932724332589,-76.9726710427584,2.296588,,,594.65801706055,2.296588,0.223694,0.66750002136,1.309547286,20,5,16.153,594.65801706055,2.296588,0.9171454,0.66750002136,0,0.223694,-3.131716,112.4, 2.7, 0.5,0,0,1024,1024,1168,1024,0,0,22,0,116.6,0,0,99,4.075,4.067,4.064,4.062,0,0,5.94,75.56,594.65801706055,2.296588,6,P-GPS,
6300,2025-09-09 00:00:56,39.3932721901689,-76.9726709341092,2.952756,,,595.31418506055,2.952756,0,0.6973097336,1.40337931,20,5,16.153,595.31418506055,2.952756,0.9171454,0.6973097336,0,0,-2.684328,111.7, 2, 0.7,0,0,1024,1024,1195,1024,0,0,26,0,116.6,0,0,99,4.075,4.067,4.064,4.062,0,0,5.94,75.56,595.31418506055,2.952756,6,P-GPS,
6400,2025-09-09 00:00:56,39.3932723511466,-76.9726706860034,3.28084,,,595.64226906055,3.28084,0,0.7664698408,1.49472117644,20,5,16.153,595.64226906055,3.28084,0.9171454,0.7664698408,0,0,-2.013246,111.7, 1.6, 0.8,0,0,1024,1024,1217,1024,0,0,29,0,116.6,0,0,99,4.075,4.067,4.064,4.062,0,0,5.94,75.56,595.64226906055,3.28084,6,P-GPS,
6500,2025-09-09 00:00:56,39.3932719540204,-76.9726708109321,3.608924,,,595.97035306055,3.608924,0,0.74153217596,1.64383535444,20,5,16.153,595.97035306055,3.608924,0.9171454,0.7664698408,0,0,-1.565858,111.9, 1, 0.9,0,0,1024,1024,1250,1024,0,0,34,0,116.6,0,0,99,4.075,4.067,4.064,4.062,0,0,5.94,75.56,595.97035306055,3.608924,6,P-GPS,
6600,2025-09-09 00:00:56,39.3932722213021,-76.9726707273535,3.608924,,,595.97035306055,3.608924,0,0.75503283256,1.74415687996,20,5,16.153,595.97035306055,3.608924,0.9171454,0.7664698408,0,0,-1.11847,112.1, 0.1, 1.2,0,0,1024,1024,1270,1024,0,0,37,0,116.6,0,0,99,4.075,4.067,4.064,4.062,0,0,5.94,75.56,595.97035306055,3.608924,6,P-GPS,
6700,2025-09-09 00:00:56,39.3932715706704,-76.9726710819301,3.937008,,,596.29843706055,3.608924,0,0.70600067876,2.00173562836,20,5,16.153,596.29843706055,3.937008,0.9171454,0.7664698408,0,0,-0.894776,112, -0.7, 1.2,0,0,1024,1024,1276,1024,0,0,38,0,116.6,0,0,99,4.075,4.067,4.064,4.062,0,0,5.94,75.56,596.29843706055,3.937008,6,P-GPS,
6800,2025-09-09 00:00:56,39.3932713729951,-76.9726709725132,3.937008,,,596.29843706055,3.937008,0,0.7636319142,2.08017723192,20,5,16.153,596.29843706055,3.937008,0.9171454,0.7664698408,0,0,-0.894776,111.8, -0.6, 0.4,0,0,1024,1024,1286,1024,0,0,40,0,116.6,0,0,99,4.075,4.067,4.064,4.062,0,0,5.94,75.56,596.29843706055,3.937008,6,P-GPS,
6900,2025-09-09 00:00:56,39.3932705730049,-76.9726710907821,4.265092,,,596.62652106055,4.265092,0,0.90567260116,2.37395348804,20,5,16.153,596.62652106055,4.265092,0.9171454,0.90567260116,0,0,-0.894776,111.6, 0, -0.3,0,0,1024,1024,1286,1024,0,0,40,0,116.6,0,0,99,4.075,4.067,4.064,4.062,0,0,5.94,75.56,596.62652106055,4.265092,6,P-GPS,
7000,2025-09-09 00:00:56,39.3932702499079,-76.972670933882,4.265092,,,596.62652106055,4.265092,0,1.02077103004,2.49986228472,20,5,16.153,596.62652106055,4.265092,0.9171454,1.02077103004,0,0,-1.342164,111.4, 0.8, -1.2,0,0,1024,1024,1294,1024,0,0,41,0,116.6,0,0,99,4.075,4.067,4.064,4.062,0,0,5.94,75.56,596.62652106055,4.265092,6,P-GPS,
7100,2025-09-09 00:00:56,39.3932702785995,-76.972671120869,4.593176,,,596.95460506055,4.593176,0,0.9776575116,2.55361556728,20,5,16.103,596.95460506055,4.593176,0.9171454,1.02077103004,0,0,-1.565858,111.3, 1.2, -1.6,0,0,1024,1024,1307,1024,0,0,43,0,116.6,0,0,99,4.036,4.024,4.019,4.015,0,0,9.756,75.74,596.95460506055,4.593176,6,P-GPS,
7200,2025-09-09 00:00:57,39.3932701256428,-76.972671120359,4.92126,,,597.28268906055,4.92126,0,1.02041998016,2.60941937484,20,5,16.103,597.28268906055,4.92126,0.9171454,1.02077103004,0,0,-2.013246,111, 1.1, -1.6,0,0,1024,1024,1311,1024,0,0,43,0,116.6,0,0,99,4.036,4.024,4.019,4.015,0,0,9.756,75.74,597.28268906055,4.92126,6,P-GPS,
7300,2025-09-09 00:00:57,39.3932698270031,-76.9726715877115,5.249344,,,597.61077306055,5.249344,0,1.03603677856,2.78040691312,20,5,16.103,597.61077306055,5.249344,0.9171454,1.03603677856,0,0,-2.23694,110.8, 0.8, -1.5,0,0,1024,1024,1300,1024,0,0,42,0,116.6,0,0,99,4.036,4.024,4.019,4.015,0,0,9.756,75.74,597.61077306055,5.249344,6,P-GPS,
7400,2025-09-09 00:00:57,39.3932697891618,-76.9726716233884,5.577428,,,597.93885706055,5.905512,0,1.04318572892,2.797490247,20,5,16.103,597.93885706055,5.577428,0.9171454,1.04318572892,0,0,-2.460634,110.6, 0.4, -1.3,0,0,1024,1024,1299,1024,0,0,42,0,116.6,0,0,99,4.036,4.024,4.019,4.015,0,0,9.756,75.74,597.93885706055,5.577428,6,P-GPS,
7500,2025-09-09 00:00:57,39.3932694483842,-76.9726718972963,5.905512,,,598.26694106055,6.233596,0,1.122293343,2.94385508108,20,5,16.103,598.26694106055,5.905512,0.9171454,1.122293343,0,0,-2.460634,110.5, 0.3, -1,0,0,1024,1024,1301,1024,0,0,42,0,116.6,0,0,99,4.036,4.024,4.019,4.015,0,0,9.756,75.74,598.26694106055,5.905512,6,P-GPS,
7600,2025-09-09 00:00:57,39.3932694860392,-76.9726719441532,6.233596,,,598.59502506055,6.56168,0,1.10459977288,2.96291676148,20,5,16.103,598.59502506055,6.233596,0.9171454,1.122293343,0,0,-2.460634,110.4, 0.1, -0.8,0,0,1024,1024,1341,1024,0,0,48,0,116.6,0,0,99,4.036,4.024,4.019,4.015,0,0,9.756,75.74,598.59502506055,6.233596,6,P-GPS,
7700,2025-09-09 00:00:57,39.3932693587563,-76.9726721836287,6.56168,,,598.92310906055,7.217848,0,1.12538717512,3.044865583,20,5,16.103,598.92310906055,6.56168,0.9171454,1.12538717512,0,0,-2.460634,110.3, -0.1, -0.5,0,0,1024,1024,1341,1024,0,0,48,0,116.6,0,0,99,4.036,4.024,4.019,4.015,0,0,9.756,75.74,598.92310906055,6.56168,6,P-GPS,
7800,2025-09-09 00:00:57,39.3932694436187,-76.9726722075768,7.217848,,,599.57927706055,7.545932,0,1.0938484602,3.07655521656,20,5,16.103,599.57927706055,7.217848,0.9171454,1.12538717512,0,0,-2.460634,110.3, -0.4, -0.2,0,0,1024,1024,1382,1024,0,0,54,0,116.6,0,0,99,4.036,4.024,4.019,4.015,0,0,9.756,75.74,599.57927706055,7.217848,6,P-GPS,
7900,2025-09-09 00:00:57,39.3932692964599,-76.9726724900348,7.545932,,,599.90736106055,8.2021,0,1.12417326432,3.1726050884,20,5,16.103,599.90736106055,7.545932,0.9171454,1.12538717512,0,0,-2.684328,110.3, -0.7, 0,0,0,1024,1024,1386,1024,0,0,55,0,116.6,0,0,99,4.036,4.024,4.019,4.015,0,0,9.756,75.74,599.90736106055,7.545932,6,P-GPS,
8000,2025-09-09 00:00:57,39.3932693839739,-76.9726725317451,8.2021,,,600.56352906055,8.530184,0,1.09040685904,3.20663068004,20,5,16.103,600.56352906055,8.2021,0.9171454,1.12538717512,0,0,-2.908022,110.4, -0.9, 0.1,0,0,1024,1024,1364,1024,0,0,52,0,116.6,0,0,99,4.036,4.024,4.019,4.015,0,0,9.756,75.74,600.56352906055,8.2021,6,P-GPS,
8100,2025-09-09 00:00:57,39.3932688050175,-76.9726725280175,8.530184,,,600.89161306055,9.186352,0,1.29727366356,3.4178806868,20,5,16.055,600.89161306055,8.530184,0.9171454,1.29727366356,0,0,-3.579104,110.5, -0.7, 0.1,0,0,1024,1024,1380,1024,0,0,54,0,116.6,0,0,99,4.011,4.006,4.008,4.013,0,0,9.744,75.74,600.89161306055,8.530184,6,P-GPS,
8200,2025-09-09 00:00:57,39.3932688755298,-76.9726725975643,9.186352,,,601.54778106055,9.84252,0,1.26836946316,3.4502297692,20,5,16.055,601.54778106055,9.186352,0.9171454,1.29727366356,0,0,-3.579104,110.6, -0.3, 0.1,0,0,1024,1024,1413,1024,0,0,59,0,116.6,0,0,99,4.011,4.006,4.008,4.013,0,0,9.744,75.74,601.54778106055,9.186352,6,P-GPS,
8300,2025-09-09 00:00:58,39.3932685753137,-76.9726728851826,9.84252,,,602.20394906055,10.170604,0,1.36522642164,3.5865158628,20,5,16.055,602.20394906055,9.84252,0.9171454,1.36522642164,0,0,-3.579104,110.7, -0.4, 0.1,0,0,1024,1024,1432,1024,0,0,62,0,116.6,0,0,99,4.011,4.006,4.008,4.013,0,0,9.744,75.74,602.20394906055,9.84252,6,P-GPS,
8400,2025-09-09 00:00:58,39.3932686419708,-76.9726729844283,10.498688,,,602.86011706055,10.826772,0,1.3382874444,3.6235893548,20,5,16.055,602.86011706055,10.498688,0.9171454,1.36522642164,0,0,-3.802798,110.8, -0.9, 0.1,0,0,1024,1024,1432,1024,0,0,62,0,116.6,0,0,99,4.011,4.006,4.008,4.013,0,0,9.744,75.74,602.86011706055,10.498688,6,P-GPS,"SD card speed low. Normal use may be affected. Replace SD card (Code: 10028). Ambient light too low. Vision system and obstacle sensing unavailable. Fly with caution (Code: 180037)"
8500,2025-09-09 00:00:58,39.3932682456479,-76.9726730440533,11.48294,,,603.84436906055,11.48294,0,1.48113193716,3.7691602256,20,5,16.055,603.84436906055,11.48294,0.9171454,1.48113193716,0,0,-4.250186,110.9, -1.2, 0,0,0,1024,1024,1439,1024,0,0,63,0,116.6,0,0,99,4.011,4.006,4.008,4.013,0,0,9.744,75.74,603.84436906055,11.48294,6,P-GPS,
8600,2025-09-09 00:00:58,39.3932682891414,-76.9726730970157,12.139108,,,604.50053706055,12.139108,0,1.46434387888,3.7909450032,20,5,16.055,604.50053706055,12.139108,0.9171454,1.48113193716,0,0,-4.697574,110.9, -1.1, 0,0,0,1024,1024,1431,1024,0,0,62,0,116.6,0,0,99,4.011,4.006,4.008,4.013,0,0,9.744,75.74,604.50053706055,12.139108,6,P-GPS,
8700,2025-09-09 00:00:58,39.3932681180865,-76.9726732728614,13.12336,,,605.48478906055,12.795276,0,1.52464899892,3.8706366068,20,5,16.055,605.48478906055,13.12336,0.9171454,1.52464899892,0,0,-4.921268,110.9, -0.7, 0,0,0,1024,1024,1423,1024,0,0,60,0,116.6,0,0,99,4.011,4.006,4.008,4.013,0,0,9.744,75.74,605.48478906055,13.12336,6,P-GPS,
8800,2025-09-09 00:00:58,39.3932681471722,-76.9726732714397,13.779528,,,606.14095706055,13.779528,0,1.51404860488,3.8812665284,20,5,16.055,606.14095706055,13.779528,0.9171454,1.52464899892,0,0,-5.144962,110.9, -0.3, 0,0,0,1024,1024,1423,1024,0,0,60,0,116.6,0,0,99,4.011,4.006,4.008,4.013,0,0,9.744,75.74,606.14095706055,13.779528,6,P-GPS,
8900,2025-09-09 00:00:58,39.3932678231393,-76.9726732759793,14.76378,,,607.12520906055,14.435696,0,1.63221133832,3.999508002,20,5,16.055,607.12520906055,14.76378,0.9171454,1.63221133832,0,0,-5.144962,111, -0.2, 0,0,0,1024,1024,1431,1024,0,0,62,0,116.6,0,0,99,4.011,4.006,4.008,4.013,0,0,9.744,75.74,607.12520906055,14.76378,6,P-GPS,
9000,2025-09-09 00:00:58,39.3932678678386,-76.9726733121079,15.748032,,,608.10946106055,15.091864,0,1.61571199396,4.0187337244,20,5,16.055,608.10946106055,15.748032,0.9171454,1.63221133832,0,0,-4.921268,111, -0.4, 0,0,0,1024,1024,1451,1024,0,0,65,0,116.6,0,0,99,4.011,4.006,4.008,4.013,0,0,9.744,75.74,608.10946106055,15.748032,6,P-GPS,
9100,2025-09-09 00:00:58,39.3932674455249,-76.9726732135607,16.732284,,,609.09371306055,15.748032,0,1.77039703828,4.1752954092,20,5,15.917,609.09371306055,16.732284,0.9171454,1.77039703828,0,0,-4.921268,111, -0.9, 0.1,0,0,1024,1024,1458,1024,0,0,66,0,116.6,0,0,99,4.013,4.003,3.997,3.996,0,0,10.778,75.92,609.09371306055,16.732284,6,P-GPS,
9200,2025-09-09 00:00:59,39.3932674862191,-76.9726732663208,17.388452,,,609.74988106055,16.732284,0,1.75516409816,4.1962927852,20,5,15.917,609.74988106055,17.388452,0.9171454,1.77039703828,0,0,-4.921268,110.9, -1.2, 0.2,0,0,1024,1024,1458,1024,0,0,66,0,116.6,0,0,99,4.013,4.003,3.997,3.996,0,0,10.778,75.92,609.74988106055,17.388452,6,P-GPS,
9300,2025-09-09 00:00:59,39.3932670275376,-76.9726733202532,18.372704,,,610.73413306055,17.388452,0,1.92223103264,4.36433741,21,5,15.917,610.73413306055,18.372704,0.9171454,1.92223103264,0,0,-5.144962,110.9, -1.4, 0.1,0,0,1024,1024,1457,1024,0,0,66,0,116.6,0,0,99,4.013,4.003,3.997,3.996,0,0,10.778,75.92,610.73413306055,18.372704,6,P-GPS,
9400,2025-09-09 00:00:59,39.3932670537383,-76.9726733571634,19.356956,,,611.71838506055,18.04462,0,1.91257552052,4.3784778304,21,5,15.917,611.71838506055,19.356956,0.9171454,1.92223103264,0,0,-5.368656,110.9, -1.2, 0.1,0,0,1024,1024,1457,1024,0,0,66,0,116.6,0,0,99,4.013,4.003,3.997,3.996,0,0,10.778,75.92,611.71838506055,19.356956,6,P-GPS,
9500,2025-09-09 00:00:59,39.3932667044932,-76.9726733152203,20.341208,,,612.70263706055,19.028872,0,2.04010177132,4.5064305904,21,5,15.917,612.70263706055,20.341208,0.9171454,2.04010177132,0,0,-5.59235,110.9, -0.8, 0,0,0,1024,1024,1457,1024,0,0,66,0,116.6,0,0,99,4.013,4.003,3.997,3.996,0,0,10.778,75.92,612.70263706055,20.341208,6,P-GPS,
9600,2025-09-09 00:00:59,39.3932667231846,-76.9726733617474,21.32546,,,613.68688906055,19.68504,0,2.03316607556,4.5212271788,21,5,15.917,613.68688906055,21.32546,0.9171454,2.04010177132,0,0,-5.59235,110.9, -0.7, 0,0,0,1024,1024,1460,1024,0,0,66,0,116.6,0,0,99,4.013,4.003,3.997,3.996,0,0,10.778,75.92,613.68688906055,21.32546,6,P-GPS,
9700,2025-09-09 00:00:59,39.3932664665145,-76.9726730253238,22.309712,,,614.67114106055,20.669292,0,2.12944888704,4.654527708,21,5,15.917,614.67114106055,22.309712,0.9171454,2.12944888704,0,0,-5.59235,110.9, -0.9, 0.1,0,0,1024,1024,1462,1024,0,0,66,0,116.6,0,0,99,4.013,4.003,3.997,3.996,0,0,10.778,75.92,614.67114106055,22.309712,6,P-GPS,
9800,2025-09-09 00:00:59,39.3932664107999,-76.9726729052978,22.96588,,,615.32730906055,21.32546,0,2.15169298224,4.6939962132,21,5,15.917,615.32730906055,22.96588,0.9171454,2.15169298224,0,0,-5.59235,110.9, -0.5, 0,0,0,1024,1024,1463,1024,0,0,67,0,116.6,0,0,99,4.013,4.003,3.997,3.996,0,0,10.778,75.92,615.32730906055,22.96588,6,P-GPS,
9900,2025-09-09 00:00:59,39.3932663711498,-76.9726731293003,23.950132,,,616.31156106055,21.981628,0,2.16295282512,4.7587928032,21,5,15.917,616.31156106055,23.950132,0.9171454,2.16295282512,0,0,-5.59235,110.9, -0.4, 0,0,0,1024,1024,1463,1024,0,0,67,0,116.6,0,0,99,4.013,4.003,3.997,3.996,0,0,10.778,75.92,616.31156106055,23.950132,6,P-GPS,
10000,2025-09-09 00:00:59,39.3932663948446,-76.9726731965384,24.934384,,,617.29581306055,22.96588,0,2.15371726052,4.7796261372,21,5,15.917,617.29581306055,24.934384,0.9171454,2.16295282512,0,0,-5.816044,110.9, -0.7, 0,0,0,1024,1024,1462,1024,0,0,66,0,116.6,0,0,99,4.013,4.003,3.997,3.996,0,0,10.778,75.92,617.29581306055,24.934384,6,P-GPS,"Home Point updated (Code: 123200)"
10100,2025-09-09 00:00:59,39.393266511956,-76.9726732947476,25.918636,,,618.28006506055,23.622048,0,2.11042001504,4.830544774,21,5,15.933,618.28006506055,25.918636,0.9171454,2.16295282512,0,0,-5.816044,110.9, -0.9, 0.1,0,0,1024,1024,1446,1024,0,0,64,0,116.6,0,0,99,3.998,3.989,3.987,3.989,0,0,10.674,75.74,618.28006506055,25.918636,6,P-GPS,
10200,2025-09-09 00:00:59,39.3932665439395,-76.9726734608711,26.902888,,,619.26431706055,24.278216,0,2.09859258684,4.8788387388,21,5,15.933,619.26431706055,26.902888,0.9171454,2.16295282512,0,0,-5.816044,110.9, -1.2, 0,0,0,1024,1024,1452,1024,0,0,65,0,116.6,0,0,99,3.998,3.989,3.987,3.989,0,0,10.674,75.74,619.26431706055,26.902888,6,P-GPS,
10300,2025-09-09 00:01:00,39.3932665278867,-76.9726735116523,27.88714,,,620.24856906055,24.6063,0,2.10460636656,4.8942914952,21,5,15.933,620.24856906055,27.88714,0.9171454,2.16295282512,0,0,-5.59235,110.9, -1.2, 0,0,0,1024,1024,1463,1024,0,0,67,0,116.6,0,0,99,3.998,3.989,3.987,3.989,0,0,10.674,75.74,620.24856906055,27.88714,6,P-GPS,
10400,2025-09-09 00:01:00,39.3932664962031,-76.9726735400736,28.543308,,,620.90473706055,25.262468,0,2.11629599948,4.9083662988,21,5,15.933,620.90473706055,28.543308,0.9171454,2.16295282512,0,0,-5.59235,110.9, -1.3, -0.2,0,0,1024,1024,1456,1024,0,0,65,0,116.6,0,0,99,3.998,3.989,3.987,3.989,0,0,10.674,75.74,620.90473706055,28.543308,6,P-GPS,
10500,2025-09-09 00:01:00,39.3932665191728,-76.9726734097378,29.52756,,,621.88898906055,25.918636,0,2.10756568424,4.9460631504,21,5,15.933,621.88898906055,29.52756,0.9171454,2.16295282512,0,0,-5.59235,110.9, -1.5, -0.2,0,0,1024,1024,1455,1024,0,0,65,0,116.6,0,0,99,3.998,3.989,3.987,3.989,0,0,10.674,75.74,621.88898906055,29.52756,6,P-GPS,
10600,2025-09-09 00:01:00,39.3932665470462,-76.9726732842826,30.183728,,,622.54515706055,26.574804,0,2.09766410912,4.9828741752,21,5,15.933,622.54515706055,30.183728,0.9171454,2.16295282512,0,0,-5.59235,111, -0.9, 0,0,0,1024,1024,1455,1024,0,0,65,0,116.6,0,0,99,3.998,3.989,3.987,3.989,0,0,10.674,75.74,622.54515706055,30.183728,6,P-GPS,
10700,2025-09-09 00:01:00,39.3932662118202,-76.9726735005361,31.16798,,,623.52940906055,27.230972,0,2.21987211828,5.1195211612,21,5,15.933,623.52940906055,31.16798,0.9171454,2.21987211828,0,0,-5.59235,110.9, -0.3, 0.3,0,0,1024,1024,1455,1024,0,0,65,0,116.6,0,0,99,3.998,3.989,3.987,3.989,0,0,10.674,75.74,623.52940906055,31.16798,6,P-GPS,
10800,2025-09-09 00:01:00,39.3932660672209,-76.9726735174475,32.152232,,,624.51366106055,27.559056,0,2.2726870806,5.1725067272,21,5,15.933,624.51366106055,32.152232,0.9171454,2.2726870806,0,0,-5.59235,110.9, -0.1, -0.3,0,0,1024,1024,1455,1024,0,0,65,0,116.6,0,0,99,3.998,3.989,3.987,3.989,0,0,10.674,75.74,624.51366106055,32.152232,6,P-GPS,
10900,2025-09-09 00:01:00,39.3932660287285,-76.9726735535068,32.8084,,,625.16982906055,27.88714,0,2.28689639864,5.1898295624,21,5,15.933,625.16982906055,32.8084,0.9171454,2.28689639864,0,0,-5.59235,110.9, -0.2, -0.7,0,0,1024,1024,1456,1024,0,0,65,0,116.6,0,0,99,3.998,3.989,3.987,3.989,0,0,10.674,75.74,625.16982906055,32.8084,6,P-GPS,
11000,2025-09-09 00:01:00,39.3932658457673,-76.9726735863956,33.792652,,,626.15408106055,28.871392,0,2.3538222538,5.257218016,21,5,15.933,626.15408106055,33.792652,0.9171454,2.3538222538,0,0,-5.59235,110.9, -0.3, -1.3,0,0,1024,1024,1456,1024,0,0,65,0,116.6,0,0,99,3.998,3.989,3.987,3.989,0,0,10.674,75.74,626.15408106055,33.792652,6,P-GPS,
11100,2025-09-09 00:01:00,39.3932662637728,-76.9726735244177,34.776904,,,627.13833306055,29.52756,0,2.20101384996,5.4107285196,21,5,15.961,627.13833306055,34.776904,0.9171454,2.3538222538,0,0,-5.59235,110.9, -0.5, -1.4,0,0,1024,1024,1456,1024,0,0,65,0,116.6,0,0,99,3.991,3.981,3.979,3.984,0,0,9.832,75.92,627.13833306055,34.776904,6,P-GPS,
11200,2025-09-09 00:01:00,39.3932663410125,-76.9726734030586,35.761156,,,628.12258506055,30.511812,0,2.17256568632,5.455052668,21,5,15.961,628.12258506055,35.761156,0.9171454,2.3538222538,0,0,-5.59235,110.8, -0.4, -0.6,0,0,1024,1024,1456,1024,0,0,65,0,116.6,0,0,99,3.991,3.981,3.979,3.984,0,0,9.832,75.92,628.12258506055,35.761156,6,P-GPS,
11300,2025-09-09 00:01:01,39.3932662602442,-76.9726737275206,36.745408,,,629.10683706055,31.16798,0,2.20393051672,5.55118128,21,5,15.961,629.10683706055,36.745408,0.9171454,2.3538222538,0,0,-5.59235,110.8, -0.2, 0,0,0,1024,1024,1456,1024,0,0,65,0,116.6,0,0,99,3.991,3.981,3.979,3.984,0,0,9.832,75.92,629.10683706055,36.745408,6,P-GPS,
11400,2025-09-09 00:01:01,39.3932663110991,-76.9726739289302,37.401576,,,629.76300506055,31.16798,0,2.18850400704,5.6109253764,21,5,15.961,629.76300506055,37.401576,0.9171454,2.3538222538,0,0,-5.59235,110.7, -0.8, 0,0,0,1024,1024,1456,1024,0,0,65,0,116.6,0,0,99,3.991,3.981,3.979,3.984,0,0,9.832,75.92,629.76300506055,37.401576,6,P-GPS,
11500,2025-09-09 00:01:01,39.3932662961119,-76.9726737524083,38.385828,,,630.74725706055,31.16798,0,2.1911582066,5.6609909948,21,5,15.961,630.74725706055,38.385828,0.9171454,2.3538222538,0,0,-5.59235,110.7, -1.2, 0,0,0,1024,1024,1456,1024,0,0,65,0,116.6,0,0,99,3.991,3.981,3.979,3.984,0,0,9.832,75.92,630.74725706055,38.385828,6,P-GPS,
11600,2025-09-09 00:01:01,39.3932662599454,-76.9726737901499,39.37008,,,631.73150906055,31.16798,0,2.20484259024,5.6779529376,21,5,15.961,631.73150906055,39.37008,0.9171454,2.3538222538,0,0,-5.59235,110.7, -1.1, -0.4,0,0,1024,1024,1456,1024,0,0,65,0,116.6,0,0,99,3.991,3.981,3.979,3.984,0,0,9.832,75.92,631.73150906055,39.37008,6,P-GPS,
11700,2025-09-09 00:01:01,39.3932665350693,-76.9726736377145,40.354332,,,632.71576106055,31.16798,0,2.1028051854,5.7871392928,21,5,15.961,632.71576106055,40.354332,0.9171454,2.3538222538,0,0,-5.59235,110.8, -0.9, -0.5,0,0,1024,1024,1456,1024,0,0,65,0,116.6,0,0,99,3.991,3.981,3.979,3.984,0,0,9.832,75.92,632.71576106055,40.354332,6,P-GPS,
11800,2025-09-09 00:01:01,39.3932666700776,-76.9726736516189,41.338584,,,633.70001306055,31.16798,0,2.05370085312,5.8365487432,21,5,15.961,633.70001306055,41.338584,0.9171454,2.3538222538,0,0,-5.59235,110.8, -0.9, 0,0,0,1024,1024,1456,1024,0,0,65,0,116.6,0,0,99,3.991,3.981,3.979,3.984,0,0,9.832,75.92,633.70001306055,41.338584,6,P-GPS,
11900,2025-09-09 00:01:01,39.3932665483516,-76.9726735181015,42.322836,,,634.68426506055,31.16798,0,2.09716870228,5.8947836532,21,5,15.961,634.68426506055,42.322836,0.9171454,2.3538222538,0,0,-5.59235,110.8, -0.8, 0.3,0,0,1024,1024,1456,1024,0,0,65,0,116.6,0,0,99,3.991,3.981,3.979,3.984,0,0,9.832,75.92,634.68426506055,42.322836,6,P-GPS,
12000,2025-09-09 00:01:01,39.3932665565098,-76.9726735692403,42.979004,,,635.34043306055,31.16798,0,2.09446529012,5.9094818164,21,5,15.961,635.34043306055,42.979004,0.9171454,2.3538222538,0,0,-5.59235,110.8, -0.8, 0.2,0,0,1024,1024,1457,1024,0,0,66,0,116.6,0,0,99,3.991,3.981,3.979,3.984,0,0,9.832,75.92,635.34043306055,42.979004,6,P-GPS,
12100,2025-09-09 00:01:01,39.3932665944999,-76.9726732868101,43.963256,,,636.32468506055,31.16798,0,2.08034127392,5.990321714,21,5,15.947,636.32468506055,43.963256,0.9171454,2.3538222538,0,0,-5.59235,110.9, -0.8, 0.1,0,0,1024,1024,1459,1024,0,0,66,0,116.6,0,0,99,3.993,3.985,3.984,3.987,0,0,9.84,75.92,636.32468506055,43.963256,6,P-GPS,
12200,2025-09-09 00:01:02,39.393266637276,-76.9726732113823,44.947508,,,637.30893706055,31.16798,0,2.06518707396,6.0166996676,21,5,15.947,637.30893706055,44.947508,0.9171454,2.3538222538,0,0,-5.59235,110.9, -0.5, 0.2,0,0,1024,1024,1459,1024,0,0,66,0,116.6,0,0,99,3.993,3.985,3.984,3.987,0,0,9.84,75.92,637.30893706055,44.947508,6,P-GPS,
12300,2025-09-09 00:01:02,39.3932666291264,-76.9726730358969,45.93176,,,638.29318906055,31.16798,0,2.070045998,6.06627316,21,5,15.947,638.29318906055,45.93176,0.9171454,2.3538222538,0,0,-5.59235,110.9, -0.4, 0.3,0,0,1024,1024,1462,1024,0,0,66,0,116.6,0,0,99,3.993,3.985,3.984,3.987,0,0,9.84,75.92,638.29318906055,45.93176,6,P-GPS,
12400,2025-09-09 00:01:02,39.3932665721867,-76.9726728555309,46.916012,,,639.27744106055,31.16798,0,2.0939305132,6.1211944216,21,5,15.947,639.27744106055,46.916012,0.9171454,2.3538222538,0,0,-5.59235,110.9, 0, 0.2,0,0,1024,1024,1462,1024,0,0,66,0,116.6,0,0,99,3.993,3.985,3.984,3.987,0,0,9.84,75.92,639.27744106055,46.916012,6,P-GPS,
12500,2025-09-09 00:01:02,39.3932666279356,-76.9726728594913,47.57218,,,639.93360906055,31.16798,0,2.07356305848,6.141568438,21,5,15.947,639.93360906055,47.57218,0.9171454,2.3538222538,0,0,-5.59235,111, 0.2, 0.1,0,0,1024,1024,1462,1024,0,0,66,0,116.6,0,0,99,3.993,3.985,3.984,3.987,0,0,9.84,75.92,639.93360906055,47.57218,6,P-GPS,
12600,2025-09-09 00:01:02,39.3932666240996,-76.9726727157001,48.556432,,,640.91786106055,31.16798,0,2.07834980404,6.1821524288,21,5,15.947,640.91786106055,48.556432,0.9171454,2.3538222538,0,0,-5.59235,111, 0.3, 0.1,0,0,1024,1024,1462,1024,0,0,66,0,116.6,0,0,99,3.993,3.985,3.984,3.987,0,0,9.84,75.92,640.91786106055,48.556432,6,P-GPS,
12700,2025-09-09 00:01:02,39.3932666587904,-76.972672840784,49.540684,,,641.90211306055,31.16798,0,2.06273628648,6.2196196216,21,5,15.947,641.90211306055,49.540684,0.9171454,2.3538222538,0,0,-5.816044,111, 0.2, 0.2,0,0,1024,1024,1462,1024,0,0,66,0,116.6,0,0,99,3.993,3.985,3.984,3.987,0,0,9.84,75.92,641.90211306055,49.540684,6,P-GPS,
12800,2025-09-09 00:01:02,39.3932665891155,-76.9726728401937,50.524936,,,642.88636506055,31.16798,0,2.08809389884,6.2450461316,21,5,15.947,642.88636506055,50.524936,0.9171454,2.3538222538,0,0,-5.816044,110.9, 0.1, 0,0,0,1024,1024,1462,1024,0,0,66,0,116.6,0,0,99,3.993,3.985,3.984,3.987,0,0,9.84,75.92,642.88636506055,50.524936,6,P-GPS,
12900,2025-09-09 00:01:02,39.3932668472345,-76.972672762593,51.181104,,,643.54253306055,31.16798,0,1.99606633684,6.3417324864,21,5,15.947,643.54253306055,51.181104,0.9171454,2.3538222538,0,0,-5.816044,110.9, 0, -0.2,0,0,1024,1024,1459,1024,0,0,66,0,116.6,0,0,99,3.993,3.985,3.984,3.987,0,0,9.84,75.92,643.54253306055,51.181104,6,P-GPS,
13000,2025-09-09 00:01:02,39.3932669061276,-76.9726727171219,52.165356,,,644.52678506055,31.16798,0,1.97588260916,6.3667324872,21,5,15.947,644.52678506055,52.165356,0.9171454,2.3538222538,0,0,-5.816044,110.9, -0.1, 0,0,0,1024,1024,1444,1024,0,0,64,0,116.6,0,0,99,3.993,3.985,3.984,3.987,0,0,9.84,75.92,644.52678506055,52.165356,6,P-GPS,
13100,2025-09-09 00:01:02,39.3932669822364,-76.9726727319159,53.149608,,,645.51103706055,31.16798,0,1.94784126968,6.3948164776,21,5,15.931,645.51103706055,53.149608,0.9171454,2.3538222538,0,0,-5.816044,110.9, -0.1, 0.1,0,0,1024,1024,1444,1024,0,0,64,0,116.6,0,0,99,3.989,3.98,3.979,3.982,0,0,10.004,76.1,645.51103706055,53.149608,6,P-GPS,
13200,2025-09-09 00:01:02,39.3932670832609,-76.9726727403688,54.13386,,,646.49528906055,31.16798,0,1.910925258,6.431758736,21,5,15.931,646.49528906055,54.13386,0.9171454,2.3538222538,0,0,-5.59235,110.9, -0.1, 0.5,0,0,1024,1024,1427,1024,0,0,61,0,116.6,0,0,99,3.989,3.98,3.979,3.982,0,0,10.004,76.1,646.49528906055,54.13386,6,P-GPS,
13300,2025-09-09 00:01:03,39.3932670005552,-76.972672678898,55.118112,,,647.47954106055,31.16798,0,1.94270347424,6.4665684484,21,5,15.931,647.47954106055,55.118112,0.9171454,2.3538222538,0,0,-5.368656,110.9, -0.1, 0.6,0,0,1024,1024,1421,1024,0,0,60,0,116.6,0,0,99,3.989,3.98,3.979,3.982,0,0,10.004,76.1,647.47954106055,55.118112,6,P-GPS,
13400,2025-09-09 00:01:03,39.393267074306,-76.9726726310711,55.77428,,,648.13570906055,31.16798,0,1.91743116372,6.4966537512,21,5,15.931,648.13570906055,55.77428,0.9171454,2.3538222538,0,0,-5.144962,110.9, 0, 0.7,0,0,1024,1024,1416,1024,0,0,59,0,116.6,0,0,99,3.989,3.98,3.979,3.982,0,0,10.004,76.1,648.13570906055,55.77428,6,P-GPS,
13500,2025-09-09 00:01:03,39.3932669563774,-76.9726727396094,56.758532,,,649.11996106055,31.16798,0,1.95702434084,6.5494424668,21,5,15.931,649.11996106055,56.758532,0.9171454,2.3538222538,0,0,-4.921268,110.9, -0.3, 0.7,0,0,1024,1024,1407,1024,0,0,58,0,116.6,0,0,99,3.989,3.98,3.979,3.982,0,0,10.004,76.1,649.11996106055,56.758532,6,P-GPS,
13600,2025-09-09 00:01:03,39.3932669653323,-76.9726727678339,57.4147,,,649.77612906055,31.16798,0,1.95302499688,6.558071076,21,5,15.931,649.77612906055,57.4147,0.9171454,2.3538222538,0,0,-4.697574,111, -0.6, 0.5,0,0,1024,1024,1391,1024,0,0,56,0,116.6,0,0,99,3.989,3.98,3.979,3.982,0,0,10.004,76.1,649.77612906055,57.4147,6,P-GPS,
13700,2025-09-09 00:01:03,39.3932669858325,-76.9726726566294,58.070868,,,650.43229706055,31.16798,0,1.94871397312,6.5902889248,22,5,15.931,650.43229706055,58.070868,0.9171454,2.3538222538,0,0,-4.697574,111, -0.7, 0.3,0,0,1024,1024,1325,1024,0,0,46,0,116.6,0,0,99,3.989,3.98,3.979,3.982,0,0,10.004,76.1,650.43229706055,58.070868,6,P-GPS,
13800,2025-09-09 00:01:03,39.3932669487365,-76.9726725771026,58.727036,,,651.08846506055,31.16798,0,1.96470478728,6.616470028,22,5,15.931,651.08846506055,58.727036,0.9171454,2.3538222538,0,0,-4.47388,111, -0.2, 0.1,0,0,1024,1024,1325,1024,0,0,46,0,116.6,0,0,99,3.989,3.98,3.979,3.982,0,0,10.004,76.1,651.08846506055,58.727036,6,P-GPS,
13900,2025-09-09 00:01:03,39.3932668979395,-76.9726727221493,59.383204,,,651.74463306055,31.16798,0,1.97872053576,6.6613847276,22,5,15.931,651.74463306055,59.383204,0.9171454,2.3538222538,0,0,-4.250186,111.1, 0.2, 0.1,0,0,1024,1024,1193,1024,0,0,26,0,116.6,0,0,99,3.989,3.98,3.979,3.982,0,0,10.004,76.1,651.74463306055,59.383204,6,P-GPS,
14000,2025-09-09 00:01:03,39.3932668807965,-76.9726727086052,60.039372,,,652.40080106055,31.16798,0,1.985318305,6.6687010008,22,5,15.931,652.40080106055,60.039372,0.9171454,2.3538222538,0,0,-3.35541,111.1, 1.1, 0.1,0,0,1024,1024,1412,1024,0,0,59,0,116.6,0,0,99,3.989,3.98,3.979,3.982,0,0,10.004,76.1,652.40080106055,60.039372,6,P-GPS,
14100,2025-09-09 00:01:03,39.3932669067048,-76.9726728384532,60.367456,,,652.72888506055,31.16798,0,1.97261817336,6.706529086,22,5,15.991,652.72888506055,60.367456,0.9171454,2.3538222538,0,0,-2.460634,111.1, 0.4, 0.1,0,0,1024,1024,1418,1024,0,0,60,0,116.6,0,0,99,4.005,3.994,3.99,3.992,0,0,8.637,76.1,652.72888506055,60.367456,6,P-GPS,
14200,2025-09-09 00:01:04,39.3932669214618,-76.9726729182211,60.69554,,,653.05696906055,31.16798,0,1.96555780568,6.729659008,22,5,15.991,653.05696906055,60.69554,0.9171454,2.3538222538,0,0,-2.684328,110.9, -2.1, 0.2,0,0,1024,1024,1414,1024,0,0,59,0,116.6,0,0,99,4.005,3.994,3.99,3.992,0,0,8.637,76.1,653.05696906055,60.69554,6,P-GPS,
14300,2025-09-09 00:01:04,39.3932668875228,-76.9726728231077,61.351708,,,653.71313706055,31.16798,0,1.97994756992,6.759186568,22,5,15.991,653.71313706055,61.351708,0.9171454,2.3538222538,0,0,-3.579104,111, -2.7, 0.2,0,0,1024,1024,1355,1024,0,0,50,0,116.6,0,0,99,4.005,3.994,3.99,3.992,0,0,8.637,76.1,653.71313706055,61.351708,6,P-GPS,
14400,2025-09-09 00:01:04,39.393266851759,-76.972672753353,62.007876,,,654.36930506055,31.16798,0,1.99466213732,6.7827758076,22,5,15.991,654.36930506055,62.007876,0.9171454,2.3538222538,0,0,-4.026492,111, -1.1, 0,0,0,1024,1024,1345,1024,0,0,49,0,116.6,0,0,99,4.005,3.994,3.99,3.992,0,0,8.637,76.1,654.36930506055,62.007876,6,P-GPS,
14500,2025-09-09 00:01:04,39.3932668205669,-76.9726727423919,62.33596,,,654.69738906055,31.16798,0,2.00627959176,6.7945868316,22,5,15.991,654.69738906055,62.33596,0.9171454,2.3538222538,0,0,-4.250186,111, 0.9, 0,0,0,1024,1024,1345,1024,0,0,49,0,116.6,0,0,99,4.005,3.994,3.99,3.992,0,0,8.637,76.1,654.69738906055,62.33596,6,P-GPS,
14600,2025-09-09 00:01:04,39.3932668067052,-76.9726726502856,63.320212,,,655.68164106055,31.16798,0,2.01388785972,6.821030402,22,5,15.991,655.68164106055,63.320212,0.9171454,2.3538222538,0,0,-3.802798,111, 2.1, 0,0,0,1024,1024,1350,1024,0,0,49,0,116.6,0,0,99,4.005,3.994,3.99,3.992,0,0,8.637,76.1,655.68164106055,63.320212,6,P-GPS,
14700,2025-09-09 00:01:04,39.3932666943806,-76.9726727077738,63.648296,,,656.00972506055,31.16798,0,2.05303156176,6.8651248916,22,5,15.991,656.00972506055,63.648296,0.9171454,2.3538222538,0,0,-3.35541,110.9, 1.5, 0.1,0,0,1024,1024,1363,1024,0,0,51,0,116.6,0,0,99,4.005,3.994,3.99,3.992,0,0,8.637,76.1,656.00972506055,63.648296,6,P-GPS,
14800,2025-09-09 00:01:04,39.3932666574581,-76.9726727184383,64.304464,,,656.66589306055,31.16798,0,2.0661582026,6.8789044196,22,5,15.991,656.66589306055,64.304464,0.9171454,2.3538222538,0,0,-3.131716,110.8, 0.3, 0,0,0,1024,1024,1360,1024,0,0,51,0,116.6,0,0,99,4.005,3.994,3.99,3.992,0,0,8.637,76.1,656.66589306055,64.304464,6,P-GPS,
14900,2025-09-09 00:01:04,39.3932666162156,-76.9726728120468,64.960632,,,657.32206106055,31.16798,0,2.07885833424,6.909284998,22,5,15.991,657.32206106055,64.960632,0.9171454,2.3538222538,0,0,-3.131716,110.7, -0.6, 0,0,0,1024,1024,1361,1024,0,0,51,0,116.6,0,0,99,4.005,3.994,3.99,3.992,0,0,8.637,76.1,657.32206106055,64.960632,6,P-GPS,
15000,2025-09-09 00:01:04,39.3932665463801,-76.9726728831567,65.288716,,,657.65014506055,31.16798,0,2.10276253448,6.9417325056,22,5,15.991,657.65014506055,65.288716,0.9171454,2.3538222538,0,0,-3.131716,110.7, -0.9, -0.2,0,0,1024,1024,1367,1024,0,0,52,0,116.6,0,0,99,4.005,3.994,3.99,3.992,0,0,8.637,76.1,657.65014506055,65.288716,6,P-GPS,
15100,2025-09-09 00:01:04,39.3932666288191,-76.9726729616802,65.944884,,,658.30631306055,31.16798,0,2.0713091214,6.9790684648,22,5,15.934,658.30631306055,65.944884,0.9171454,2.3538222538,0,0,-3.35541,110.7, -0.7, -0.3,0,0,1024,1024,1372,1024,0,0,53,0,116.6,0,0,99,3.94,3.935,3.942,3.958,0,0,8.937,76.28,658.30631306055,65.944884,6,P-GPS,
15200,2025-09-09 00:01:04,39.3932666686009,-76.9726730611032,66.601052,,,658.96248106055,31.16798,0,2.0553150264,7.0106301456,22,5,15.934,658.96248106055,66.601052,0.9171454,2.3538222538,0,0,-3.35541,110.7, -0.7, -0.2,0,0,1024,1024,1373,1024,0,0,53,0,116.6,0,0,99,3.94,3.935,3.942,3.958,0,0,8.937,76.28,658.96248106055,66.601052,6,P-GPS,
15300,2025-09-09 00:01:05,39.3932665687619,-76.9726729458635,66.929136,,,659.29056506055,31.16798,0,2.09345151056,7.0594490448,22,5,15.934,659.29056506055,66.929136,0.9171454,2.3538222538,0,0,-3.35541,110.7, -0.7, 0,0,0,1024,1024,1373,1024,0,0,53,0,116.6,0,0,99,3.94,3.935,3.942,3.958,0,0,8.937,76.28,659.29056506055,66.929136,6,P-GPS,
15400,2025-09-09 00:01:05,39.3932665410299,-76.9726729490285,67.585304,,,659.94673306055,31.16798,0,2.10349744264,7.0696196488,22,5,15.934,659.94673306055,67.585304,0.9171454,2.3538222538,0,0,-3.579104,110.8, -0.4, -0.1,0,0,1024,1024,1374,1024,0,0,53,0,116.6,0,0,99,3.94,3.935,3.942,3.958,0,0,8.937,76.28,659.94673306055,67.585304,6,P-GPS,
15500,2025-09-09 00:01:05,39.3932665448766,-76.972672940268,68.241472,,,660.60290106055,31.16798,0,2.1022474426,7.0724411712,22,5,15.934,660.60290106055,68.241472,0.9171454,2.3538222538,0,0,-3.579104,110.8, -0.2, -0.1,0,0,1024,1024,1385,1024,0,0,55,0,116.6,0,0,99,3.94,3.935,3.942,3.958,0,0,8.937,76.28,660.60290106055,68.241472,6,P-GPS,
15600,2025-09-09 00:01:05,39.393266533298,-76.9726729473185,68.89764,,,661.25906906055,31.16798,0,2.10634193092,7.077099964,22,5,15.934,661.25906906055,68.89764,0.9171454,2.3538222538,0,0,-3.579104,110.8, -0.2, -0.1,0,0,1024,1024,1386,1024,0,0,55,0,116.6,0,0,99,3.94,3.935,3.942,3.958,0,0,8.937,76.28,661.25906906055,68.89764,6,P-GPS,
15700,2025-09-09 00:01:05,39.3932664854652,-76.9726729765573,69.553808,,,661.91523706055,31.16798,0,2.123277627,7.0964241116,22,5,15.934,661.91523706055,69.553808,0.9171454,2.3538222538,0,0,-3.802798,110.8, -0.4, 0,0,0,1024,1024,1390,1024,0,0,55,0,116.6,0,0,99,3.94,3.935,3.942,3.958,0,0,8.937,76.28,661.91523706055,69.553808,6,P-GPS,
15800,2025-09-09 00:01:05,39.3932664296777,-76.9726729283452,70.209976,,,662.57140506055,31.16798,0,2.1444062366,7.120899178,22,5,15.934,662.57140506055,70.209976,0.9171454,2.3538222538,0,0,-3.802798,110.8, -0.1, -0.1,0,0,1024,1024,1396,1024,0,0,56,0,116.6,0,0,99,3.94,3.935,3.942,3.958,0,0,8.937,76.28,662.57140506055,70.209976,6,P-GPS,
15900,2025-09-09 00:01:05,39.3932665134542,-76.9726730448985,70.866144,,,663.22757306055,31.16798,0,2.1120735584,7.1657810692,22,5,15.934,663.22757306055,70.866144,0.9171454,2.3538222538,0,0,-4.026492,110.8, 0.1, -0.2,0,0,1024,1024,1401,1024,0,0,57,0,116.6,0,0,99,3.94,3.935,3.942,3.958,0,0,8.937,76.28,663.22757306055,70.866144,6,P-GPS,
16000,2025-09-09 00:01:05,39.3932664886308,-76.9726730527695,71.522312,,,663.88374106055,31.16798,0,2.1210138474,7.1750986548,22,5,15.934,663.88374106055,71.522312,0.9171454,2.3538222538,0,0,-4.026492,110.8, 0, -0.4,0,0,1024,1024,1401,1024,0,0,57,0,116.6,0,0,99,3.94,3.935,3.942,3.958,0,0,8.937,76.28,663.88374106055,71.522312,6,P-GPS,
16100,2025-09-09 00:01:05,39.3932666046371,-76.9726731797157,72.17848,,,664.53990906055,31.16798,0,2.07734258616,7.2305448508,23,5,15.923,664.53990906055,72.17848,0.9171454,2.3538222538,0,0,-4.026492,110.7, -0.1, -0.4,0,0,1024,1024,1411,1024,0,0,59,0,116.6,0,0,99,3.983,3.974,3.975,3.978,0,0,8.864,76.46,664.53990906055,72.17848,6,P-GPS,
16200,2025-09-09 00:01:06,39.3932665903106,-76.9726732504709,72.834648,,,665.19607706055,31.16798,0,2.08205715324,7.251148526,23,5,15.923,665.19607706055,72.834648,0.9171454,2.3538222538,0,0,-4.250186,110.7, -0.5, -0.4,0,0,1024,1024,1414,1024,0,0,59,0,116.6,0,0,99,3.983,3.974,3.975,3.978,0,0,8.864,76.46,665.19607706055,72.834648,6,P-GPS,
16300,2025-09-09 00:01:06,39.393266626492,-76.9726733199123,73.490816,,,665.85224506055,31.16798,0,2.06854337328,7.274770574,23,5,15.923,665.85224506055,73.490816,0.9171454,2.3538222538,0,0,-4.47388,110.7, -0.6, -0.5,0,0,1024,1024,1422,1024,0,0,60,0,116.6,0,0,99,3.983,3.974,3.975,3.978,0,0,8.864,76.46,665.85224506055,73.490816,6,P-GPS,
16400,2025-09-09 00:01:06,39.3932666952395,-76.9726733677005,74.146984,,,666.50841306055,31.16798,0,2.04335308376,7.3032482652,23,5,15.923,666.50841306055,74.146984,0.9171454,2.3538222538,0,0,-4.47388,110.7, -0.6, -0.2,0,0,1024,1024,1437,1024,0,0,63,0,116.6,0,0,99,3.983,3.974,3.975,3.978,0,0,8.864,76.46,666.50841306055,74.146984,6,P-GPS,
16500,2025-09-09 00:01:06,39.39326665596,-76.972673408499,75.131236,,,667.49266506055,31.16798,0,2.057660827,7.3216209692,23,5,15.923,667.49266506055,75.131236,0.9171454,2.3538222538,0,0,-4.697574,110.6, -0.7, -0.3,0,0,1024,1024,1451,1024,0,0,65,0,116.6,0,0,99,3.983,3.974,3.975,3.978,0,0,8.864,76.46,667.49266506055,75.131236,6,P-GPS,
16600,2025-09-09 00:01:06,39.3932666993464,-76.9726734160706,75.787404,,,668.14883306055,31.16798,0,2.04183405484,7.33759866,23,5,15.923,668.14883306055,75.787404,0.9171454,2.3538222538,0,0,-4.921268,110.7, -0.9, -0.3,0,0,1024,1024,1461,1024,0,0,66,0,116.6,0,0,99,3.983,3.974,3.975,3.978,0,0,8.864,76.46,668.14883306055,75.787404,6,P-GPS,
16700,2025-09-09 00:01:06,39.3932666979371,-76.9726735221506,76.771656,,,669.13308506055,31.16798,0,2.0426181756,7.3675199208,23,5,15.923,669.13308506055,76.771656,0.9171454,2.3538222538,0,0,-5.144962,110.7, -0.9, -0.1,0,0,1024,1024,1461,1024,0,0,66,0,116.6,0,0,99,3.983,3.974,3.975,3.978,0,0,8.864,76.46,669.13308506055,76.771656,6,P-GPS,
16800,2025-09-09 00:01:06,39.3932667655087,-76.9726735365511,77.427824,,,669.78925306055,31.16798,0,2.01803812232,7.3924871132,23,5,15.923,669.78925306055,77.427824,0.9171454,2.3538222538,0,0,-5.368656,110.7, -0.8, 0.1,0,0,1024,1024,1464,1024,0,0,67,0,116.6,0,0,99,3.983,3.974,3.975,3.978,0,0,8.864,76.46,669.78925306055,77.427824,6,P-GPS,
16900,2025-09-09 00:01:06,39.3932665677521,-76.9726735970352,78.412076,,,670.77350506055,31.16798,0,2.09055452884,7.4666340972,23,5,15.923,670.77350506055,78.412076,0.9171454,2.3538222538,0,0,-5.59235,110.7, -0.6, 0.2,0,0,1024,1024,1465,1024,0,0,67,0,116.6,0,0,99,3.983,3.974,3.975,3.978,0,0,8.864,76.46,670.77350506055,78.412076,6,P-GPS,
17000,2025-09-09 00:01:06,39.3932665504613,-76.9726736453444,79.396328,,,671.75775706055,31.16798,0,2.0972605658,7.481627536,23,5,15.923,671.75775706055,79.396328,0.9171454,2.3538222538,0,0,-5.816044,110.8, -0.5, -0.1,0,0,1024,1024,1464,1024,0,0,67,0,116.6,0,0,99,3.983,3.974,3.975,3.978,0,0,8.864,76.46,671.75775706055,79.396328,6,P-GPS,
17100,2025-09-09 00:01:06,39.3932665074208,-76.9726737195832,80.052496,,,672.41392506055,31.16798,0,2.11373366344,7.5078086392,23,5,15.841,672.41392506055,80.052496,0.9171454,2.3538222538,0,0,-5.816044,110.8, -0.6, -0.3,0,0,1024,1024,1464,1024,0,0,67,0,116.6,0,0,99,3.979,3.957,3.956,3.959,0,0,10.555,76.46,672.41392506055,80.052496,6,P-GPS,
17200,2025-09-09 00:01:06,39.3932664602391,-76.9726737830023,81.036748,,,673.39817706055,31.16798,0,2.13175531756,7.5326117896,23,5,15.841,673.39817706055,81.036748,0.9171454,2.3538222538,0,0,-5.816044,110.8, -0.9, -0.6,0,0,1024,1024,1464,1024,0,0,67,0,116.6,0,0,99,3.979,3.957,3.956,3.959,0,0,10.555,76.46,673.39817706055,81.036748,6,P-GPS,
17300,2025-09-09 00:01:07,39.3932665151302,-76.9726739248812,82.021,,,674.38242906055,31.16798,0,2.11416017264,7.5773624472,23,5,15.841,674.38242906055,82.021,0.9171454,2.3538222538,0,0,-5.816044,110.8, -1.1, -0.6,0,0,1024,1024,1463,1024,0,0,67,0,116.6,0,0,99,3.979,3.957,3.956,3.959,0,0,10.555,76.46,674.38242906055,82.021,6,P-GPS,
17400,2025-09-09 00:01:07,39.3932664671432,-76.9726740858331,83.005252,,,675.36668106055,31.16798,0,2.1352362888,7.6260173044,23,5,15.841,675.36668106055,83.005252,0.9171454,2.3538222538,0,0,-5.816044,110.9, -1.5, -0.7,0,0,1024,1024,1459,1024,0,0,66,0,116.6,0,0,99,3.979,3.957,3.956,3.959,0,0,10.555,76.46,675.36668106055,83.005252,6,P-GPS,
17500,2025-09-09 00:01:07,39.3932665202212,-76.9726740136202,83.66142,,,676.02284906055,31.16798,0,2.11419626188,7.6541012948,23,5,15.841,676.02284906055,83.66142,0.9171454,2.3538222538,0,0,-5.816044,110.9, -1.7, -0.7,0,0,1024,1024,1459,1024,0,0,66,0,116.6,0,0,99,3.979,3.957,3.956,3.959,0,0,10.555,76.46,676.02284906055,83.66142,6,P-GPS,
17600,2025-09-09 00:01:07,39.3932665340059,-76.9726740787022,84.645672,,,677.00710106055,31.16798,0,2.11075794156,7.6731301668,23,5,15.841,677.00710106055,84.645672,0.9171454,2.3538222538,0,0,-5.816044,110.8, -1.8, -0.7,0,0,1024,1024,1431,1024,0,0,62,0,116.6,0,0,99,3.979,3.957,3.956,3.959,0,0,10.555,76.46,677.00710106055,84.645672,6,P-GPS,
17700,2025-09-09 00:01:07,39.3932665967692,-76.9726740353623,85.629924,,,677.99135306055,31.16798,0,2.08687342636,7.6990816112,23,5,15.841,677.99135306055,85.629924,0.9171454,2.3538222538,0,0,-5.816044,110.7, -1.6, -0.5,0,0,1024,1024,1428,1024,0,0,61,0,116.6,0,0,99,3.979,3.957,3.956,3.959,0,0,10.555,76.46,677.99135306055,85.629924,6,P-GPS,
17800,2025-09-09 00:01:07,39.3932665913183,-76.9726740502089,86.614176,,,678.97560506055,31.16798,0,2.08921594612,7.703740404,23,5,15.841,678.97560506055,86.614176,0.9171454,2.3538222538,0,0,-5.59235,110.7, -1.1, -0.4,0,0,1024,1024,1435,1024,0,0,62,0,116.6,0,0,99,3.979,3.957,3.956,3.959,0,0,10.555,76.46,678.97560506055,86.614176,6,P-GPS,
17900,2025-09-09 00:01:07,39.3932666300635,-76.9726740717957,87.598428,,,679.95985706055,31.16798,0,2.07567920028,7.7191275436,23,5,15.841,679.95985706055,87.598428,0.9171454,2.3538222538,0,0,-5.144962,110.6, -1, -0.4,0,0,1024,1024,1438,1024,0,0,63,0,116.6,0,0,99,3.979,3.957,3.956,3.959,0,0,10.555,76.46,679.95985706055,87.598428,6,P-GPS,
18000,2025-09-09 00:01:07,39.3932666528993,-76.9726740535568,88.254596,,,680.61602506055,31.16798,0,2.06691935748,7.7289044468,23,5,15.841,680.61602506055,88.254596,0.9171454,2.3538222538,0,0,-4.921268,110.6, -1.3, -0.3,0,0,1024,1024,1438,1024,0,0,63,0,116.6,0,0,99,3.979,3.957,3.956,3.959,0,0,10.555,76.46,680.61602506055,88.254596,6,P-GPS,
18100,2025-09-09 00:01:07,39.3932666122512,-76.9726741197529,89.238848,,,681.60027706055,31.16798,0,2.08341870184,7.7527561536,23,5,15.891,681.60027706055,89.238848,0.9171454,2.3538222538,0,0,-5.144962,110.6, -1.6, 0,0,0,1024,1024,1438,1024,0,0,63,0,116.6,0,0,98,3.976,3.969,3.969,3.971,0,0,10.265,76.46,681.60027706055,89.238848,6,P-GPS,
18200,2025-09-09 00:01:07,39.3932666012102,-76.972674142767,89.895016,,,682.25644506055,31.16798,0,2.08806765212,7.7603677024,23,5,15.891,682.25644506055,89.895016,0.9171454,2.3538222538,0,0,-5.144962,110.7, -1.6, -0.3,0,0,1024,1024,1442,1024,0,0,63,0,116.6,0,0,98,3.976,3.969,3.969,3.971,0,0,10.265,76.46,682.25644506055,89.895016,6,P-GPS,
18300,2025-09-09 00:01:08,39.3932667285252,-76.9726741361876,90.551184,,,682.91261306055,31.16798,0,2.04166345116,7.8068572052,23,5,15.891,682.91261306055,90.551184,0.9171454,2.3538222538,0,0,-5.144962,110.7, -1.6, -0.5,0,0,1024,1024,1442,1024,0,0,63,0,116.6,0,0,98,3.976,3.969,3.969,3.971,0,0,10.265,76.46,682.91261306055,90.551184,6,P-GPS,
18400,2025-09-09 00:01:08,39.3932667347557,-76.97267413417,91.207352,,,683.56878106055,31.16798,0,2.03934389728,7.80921941,23,5,15.891,683.56878106055,91.207352,0.9171454,2.3538222538,0,0,-5.144962,110.7, -1.6, -0.6,0,0,1024,1024,1445,1024,0,0,64,0,116.6,0,0,98,3.976,3.969,3.969,3.971,0,0,10.265,76.46,683.56878106055,91.207352,6,P-GPS,
18500,2025-09-09 00:01:08,39.3932667834999,-76.972674175703,92.191604,,,684.55303306055,31.16798,0,2.02288064216,7.8305120616,23,5,15.891,684.55303306055,92.191604,0.9171454,2.3538222538,0,0,-5.144962,110.7, -1.6, -0.7,0,0,1024,1024,1445,1024,0,0,64,0,116.6,0,0,98,3.976,3.969,3.969,3.971,0,0,10.265,76.46,684.55303306055,92.191604,6,P-GPS,
18600,2025-09-09 00:01:08,39.3932668313477,-76.9726741826953,92.847772,,,685.20920106055,31.16798,0,2.00573825316,7.8480645556,23,5,15.891,685.20920106055,92.847772,0.9171454,2.3538222538,0,0,-5.368656,110.7, -1.7, -0.5,0,0,1024,1024,1445,1024,0,0,64,0,116.6,0,0,98,3.976,3.969,3.969,3.971,0,0,10.265,76.46,685.20920106055,92.847772,6,P-GPS,
18700,2025-09-09 00:01:08,39.393266721015,-76.9726742056235,93.832024,,,686.19345306055,31.16798,0,2.04646003924,7.8888453968,23,5,15.891,686.19345306055,93.832024,0.9171454,2.3538222538,0,0,-5.368656,110.7, -1.7, -0.5,0,0,1024,1024,1449,1024,0,0,64,0,116.6,0,0,98,3.976,3.969,3.969,3.971,0,0,10.265,76.46,686.19345306055,93.832024,6,P-GPS,
18800,2025-09-09 00:01:08,39.39326671816,-76.9726741914975,94.488192,,,686.84962106055,31.16798,0,2.04706043296,7.8929792552,23,5,15.891,686.84962106055,94.488192,0.9171454,2.3538222538,0,0,-5.368656,110.7, -1.6, -0.6,0,0,1024,1024,1445,1024,0,0,64,0,116.6,0,0,98,3.976,3.969,3.969,3.971,0,0,10.265,76.46,686.84962106055,94.488192,6,P-GPS,
18900,2025-09-09 00:01:08,39.393266746255,-76.9726742240537,95.472444,,,687.83387306055,31.16798,0,2.037893766,7.9067259748,23,5,15.891,687.83387306055,95.472444,0.9171454,2.3538222538,0,0,-5.368656,110.7, -1.6, -0.5,0,0,1024,1024,1429,1024,0,0,61,0,116.6,0,0,98,3.976,3.969,3.969,3.971,0,0,10.265,76.46,687.83387306055,95.472444,6,P-GPS,
19000,2025-09-09 00:01:08,39.3932666768886,-76.9726742789035,96.128612,,,688.49004106055,31.16798,0,2.0648294624,7.9363847684,23,5,15.891,688.49004106055,96.128612,0.9171454,2.3538222538,0,0,-5.368656,110.7, -1.6, -0.7,0,0,1024,1024,1429,1024,0,0,61,0,116.6,0,0,98,3.976,3.969,3.969,3.971,0,0,10.265,76.46,688.49004106055,96.128612,6,P-GPS,
19100,2025-09-09 00:01:08,39.3932668325696,-76.9726742267475,97.112864,,,689.47429306055,31.16798,0,2.00669625844,7.9950461876,23,5,15.893,689.47429306055,97.112864,0.9171454,2.3538222538,0,0,-5.368656,110.7, -1.5, -1,0,0,1024,1024,1423,1024,0,0,60,0,116.6,0,0,98,3.978,3.967,3.969,3.974,0,0,9.386,76.64,689.47429306055,97.112864,6,P-GPS,
19200,2025-09-09 00:01:09,39.3932668769413,-76.9726742068042,97.769032,,,690.13046106055,31.16798,0,1.98996725528,8.0122049808,23,5,15.893,690.13046106055,97.769032,0.9171454,2.3538222538,0,0,-5.144962,110.7, -1.5, -0.7,0,0,1024,1024,1421,1024,0,0,60,0,116.6,0,0,98,3.978,3.967,3.969,3.974,0,0,9.386,76.64,690.13046106055,97.769032,6,P-GPS,
19300,2025-09-09 00:01:09,39.3932668388151,-76.9726742352753,98.753284,,,691.11471306055,31.16798,0,2.00471135024,8.0282482884,23,5,15.893,691.11471306055,98.753284,0.9171454,2.3538222538,0,0,-4.921268,110.6, -1.7, -0.5,0,0,1024,1024,1413,1024,0,0,59,0,116.6,0,0,98,3.978,3.967,3.969,3.974,0,0,9.386,76.64,691.11471306055,98.753284,6,P-GPS,
19400,2025-09-09 00:01:09,39.3932668587959,-76.9726742358157,99.409452,,,691.77088106055,31.16798,0,1.9974902214,8.0355317532,23,5,15.893,691.77088106055,99.409452,0.9171454,2.3538222538,0,0,-4.921268,110.6, -1.9, -0.4,0,0,1024,1024,1411,1024,0,0,59,0,116.6,0,0,98,3.978,3.967,3.969,3.974,0,0,9.386,76.64,691.77088106055,99.409452,6,P-GPS,
