time(millisecond),datetime(utc),latitude,longitude,height_above_takeoff(feet),height_above_ground_at_drone_location(feet),ground_elevation_at_drone_location(feet),altitude_above_seaLevel(feet),height_sonar(feet),speed(mph),distance(feet),mileage(feet),satellites,gpslevel,voltage(v),max_altitude(feet),max_ascent(feet),max_speed(mph),max_distance(feet), xSpeed(mph), ySpeed(mph), zSpeed(mph), compass_heading(degrees), pitch(degrees), roll(degrees),isPhoto,isVideo,rc_elevator,rc_aileron,rc_throttle,rc_rudder,rc_elevator(percent),rc_aileron(percent),rc_throttle(percent),rc_rudder(percent),gimbal_heading(degrees),gimbal_pitch(degrees),gimbal_roll(degrees),battery_percent,voltageCell1,voltageCell2,voltageCell3,voltageCell4,voltageCell5,voltageCell6,current(A),battery_temperature(f),altitude(feet),ascent(feet),flycStateRaw,flycState,message
557700,2025-09-08 23:45:17,39.3932787599087,-76.9727271305225,0,Available with any HD 360 subscription,Available with any HD 360 subscription,591.92824564774,0.328084,0,0,0,22,5,15.392,591.92824564774,0,0,0,0,0,0,101.4, 5.1, 0,0,0,364,364,364,1684,-100,-100,-100,100,117.3,0,0,66,3.85,3.849,3.848,3.844,0,0,0.912,105.26,591.92824564774,0,6,P-GPS,"SD card speed low SD card speed low. Normal use may be affected. Replace SD card (Code: 10028). Aircraft not in flight. Vision systems and obstacle avoidance disabled (Code: 180059). Remote ID functionality normal (Code: 30331)"
557800,2025-09-08 23:45:17,39.3932787605641,-76.9727271361597,0,,,591.92824564774,0.328084,0,0.00160732288608,0.00160732288608,22,5,15.392,591.92824564774,0,0,0.00160732288608,0,0,0,101.4, 5.1, 0,0,0,364,364,364,1684,-100,-100,-100,100,117.3,0,0,66,3.85,3.849,3.848,3.844,0,0,0.912,105.26,591.92824564774,0,41,Motors_Started,
557900,2025-09-08 23:45:17,39.3932787632584,-76.9727271220807,0,,,591.92824564774,0.328084,0,0.00267568250032,0.0056969161928,22,5,15.392,591.92824564774,0,0,0.00267568250032,0,0,0,101.4, 5.1, 0,0,0,364,364,364,1684,-100,-100,-100,100,117.4,0,0,66,3.85,3.849,3.848,3.844,0,0,0.912,105.26,591.92824564774,0,41,Motors_Started,"Setting new Return-To-Home altitude to 65m (213 ft). Data Recorder File Index is 68. Setting new Maximum Flight Altitude to 120m (394 ft)"
558000,2025-09-08 23:45:17,39.3932787681931,-76.9727271259386,0,,,591.92824564774,0.328084,0,3.7290683608,0.0078004267588,22,5,15.392,591.92824564774,0,0,3.7290683608,0,0,0,101.4, 5.1, 0,0,0,364,364,364,1684,-100,-100,-100,100,117.4,0,0,66,3.85,3.849,3.848,3.844,0,0,0.912,105.26,591.92824564774,0,41,Motors_Started,
558100,2025-09-08 23:45:17,39.3932787556936,-76.9727271259496,0,,,591.92824564774,0.328084,0,3.7325788596,0.0123608599756,22,5,15.392,591.92824564774,0,0,3.7325788596,0,0,0,101.4, 5.1, 0,0,0,1024,1024,1024,1024,0,0,0,0,117.5,0,0,66,3.85,3.849,3.848,3.844,0,0,0.912,105.26,591.92824564774,0,41,Motors_Started,
558200,2025-09-08 23:45:17,39.3932787542629,-76.9727271305503,0,,,591.92824564774,0.328084,0,3.7337927704,0.0137591539836,22,5,15.392,591.92824564774,0,0,3.7337927704,0,0,0,101.4, 5.1, 0,0,0,1024,1024,1024,1024,0,0,0,0,117.6,0,0,66,3.85,3.849,3.848,3.844,0,0,0.912,105.26,591.92824564774,0,41,Motors_Started,
558300,2025-09-08 23:45:18,39.3932787572657,-76.9727271378281,0,,,591.92824564774,0.328084,0,3.7342848964,0.0160853351604,22,5,15.392,591.92824564774,0,0,3.7342848964,0,0,0,101.4, 5.1, 0,0,0,1024,1024,1024,1024,0,0,0,0,117.6,0,0,66,3.85,3.849,3.848,3.844,0,0,0.912,105.26,591.92824564774,0,41,Motors_Started,
558400,2025-09-08 23:45:18,39.3932787567302,-76.9727271387094,0,,,591.92824564774,0.328084,0,3.734580172,0.0164014440944,22,5,15.392,591.92824564774,0,0,3.734580172,0,0,0,101.4, 5.1, 0,0,0,1024,1024,1024,1024,0,0,0,0,117.6,0,0,66,3.85,3.849,3.848,3.844,0,0,0.912,105.26,591.92824564774,0,41,Motors_Started,
558500,2025-09-08 23:45:18,39.3932787703392,-76.9727271228955,0,,,591.92824564774,0.328084,0,3.7279200668,0.0230749023132,22,5,15.392,591.92824564774,0,0,3.734580172,0,0,0,101.4, 5.1, 0,0,0,1024,1024,1024,1024,0,0,0,0,117.6,0,0,66,3.85,3.849,3.848,3.844,0,0,0.912,105.26,591.92824564774,0,41,Motors_Started,
558600,2025-09-08 23:45:18,39.3932787848349,-76.9727271268698,0,,,591.92824564774,0.328084,0,3.72457361,0.0284810376568,22,5,15.392,591.92824564774,0,0,3.734580172,0,0,0,101.4, 5.1, 0,0,0,1024,1024,1024,1024,0,0,0,0,117.6,0,0,66,3.85,3.849,3.848,3.844,0,0,0.912,105.26,591.92824564774,0,41,Motors_Started,
558700,2025-09-08 23:45:18,39.3932787659485,-76.9727271448399,0,,,591.92824564774,0.328084,0,3.733103794,0.03703412192,22,5,15.312,591.92824564774,0,0,3.734580172,0,0,0,101.4, 5.1, 0,0,0,1024,1024,1024,1024,0,0,0,0,117.6,0,0,66,3.85,3.835,3.834,3.828,0,0,2.51,105.26,591.92824564774,0,41,Motors_Started,
558800,2025-09-08 23:45:18,39.3932787749912,-76.972727149252,0,,,591.92824564774,0.328084,0,3.7313649488,0.040560040668,22,5,15.312,591.92824564774,0,0,3.734580172,0,0,0,101.4, 5.1, 0,0,0,1024,1024,1024,1024,0,0,0,0,117.6,0,0,66,3.85,3.835,3.834,3.828,0,0,2.51,105.26,591.92824564774,0,41,Motors_Started,
558900,2025-09-08 23:45:18,39.3932787745372,-76.9727271556263,0,,,591.92824564774,0.328084,0,3.7326444764,0.042364830752,22,5,15.312,591.92824564774,0,0,3.734580172,0,0,0,101.4, 5.1, 0,0,0,1024,1024,1024,1024,0,0,0,0,117.6,0,0,66,3.85,3.835,3.834,3.828,0,0,2.51,105.26,591.92824564774,0,41,Motors_Started,
559000,2025-09-08 23:45:18,39.3932787822948,-76.9727271645726,0,,,591.92824564774,0.328084,0,3.7320867336,0.046156169456,22,5,15.312,591.92824564774,0,0,3.734580172,0,0,0,101.4, 5.1, 0,0,0,1024,1024,1024,1024,0,0,0,0,117.7,0,0,66,3.85,3.835,3.834,3.828,0,0,2.51,105.26,591.92824564774,0,41,Motors_Started,
559100,2025-09-08 23:45:18,39.3932787580839,-76.972727153581,0,,,591.92824564774,0.328084,0,3.73687676,0.055517390228,22,5,15.312,591.92824564774,0,0,3.73687676,0,0,0,101.4, 5.1, 0,0,0,1024,1024,1024,1024,0,0,0,0,117.7,0,0,66,3.85,3.835,3.834,3.828,0,0,2.51,105.26,591.92824564774,0,41,Motors_Started,
559200,2025-09-08 23:45:19,39.3932787588678,-76.9727271640682,0,,,591.92824564774,0.328084,0,3.7385499884,0.058488190848,22,5,15.312,591.92824564774,0,0,3.7385499884,0,0,0,101.4, 5.1, 0,0,0,1024,1024,1024,1024,0,0,0,0,117.7,0,0,66,3.85,3.835,3.834,3.828,0,0,2.51,105.26,591.92824564774,0,41,Motors_Started,
559300,2025-09-08 23:45:19,39.3932787605298,-76.9727271284329,0,,,591.92824564774,0.328084,0,3.7316602244,0.068554136052,22,5,15.312,591.92824564774,0,0,3.7385499884,0,0,0,101.4, 5.1, 0,0,0,1024,1024,1024,1024,0,0,0,0,117.7,0,0,66,3.85,3.835,3.834,3.828,0,0,2.51,105.26,591.92824564774,0,10,Assisted_Takeoff,
559400,2025-09-08 23:45:19,39.3932787660299,-76.9727271395464,0,,,591.92824564774,0.328084,0,3.732119542,0.07227526478,22,5,15.312,591.92824564774,0,0,3.7385499884,0,0,0,101.4, 5.1, 0,0,0,1024,1024,1024,1024,0,0,0,0,117.7,0,0,66,3.85,3.835,3.834,3.828,0,0,2.51,105.26,591.92824564774,0,10,Assisted_Takeoff,"SD card speed low. Normal use may be affected. Replace SD card (Code: 10028). Remote ID functionality normal (Code: 30331)"
559500,2025-09-08 23:45:19,39.393278776302,-76.9727271268365,0,,,591.92824564774,0.328084,0,3.7269358148,0.0774606324,22,5,15.312,591.92824564774,0,0,3.7385499884,0,0,0,101.4, 5.1, 0,0,0,1024,1024,1035,1024,0,0,2,0,117.7,0,0,66,3.85,3.835,3.834,3.828,0,0,2.51,105.26,591.92824564774,0,10,Assisted_Takeoff,
559600,2025-09-08 23:45:19,39.3932787905278,-76.9727271274518,0,,,591.92824564774,0.328084,0,3.7230644236,0.082653874036,22,5,15.312,591.92824564774,0,0,3.7385499884,0,0,0,101.4, 5.1, 0,0,0,1024,1024,1089,1024,0,0,10,0,117.7,0,0,66,3.85,3.835,3.834,3.828,0,0,2.51,105.26,591.92824564774,0,10,Assisted_Takeoff,
559700,2025-09-08 23:45:19,39.393278762723,-76.9727271110115,0,,,591.92824564774,0.328084,0,3.7279200668,0.0938074177,22,5,15.305,591.92824564774,0,0,3.7385499884,0,0,0,101.4, 5.1, 0,0,0,1024,1024,1120,1024,0,0,15,0,117.7,0,0,66,3.841,3.84,3.839,3.836,0,0,4.13,105.26,591.92824564774,0,10,Assisted_Takeoff,
559800,2025-09-08 23:45:19,39.3932787667025,-76.97272710875,0,,,591.92824564774,0.328084,0,3.726378072,0.095393047672,22,5,15.305,591.92824564774,0,0,3.7385499884,0,0,0,101.4, 5.1, 0,0,0,1024,1024,1163,1024,0,0,21,0,117.7,0,0,66,3.841,3.84,3.839,3.836,0,0,4.13,105.26,591.92824564774,0,10,Assisted_Takeoff,
559900,2025-09-08 23:45:19,39.3932787727038,-76.972727142595,0,,,591.92824564774,0.328084,0,3.730807206,0.1051837304,22,5,15.305,591.92824564774,0,0,3.7385499884,0,0,0,101.4, 5.1, 0,0,0,1024,1024,1186,1024,0,0,25,0,117.7,0,0,66,3.841,3.84,3.839,3.836,0,0,4.13,105.26,591.92824564774,0,10,Assisted_Takeoff,
560000,2025-09-08 23:45:19,39.3932787851562,-76.97272715306,0,,,591.92824564774,0.328084,0,3.7291995944,0.110601381492,22,5,15.305,591.92824564774,0,0,3.7385499884,0,0,0,101.4, 5.1, 0,0,0,1024,1024,1186,1024,0,0,25,0,117.7,0,0,66,3.841,3.84,3.839,3.836,0,0,4.13,105.26,591.92824564774,0,10,Assisted_Takeoff,
560100,2025-09-08 23:45:19,39.3932787577197,-76.9727271413423,0,,,591.92824564774,0.328084,0,3.7347770224,0.121142720412,22,5,15.305,591.92824564774,0,0,3.7385499884,0,0,0,101.4, 5.1, 0,0,0,1024,1024,1258,1024,0,0,35,0,117.7,0,0,66,3.841,3.84,3.839,3.836,0,0,4.13,105.26,591.92824564774,0,10,Assisted_Takeoff,
560200,2025-09-08 23:45:19,39.3932787580196,-76.9727271569178,0,,,591.92824564774,0.328084,0,3.7375001196,0.125535437088,22,5,15.305,591.92824564774,0,0,3.7385499884,0,0,0,101.4, 5.1, 0,0,0,1024,1024,1316,1024,0,0,44,0,117.7,0,0,66,3.841,3.84,3.839,3.836,0,0,4.13,105.26,591.92824564774,0,10,Assisted_Takeoff,
560300,2025-09-08 23:45:20,39.3932788260132,-76.9727272554873,0,,,591.92824564774,0.328084,0,3.7364174424,0.162789047204,22,5,15.305,591.92824564774,0,0,3.7385499884,0,0,0,101.6, 5.1, 0,0,0,1024,1024,1352,1024,0,0,50,0,117.7,0,0,66,3.841,3.84,3.839,3.836,0,0,4.13,105.26,591.92824564774,0,10,Assisted_Takeoff,
560400,2025-09-08 23:45:20,39.3932788494573,-76.9727272736015,0,,,591.92824564774,0.328084,0,3.7332022192,0.172751645948,22,5,15.305,591.92824564774,0,0,3.7385499884,0,0,0,102.1, 5.1, 0,0,0,1024,1024,1383,1024,0,0,54,0,117.7,0,0,66,3.841,3.84,3.839,3.836,0,0,4.13,105.26,591.92824564774,0,10,Assisted_Takeoff,
560500,2025-09-08 23:45:20,39.3932788424622,-76.9727272725428,0,,,591.92824564774,0.328084,0,3.7349738728,0.175321199836,22,5,15.305,591.92824564774,0,0,3.7385499884,0,0,0,102.2, 4.8, 0,0,0,1024,1024,1390,1024,0,0,55,0,117.7,0,0,66,3.841,3.84,3.839,3.836,0,0,4.13,105.26,591.92824564774,0,10,Assisted_Takeoff,
560600,2025-09-08 23:45:20,39.3932788659192,-76.9727273014047,0,,,591.92824564774,0.328084,0,3.733759962,0.1871309115,22,5,15.305,591.92824564774,0,0,3.7385499884,0,0,0,101.8, 3.3, 0,0,0,1024,1024,1409,1024,0,0,58,0,117.7,0,0,66,3.841,3.84,3.839,3.836,0,0,4.13,105.26,591.92824564774,0,10,Assisted_Takeoff,
560700,2025-09-08 23:45:20,39.3932788428349,-76.9727272582754,0,,,591.92824564774,0.328084,0,3.7322507756,0.201923234808,22,5,15.299,591.92824564774,0,0,3.7385499884,0,0,0,101.7, 0, 0,0,0,1024,1024,1416,1024,0,0,59,0,117.7,0,0,65,3.838,3.835,3.833,3.817,0,0,3.127,105.26,591.92824564774,0,10,Assisted_Takeoff,
560800,2025-09-08 23:45:20,39.3932788693461,-76.9727272446731,0,,,591.92824564774,0.328084,0,3.7224082556,0.212328418868,22,5,15.299,591.92824564774,0,0,3.7385499884,0,0,0,101.3, -4.8, 0,0,0,1024,1024,1416,1024,0,0,59,0,117.7,0,0,65,3.838,3.835,3.833,3.817,0,0,3.127,105.26,591.92824564774,0,10,Assisted_Takeoff,
560900,2025-09-08 23:45:20,39.3932788567951,-76.9727270701548,0,,,591.92824564774,0.328084,0.223694,3.6941602232,0.261748039872,22,5,15.299,591.92824564774,0,0.223694,3.7385499884,0,0.223694,-0.223694,100.8, -8.4, -0.5,0,0,1024,1024,1415,1024,0,0,59,0,117.7,0,0,65,3.838,3.835,3.833,3.817,0,0,3.127,105.26,591.92824564774,0,10,Assisted_Takeoff,
561000,2025-09-08 23:45:20,39.3932788535781,-76.9727268526125,0,,,591.92824564774,0.328084,0.447388,3.6560696708,0.3230971232,22,5,15.299,591.92824564774,0,0.447388,3.7385499884,0,0.447388,-0.447388,100.6, -10.6, -0.5,0,0,1024,1024,1417,1024,0,0,60,0,117.7,0,0,65,3.838,3.835,3.833,3.817,0,0,3.127,105.26,591.92824564774,0,10,Assisted_Takeoff,
561100,2025-09-08 23:45:20,39.3932788225477,-76.9727263414238,0,,,591.92824564774,0.984252,0.894776,3.5759187496,0.46767389948,22,5,15.299,591.92824564774,0,0.894776,3.7385499884,0,0.894776,-0.894776,101.2, -8.2, -0.5,0,0,1024,1024,1420,1024,0,0,60,0,117.7,0,0,65,3.838,3.835,3.833,3.817,0,0,3.127,105.26,591.92824564774,0,10,Assisted_Takeoff,
561200,2025-09-08 23:45:21,39.3932787602599,-76.9727257978313,0,,,591.92824564774,1.312336,1.11847,3.5039699284,0.622621411,22,5,15.299,591.92824564774,0,1.11847,3.7385499884,0,1.11847,-1.342164,101.3, -1.5, 0.1,0,0,1024,1024,1425,1024,0,0,61,0,117.7,0,0,65,3.838,3.835,3.833,3.817,0,0,3.127,105.26,591.92824564774,0,6,P-GPS,
561300,2025-09-08 23:45:21,39.3932787192787,-76.9727250210046,0.328084,,,592.25632964774,1.64042,1.11847,3.3958662504,0.84216538128,22,5,15.299,592.25632964774,0.328084,1.11847,3.7385499884,0,1.11847,-2.013246,101.2, 3.8, 0.6,0,0,1024,1024,1428,1024,0,0,61,0,117.7,0,0,65,3.838,3.835,3.833,3.817,0,0,3.127,105.26,592.25632964774,0.328084,6,P-GPS,
561400,2025-09-08 23:45:21,39.3932787093536,-76.9727244714202,0.656168,,,592.58441364774,1.64042,1.11847,3.3199804212,0.99716538624,22,5,15.299,592.58441364774,0.656168,1.11847,3.7385499884,0,0.894776,-2.908022,101.1, 5.4, 0.7,0,0,1024,1024,1426,1024,0,0,61,0,117.7,0,0,65,3.838,3.835,3.833,3.817,0,0,3.127,105.26,592.58441364774,0.656168,6,P-GPS,
561500,2025-09-08 23:45:21,39.3932782479586,-76.9727238039715,1.312336,,,593.24058164774,2.296588,0.7158208,3.3828413156,1.24966211348,22,5,15.299,593.24058164774,1.312336,1.11847,3.7385499884,-0.223694,0.671082,-3.802798,101.1, 4.4, 0.1,0,0,1024,1024,1426,1024,0,0,61,0,117.7,0,0,65,3.838,3.835,3.833,3.817,0,0,3.127,105.26,593.24058164774,1.312336,6,P-GPS,
561600,2025-09-08 23:45:21,39.393278070639,-76.9727234488877,1.968504,,,593.89674964774,2.952756,0.447388,3.4005578516,1.3688648732,22,5,15.299,593.89674964774,1.968504,1.11847,3.7385499884,0,0.447388,-4.47388,101, 3.1, -0.5,0,0,1024,1024,1411,1024,0,0,59,0,117.7,0,0,65,3.838,3.835,3.833,3.817,0,0,3.127,105.26,593.89674964774,1.968504,6,P-GPS,
561700,2025-09-08 23:45:21,39.3932779605419,-76.9727232441107,2.952756,,,594.88100164774,3.608924,0.223694,3.4152560148,1.43920280196,22,5,15.109,594.88100164774,2.952756,1.11847,3.7385499884,0,0.223694,-4.921268,101.1, 2.1, -0.8,0,0,1024,1024,1386,1024,0,0,55,0,117.7,0,0,65,3.791,3.781,3.777,3.76,0,0,8.651,105.26,594.88100164774,2.952756,6,P-GPS,
561800,2025-09-08 23:45:21,39.3932778974831,-76.9727231441499,3.608924,,,595.53716964774,4.265092,0,3.4261155952,1.47558403672,22,5,15.109,595.53716964774,3.608924,1.11847,3.7385499884,0,0,-5.368656,101.1, 1.6, -0.8,0,0,1024,1024,1376,1024,0,0,53,0,117.7,0,0,65,3.791,3.781,3.777,3.76,0,0,8.651,105.26,595.53716964774,3.608924,6,P-GPS,
561900,2025-09-08 23:45:21,39.3932778464911,-76.9727230551365,4.265092,,,596.19333764774,4.92126,0,3.4343176952,1.50682747604,22,5,15.109,596.19333764774,4.265092,1.11847,3.7385499884,0,0,-5.144962,101.1, 1.6, -0.8,0,0,1024,1024,1350,1024,0,0,49,0,117.7,0,0,65,3.791,3.781,3.777,3.76,0,0,8.651,105.26,596.19333764774,4.265092,6,P-GPS,"Home Point updated (Code: 123200)"
562000,2025-09-08 23:45:21,39.3932777939442,-76.9727229463016,5.249344,,,597.17758964774,5.905512,0,3.4413386928,1.5430118604,22,5,15.109,597.17758964774,5.249344,1.11847,3.7385499884,0,0,-4.921268,101.1, 1.5, -0.7,0,0,1024,1024,1406,1024,0,0,58,0,117.7,0,0,65,3.791,3.781,3.777,3.76,0,0,8.651,105.26,597.17758964774,5.249344,6,P-GPS,
562100,2025-09-08 23:45:21,39.3932779359027,-76.9727231443717,5.905512,,,597.83375764774,6.56168,0,3.4131234688,1.61917984184,22,5,15.109,597.83375764774,5.905512,1.11847,3.7385499884,0,0,-4.47388,101.1, 1.6, -0.7,0,0,1024,1024,1428,1024,0,0,61,0,117.7,0,0,65,3.791,3.781,3.777,3.76,0,0,8.651,105.26,597.83375764774,5.905512,6,P-GPS,
562200,2025-09-08 23:45:22,39.3932778747929,-76.9727230816648,6.56168,,,598.48992564774,7.217848,0,3.4273951228,1.64763456716,22,5,15.109,598.48992564774,6.56168,1.11847,3.7385499884,0,0,-4.026492,101, 1.1, -0.7,0,0,1024,1024,1424,1024,0,0,61,0,117.7,0,0,65,3.791,3.781,3.777,3.76,0,0,8.651,105.26,598.48992564774,6.56168,6,P-GPS,
562300,2025-09-08 23:45:22,39.393277846127,-76.9727233742857,7.217848,,,599.14609364774,7.874016,0,3.4678150716,1.73080058032,22,5,15.109,599.14609364774,7.217848,1.11847,3.7385499884,0,0,-4.026492,101, 0.3, -0.6,0,0,1024,1024,1424,1024,0,0,61,0,117.7,0,0,65,3.791,3.781,3.777,3.76,0,0,8.651,105.26,599.14609364774,7.217848,6,P-GPS,
562400,2025-09-08 23:45:22,39.3932778067008,-76.9727233116288,7.874016,,,599.80226164774,8.530184,0,3.4744423684,1.75358273328,22,5,15.109,599.80226164774,7.874016,1.11847,3.7385499884,0,0,-4.026492,100.9, 0, -0.5,0,0,1024,1024,1428,1024,0,0,61,0,117.7,0,0,65,3.791,3.781,3.777,3.76,0,0,8.651,105.26,599.80226164774,7.874016,6,P-GPS,
562500,2025-09-08 23:45:22,39.3932777747109,-76.9727232974334,8.530184,,,600.45842964774,9.186352,0,3.483759954,1.76592197252,21,5,15.109,600.45842964774,8.530184,1.11847,3.7385499884,0,0,-4.47388,100.9, 0.1, -0.5,0,0,1024,1024,1448,1024,0,0,64,0,117.7,0,0,65,3.791,3.781,3.777,3.76,0,0,8.651,105.26,600.45842964774,8.530184,6,P-GPS,
562600,2025-09-08 23:45:22,39.393277770046,-76.9727233187625,9.186352,,,601.11459764774,9.84252,0,3.4875985368,1.77217197272,21,5,15.109,601.11459764774,9.186352,1.11847,3.7385499884,0,0,-4.47388,100.8, 0.3, -0.5,0,0,1024,1024,1469,1024,0,0,67,0,117.7,0,0,65,3.791,3.781,3.777,3.76,0,0,8.651,105.26,601.11459764774,9.186352,6,P-GPS,
562700,2025-09-08 23:45:22,39.3932777807764,-76.9727233429129,10.170604,,,602.09884964774,10.498688,0,3.4865158596,1.78002630368,21,5,15.087,602.09884964774,10.170604,1.11847,3.7385499884,0,0,-4.921268,100.8, 0.2, -0.4,0,0,1024,1024,1490,1024,0,0,71,0,117.7,0,0,65,3.778,3.77,3.766,3.756,0,0,12.837,105.26,602.09884964774,10.170604,6,P-GPS,
562800,2025-09-08 23:45:22,39.3932778085599,-76.9727234212729,10.826772,,,602.75501764774,11.48294,0,3.485564416,1.80433404724,21,5,15.087,602.75501764774,10.826772,1.11847,3.7385499884,0,0,-5.144962,100.8, 0, -0.3,0,0,1024,1024,1524,1024,0,0,76,0,117.7,0,0,65,3.778,3.77,3.766,3.756,0,0,12.837,105.26,602.75501764774,10.826772,6,P-GPS,
562900,2025-09-08 23:45:22,39.3932777917167,-76.972723634076,11.811024,,,603.73926964774,12.139108,0,3.5146982752,1.86465229064,20,5,15.087,603.73926964774,11.811024,1.11847,3.7385499884,0,0,-5.816044,100.8, -0.2, -0.2,0,0,1024,1024,1533,1024,0,0,77,0,117.7,0,0,65,3.778,3.77,3.766,3.756,0,0,12.837,105.26,603.73926964774,11.811024,6,P-GPS,
563000,2025-09-08 23:45:22,39.3932778233211,-76.9727237240041,12.795276,,,604.72352164774,13.12336,0,3.5143045744,1.89250662224,20,5,15.087,604.72352164774,12.795276,1.11847,3.7385499884,0,0,-6.263432,100.8, -0.6, -0.2,0,0,1024,1024,1588,1024,0,0,85,0,117.7,0,0,65,3.778,3.77,3.766,3.756,0,0,12.837,105.26,604.72352164774,12.795276,6,P-GPS,
563100,2025-09-08 23:45:22,39.3932778375898,-76.9727237862232,14.107612,,,606.03585764774,14.107612,0,3.5166995876,1.91080386692,21,5,15.087,606.03585764774,14.107612,1.11847,3.7385499884,0,0,-6.934514,100.9, -0.6, -0.2,0,0,1024,1024,1588,1024,0,0,85,0,117.7,0,0,65,3.778,3.77,3.766,3.756,0,0,12.837,105.26,606.03585764774,14.107612,6,P-GPS,
563200,2025-09-08 23:45:23,39.393277864388,-76.9727238505652,15.419948,,,607.34819364774,15.091864,0,3.5152888264,1.9314141038,21,5,15.087,607.34819364774,15.419948,1.11847,3.7385499884,0,0,-7.605596,100.9, -0.5, -0.1,0,0,1024,1024,1611,1024,0,0,89,0,117.7,0,0,65,3.778,3.77,3.766,3.756,0,0,12.837,105.26,607.34819364774,15.419948,6,P-GPS,
563300,2025-09-08 23:45:23,39.3932778458957,-76.9727238546503,16.732284,,,608.66052964774,16.076116,0,3.5218833148,1.93825793604,22,5,15.087,608.66052964774,16.732284,1.11847,3.7385499884,0,0,-8.500372,101, -0.5, -0.1,0,0,1024,1024,1635,1024,0,0,93,0,117.7,0,0,65,3.778,3.77,3.766,3.756,0,0,12.837,105.26,608.66052964774,16.732284,6,P-GPS,
563400,2025-09-08 23:45:23,39.3932778545743,-76.9727239035831,18.04462,,,609.97286564774,17.388452,0,3.524770454,1.95241476064,22,5,15.087,609.97286564774,18.04462,1.11847,3.7385499884,0,0,-9.171454,101.1, -0.5, -0.2,0,0,1024,1024,1657,1024,0,0,96,0,117.7,0,0,65,3.778,3.77,3.766,3.756,0,0,12.837,105.26,609.97286564774,18.04462,6,P-GPS,"SD card speed low. Normal use may be affected. Replace SD card (Code: 10028). Ambient light too low. Vision system and obstacle sensing unavailable. Fly with caution (Code: 180037). Remote ID functionality normal (Code: 30331). Ambient light too low."
563500,2025-09-08 23:45:23,39.3932779157398,-76.9727240803518,20.013124,,,611.94136964774,19.028872,0,3.525754706,2.00702434244,22,5,15.087,611.94136964774,20.013124,1.11847,3.7385499884,0,0,-10.289924,101.1, -0.4, -0.2,0,0,1024,1024,1684,1024,0,0,100,0,117.7,0,0,65,3.778,3.77,3.766,3.756,0,0,12.837,105.26,611.94136964774,20.013124,6,P-GPS,
563600,2025-09-08 23:45:23,39.3932779154913,-76.9727241347942,21.981628,,,613.90987364774,20.341208,0,3.5325132364,2.0223753928,22,5,15.087,613.90987364774,21.981628,1.11847,3.7385499884,0,0,-10.961006,101.2, -0.3, -0.3,0,0,1024,1024,1684,1024,0,0,100,0,117.7,0,0,65,3.778,3.77,3.766,3.756,0,0,12.837,105.26,613.90987364774,21.981628,6,P-GPS,
563700,2025-09-08 23:45:23,39.3932780254128,-76.9727242140411,24.278216,,,616.20646164774,21.981628,0,3.5063649416,2.06828418692,22,5,14.825,616.20646164774,24.278216,1.11847,3.7385499884,0,0,-12.079476,101.2, -0.4, -0.3,0,0,1024,1024,1684,1024,0,0,100,0,117.7,0,0,65,3.731,3.721,3.717,3.706,0,0,17.703,105.26,616.20646164774,24.278216,6,P-GPS,
563800,2025-09-08 23:45:23,39.3932780493581,-76.972724283416,26.574804,,,618.50304964774,23.622048,0,3.5073163852,2.08970807212,22,5,14.825,618.50304964774,26.574804,1.11847,3.7385499884,0,0,-12.750558,101.2, -0.4, -0.3,0,0,1024,1024,1684,1024,0,0,100,0,117.7,0,0,65,3.731,3.721,3.717,3.706,0,0,17.703,105.26,618.50304964774,26.574804,6,P-GPS,
563900,2025-09-08 23:45:23,39.3932779954062,-76.9727242883936,29.199476,,,621.12772164774,25.262468,0,3.5255250472,2.10944232472,22,5,14.825,621.12772164774,29.199476,1.11847,3.7385499884,0,0,-13.197946,101.2, -0.3, -0.4,0,0,1024,1024,1684,1024,0,0,100,0,117.7,0,0,65,3.731,3.721,3.717,3.706,0,0,17.703,105.26,621.12772164774,29.199476,6,P-GPS,"SD card speed low. Normal use may be affected. Replace SD card (Code: 10028). Ambient light too low. Vision system and obstacle sensing unavailable. Fly with caution (Code: 180037)"
564000,2025-09-08 23:45:23,39.3932780038363,-76.972724365257,31.16798,,,623.09622564774,26.902888,0,3.5325788532,2.13132880836,22,5,14.825,623.09622564774,31.16798,1.11847,3.7385499884,0,0,-13.197946,101.2, -0.5, -0.5,0,0,1024,1024,1684,1024,0,0,100,0,117.7,0,0,65,3.731,3.721,3.717,3.706,0,0,17.703,105.26,623.09622564774,31.16798,6,P-GPS,
564100,2025-09-08 23:45:23,39.3932780182377,-76.9727243031155,33.464568,,,625.39281364774,28.543308,0,3.5199476192,2.1496227722,22,5,14.825,625.39281364774,33.464568,1.11847,3.7385499884,0,0,-13.42164,101.2, -0.7, -0.6,0,0,1024,1024,1684,1024,0,0,100,0,117.7,0,0,65,3.731,3.721,3.717,3.706,0,0,17.703,105.26,625.39281364774,33.464568,6,P-GPS,
564200,2025-09-08 23:45:23,39.3932780134444,-76.9727242886929,35.761156,,,627.68940164774,30.511812,0,3.519685152,2.15404862536,22,5,14.825,627.68940164774,35.761156,1.11847,3.7385499884,0,0,-13.42164,101.3, -0.4, -0.5,0,0,1024,1024,1684,1024,0,0,100,0,117.7,0,0,65,3.731,3.721,3.717,3.706,0,0,17.703,105.26,627.68940164774,35.761156,6,P-GPS,
564300,2025-09-08 23:45:24,39.3932780502105,-76.9727243209914,37.72966,,,629.65790564774,32.152232,0,3.5118439444,2.17026253664,22,5,14.825,629.65790564774,37.72966,1.11847,3.7385499884,0,0,-13.42164,101.2, -0.3, -0.4,0,0,1024,1024,1684,1024,0,0,100,0,117.7,0,0,65,3.731,3.721,3.717,3.706,0,0,17.703,105.26,629.65790564774,37.72966,6,P-GPS,
564400,2025-09-08 23:45:24,39.393278039403,-76.9727242889867,39.698164,,,631.62640964774,34.120736,0,3.5112862016,2.18011161832,22,5,14.825,631.62640964774,39.698164,1.11847,3.7385499884,0,0,-13.42164,101.2, -0.2, -0.4,0,0,1024,1024,1684,1024,0,0,100,0,117.7,0,0,65,3.731,3.721,3.717,3.706,0,0,17.703,105.26,631.62640964774,39.698164,6,P-GPS,
564500,2025-09-08 23:45:24,39.3932781599007,-76.9727243957042,41.666668,,,633.59491364774,36.08924,0,3.4859253084,2.23338589824,22,5,14.825,633.59491364774,41.666668,1.11847,3.7385499884,0,0,-13.42164,101.2, -0.1, -0.3,0,0,1024,1024,1684,1024,0,0,100,0,117.7,0,0,65,3.731,3.721,3.717,3.706,0,0,17.703,105.26,633.59491364774,41.666668,6,P-GPS,
564600,2025-09-08 23:45:24,39.3932781940838,-76.9727243927664,43.963256,,,635.89150164774,37.073492,0,3.4744751768,2.24588589864,22,5,14.825,635.89150164774,43.963256,1.11847,3.7385499884,0,0,-13.197946,101.2, -0.2, -0.2,0,0,1024,1024,1684,1024,0,0,100,0,117.7,0,0,65,3.731,3.721,3.717,3.706,0,0,17.703,105.26,635.89150164774,43.963256,6,P-GPS,
564700,2025-09-08 23:45:24,39.3932781170047,-76.9727244656778,45.603676,,,637.53192164774,37.073492,0,3.5089239968,2.28071857692,22,5,14.95,637.53192164774,45.603676,1.11847,3.7385499884,0,0,-13.197946,101.2, -0.4, -0.1,0,0,1024,1024,1684,1024,0,0,100,0,117.7,0,0,65,3.743,3.736,3.734,3.724,0,0,16.042,105.26,637.53192164774,45.603676,6,P-GPS,
564800,2025-09-08 23:45:24,39.3932781179813,-76.9727245017232,47.900264,,,639.82850964774,37.073492,0,3.5133531308,2.29088918092,22,5,14.95,639.82850964774,47.900264,1.11847,3.7385499884,0,0,-13.197946,101.2, -0.6, -0.2,0,0,1024,1024,1684,1024,0,0,100,0,117.7,0,0,65,3.743,3.736,3.734,3.724,0,0,16.042,105.26,639.82850964774,47.900264,6,P-GPS,
564900,2025-09-08 23:45:24,39.3932781519117,-76.9727244268774,49.868768,,,641.79701364774,37.073492,0,3.4925854136,2.3153544048,22,5,14.95,641.79701364774,49.868768,1.11847,3.7385499884,0,0,-13.197946,101.2, -0.7, -0.2,0,0,1024,1024,1684,1024,0,0,100,0,117.7,0,0,65,3.743,3.736,3.734,3.724,0,0,16.042,105.26,641.79701364774,49.868768,6,P-GPS,
565000,2025-09-08 23:45:24,39.3932781437943,-76.9727244165732,51.837272,,,643.76551764774,37.073492,0,3.4938321328,2.3195046674,22,5,14.95,643.76551764774,51.837272,1.11847,3.7385499884,0,0,-13.197946,101.2, -0.5, -0.3,0,0,1024,1024,1684,1024,0,0,100,0,117.7,0,0,65,3.743,3.736,3.734,3.724,0,0,16.042,105.26,643.76551764774,51.837272,6,P-GPS,
565100,2025-09-08 23:45:24,39.3932781331239,-76.9727243741035,53.805776,,,645.73402164774,37.073492,0,3.4917652036,2.33209653132,22,5,14.95,645.73402164774,53.805776,1.11847,3.7385499884,0,0,-13.197946,101.2, -0.4, -0.2,0,0,1024,1024,1684,1024,0,0,100,0,117.7,0,0,65,3.743,3.736,3.734,3.724,0,0,16.042,105.26,645.73402164774,53.805776,6,P-GPS,
565200,2025-09-08 23:45:25,39.3932781323443,-76.9727243514441,55.77428,,,647.70252564774,37.073492,0,3.4890749148,2.33849088848,22,5,14.95,647.70252564774,55.77428,1.11847,3.7385499884,0,0,-13.197946,101.2, -0.3, -0.2,0,0,1024,1024,1684,1024,0,0,100,0,117.7,0,0,65,3.743,3.736,3.734,3.724,0,0,16.042,105.26,647.70252564774,55.77428,6,P-GPS,
565300,2025-09-08 23:45:25,39.3932781177243,-76.9727243728341,57.742784,,,649.67102964774,37.073492,0,3.4965880384,2.34654206984,22,5,14.95,649.67102964774,57.742784,1.11847,3.7385499884,0,0,-13.42164,101.2, -0.2, -0.1,0,0,1024,1024,1684,1024,0,0,100,0,117.7,0,0,65,3.743,3.736,3.734,3.724,0,0,16.042,105.26,649.67102964774,57.742784,6,P-GPS,
565400,2025-09-08 23:45:25,39.3932780971459,-76.972724366421,59.383204,,,651.31144964774,37.073492,0,3.5024279336,2.3542651672,22,5,14.95,651.31144964774,59.383204,1.11847,3.7385499884,0,0,-13.42164,101.2, -0.2, -0.3,0,0,1024,1024,1684,1024,0,0,100,0,117.7,0,0,65,3.743,3.736,3.734,3.724,0,0,16.042,105.26,651.31144964774,59.383204,6,P-GPS,
565500,2025-09-08 23:45:25,39.3932781799607,-76.9727243819633,61.679792,,,653.60803764774,37.073492,0,3.4776247832,2.38479666424,22,5,14.95,653.60803764774,61.679792,1.11847,3.7385499884,0,0,-13.197946,101.2, -0.3, -0.5,0,0,1024,1024,1684,1024,0,0,100,0,117.7,0,0,65,3.743,3.736,3.734,3.724,0,0,16.042,105.26,653.60803764774,61.679792,6,P-GPS,
565600,2025-09-08 23:45:25,39.3932781914108,-76.9727244041903,63.648296,,,655.57654164774,37.073492,0,3.4768373816,2.39232947288,22,5,14.95,655.57654164774,63.648296,1.11847,3.7385499884,0,0,-13.197946,101.2, -0.6, -0.5,0,0,1024,1024,1684,1024,0,0,100,0,117.7,0,0,65,3.743,3.736,3.734,3.724,0,0,16.042,105.26,655.57654164774,63.648296,6,P-GPS,
565700,2025-09-08 23:45:25,39.3932781685278,-76.9727243513443,65.288716,,,657.21696164774,37.073492,0,3.477362316,2.40940952592,22,5,14.941,657.21696164774,65.288716,1.11847,3.7385499884,0,0,-13.197946,101.2, -0.7, -0.4,0,0,1024,1024,1684,1024,0,0,100,0,117.7,0,0,65,3.748,3.739,3.735,3.725,0,0,13.924,105.44,657.21696164774,65.288716,6,P-GPS,
565800,2025-09-08 23:45:25,39.3932781775105,-76.9727243423426,67.25722,,,659.18546564774,37.073492,0,3.473261266,2.41355322684,22,5,14.941,659.18546564774,67.25722,1.11847,3.7385499884,0,0,-13.42164,101.2, -0.8, -0.1,0,0,1024,1024,1684,1024,0,0,100,0,117.7,0,0,65,3.748,3.739,3.735,3.725,0,0,13.924,105.44,659.18546564774,67.25722,6,P-GPS,
565900,2025-09-08 23:45:25,39.393278199117,-76.9727244293496,69.553808,,,661.48205364774,37.073492,0,3.4776575916,2.4393209442,22,5,14.941,661.48205364774,69.553808,1.11847,3.7385499884,0,0,-13.42164,101.2, -0.7, -0.1,0,0,1024,1024,1684,1024,0,0,100,0,117.7,0,0,65,3.748,3.739,3.735,3.725,0,0,13.924,105.44,661.48205364774,69.553808,6,P-GPS,
566000,2025-09-08 23:45:25,39.3932782217044,-76.9727244637267,71.194228,,,663.12247364774,37.073492,0,3.474901686,2.45204404172,22,5,14.941,663.12247364774,71.194228,1.11847,3.7385499884,0,0,-13.197946,101.2, -0.9, -0.1,0,0,1024,1024,1684,1024,0,0,100,0,117.7,0,0,65,3.748,3.739,3.735,3.725,0,0,13.924,105.44,663.12247364774,71.194228,6,P-GPS,
566100,2025-09-08 23:45:25,39.3932781429676,-76.9727244808265,73.162732,,,665.09097764774,37.073492,0,3.5025591672,2.48117462008,22,5,14.941,665.09097764774,73.162732,1.11847,3.7385499884,0,0,-13.197946,101.2, -1, -0.2,0,0,1024,1024,1684,1024,0,0,100,0,117.7,0,0,65,3.748,3.739,3.735,3.725,0,0,13.924,105.44,665.09097764774,73.162732,6,P-GPS,
566200,2025-09-08 23:45:26,39.393278142415,-76.9727245282682,75.131236,,,667.05948164774,37.073492,0,3.5089896136,2.49455060476,22,5,14.941,667.05948164774,75.131236,1.11847,3.7385499884,0,0,-13.197946,101.2, -1.2, -0.2,0,0,1024,1024,1684,1024,0,0,100,0,117.7,0,0,65,3.748,3.739,3.735,3.725,0,0,13.924,105.44,667.05948164774,75.131236,6,P-GPS,
566300,2025-09-08 23:45:26,39.3932780418104,-76.9727245344486,76.771656,,,668.69990164774,37.073492,0,3.5422573312,2.5312992936,22,5,14.941,668.69990164774,76.771656,1.11847,3.7385499884,0,0,-13.42164,101.2, -1.3, -0.3,0,0,1024,1024,1684,1024,0,0,100,0,117.7,0,0,65,3.748,3.739,3.735,3.725,0,0,13.924,105.44,668.69990164774,76.771656,6,P-GPS,
566400,2025-09-08 23:45:26,39.3932780046801,-76.9727245703555,78.74016,,,670.66840564774,37.073492,0,3.5589568068,2.54820874296,22,5,14.941,670.66840564774,78.74016,1.11847,3.7385499884,0,0,-13.197946,101.2, -1.3, -0.5,0,0,1024,1024,1684,1024,0,0,100,0,117.7,0,0,65,3.748,3.739,3.735,3.725,0,0,13.924,105.44,670.66840564774,78.74016,6,P-GPS,
566500,2025-09-08 23:45:26,39.3932780106129,-76.9727246468697,80.708664,,,672.63690964774,37.073492,0,3.5671589068,2.56989181452,22,5,14.941,672.63690964774,80.708664,1.11847,3.7385499884,0,0,-13.197946,101.2, -1.3, -0.6,0,0,1024,1024,1684,1024,0,0,100,0,117.7,0,0,65,3.748,3.739,3.735,3.725,0,0,13.924,105.44,672.63690964774,80.708664,6,P-GPS,
566600,2025-09-08 23:45:26,39.3932779815916,-76.9727247011181,82.677168,,,674.60541364774,37.073492,0,3.5837271488,2.58849417732,22,5,14.941,674.60541364774,82.677168,1.11847,3.7385499884,0,0,-13.197946,101.2, -1.5, -0.7,0,0,1024,1024,1684,1024,0,0,100,0,117.7,0,0,65,3.748,3.739,3.735,3.725,0,0,13.924,105.44,674.60541364774,82.677168,6,P-GPS,
566700,2025-09-08 23:45:26,39.3932779830009,-76.9727246760475,84.645672,,,676.57391764774,37.073492,0,3.5799213744,2.59558407256,22,5,14.935,676.57391764774,84.645672,1.11847,3.7385499884,0,0,-13.197946,101.1, -1.7, -0.7,0,0,1024,1024,1684,1024,0,0,100,0,117.7,0,0,65,3.741,3.734,3.73,3.719,0,0,13.925,105.44,676.57391764774,84.645672,6,P-GPS,
566800,2025-09-08 23:45:26,39.3932779673786,-76.9727246976538,86.286092,,,678.21433764774,37.073492,0,3.5878281988,2.60392724868,22,5,14.935,678.21433764774,86.286092,1.11847,3.7385499884,0,0,-13.42164,101.1, -1.7, -0.9,0,0,1024,1024,1684,1024,0,0,100,0,117.7,0,0,65,3.741,3.734,3.73,3.719,0,0,13.925,105.44,678.21433764774,86.286092,6,P-GPS,
566900,2025-09-08 23:45:26,39.3932779061231,-76.9727247667572,87.926512,,,679.85475764774,37.073492,0,3.6167652076,2.63357619976,22,5,14.935,679.85475764774,87.926512,1.11847,3.7385499884,0,0,-13.42164,101.1, -1.7, -0.9,0,0,1024,1024,1684,1024,0,0,100,0,117.7,0,0,65,3.741,3.734,3.73,3.719,0,0,13.925,105.44,679.85475764774,87.926512,6,P-GPS,
567000,2025-09-08 23:45:26,39.3932778789223,-76.9727248009513,90.2231,,,682.15134564774,37.073492,0,3.630085418,2.64741150204,22,5,14.935,682.15134564774,90.2231,1.11847,3.7385499884,0,0,-13.42164,101, -1.6, -1.1,0,0,1024,1024,1684,1024,0,0,100,0,117.7,0,0,65,3.741,3.734,3.73,3.719,0,0,13.925,105.44,682.15134564774,90.2231,6,P-GPS,
567100,2025-09-08 23:45:26,39.3932778446792,-76.972724870476,92.191604,,,684.11984964774,37.073492,0,3.6503938176,2.67065625344,22,5,14.935,684.11984964774,92.191604,1.11847,3.7385499884,0,0,-13.197946,101, -1.7, -1.1,0,0,1024,1024,1684,1024,0,0,100,0,117.7,0,0,65,3.741,3.734,3.73,3.719,0,0,13.925,105.44,684.11984964774,92.191604,6,P-GPS,
567200,2025-09-08 23:45:26,39.3932778185835,-76.9727249018266,94.160108,,,686.08835364774,37.073492,0,3.6629922432,2.68364837984,22,5,14.935,686.08835364774,94.160108,1.11847,3.7385499884,0,0,-13.197946,101, -1.8, -1,0,0,1024,1024,1684,1024,0,0,100,0,117.7,0,0,65,3.741,3.734,3.73,3.719,0,0,13.925,105.44,686.08835364774,94.160108,6,P-GPS,
567300,2025-09-08 23:45:27,39.393277794274,-76.9727248577993,96.456696,,,688.38494164774,37.073492,0,3.664862322,2.69890756668,22,5,14.935,688.38494164774,96.456696,1.11847,3.7385499884,0,0,-13.42164,101, -1.8, -0.9,0,0,1024,1024,1684,1024,0,0,100,0,117.7,0,0,65,3.741,3.734,3.73,3.719,0,0,13.925,105.44,688.38494164774,96.456696,6,P-GPS,
567400,2025-09-08 23:45:27,39.3932777764157,-76.9727248720779,98.097116,,,690.02536164774,37.073492,0,3.6725066792,2.70656504724,22,5,14.935,690.02536164774,98.097116,1.11847,3.7385499884,0,0,-13.42164,101, -1.7, -1,0,0,1024,1024,1684,1024,0,0,100,0,117.7,0,0,65,3.741,3.734,3.73,3.719,0,0,13.925,105.44,690.02536164774,98.097116,6,P-GPS,
567500,2025-09-08 23:45:27,39.3932777525389,-76.9727248063889,100.06562,,,691.99386564774,37.073492,0,3.671424002,2.727034208,22,5,14.935,691.99386564774,100.06562,1.11847,3.7385499884,0,0,-13.42164,100.9, -1.5, -1.2,0,0,1024,1024,1684,1024,0,0,100,0,117.7,0,0,65,3.741,3.734,3.73,3.719,0,0,13.925,105.44,691.99386564774,100.06562,6,P-GPS,
567600,2025-09-08 23:45:27,39.3932777326416,-76.9727248024146,102.034124,,,693.96236964774,37.073492,0,3.6772967056,2.73438000876,22,5,14.935,693.96236964774,102.034124,1.11847,3.7385499884,0,0,-13.197946,100.9, -1.3, -1.3,0,0,1024,1024,1684,1024,0,0,100,0,117.7,0,0,65,3.741,3.734,3.73,3.719,0,0,13.925,105.44,693.96236964774,102.034124,6,P-GPS,
567700,2025-09-08 23:45:27,39.3932776798934,-76.9727247729597,104.002628,,,695.93087364774,37.073492,0,3.6904200656,2.75533801468,22,5,14.915,695.93087364774,104.002628,1.11847,3.7385499884,0,0,-13.197946,101, -1.3, -1.3,0,0,1024,1024,1684,1024,0,0,100,0,117.7,0,0,65,3.74,3.732,3.728,3.717,0,0,13.847,105.62,695.93087364774,104.002628,6,P-GPS,
567800,2025-09-08 23:45:27,39.3932776500624,-76.9727247895551,105.971132,,,697.89937764774,37.073492,0,3.7022310896,2.76718512792,22,5,14.915,697.89937764774,105.971132,1.11847,3.7385499884,0,0,-13.197946,100.9, -1.4, -1.3,0,0,1024,1024,1684,1024,0,0,100,0,117.7,0,0,65,3.74,3.732,3.728,3.717,0,0,13.847,105.62,697.89937764774,105.971132,6,P-GPS,
567900,2025-09-08 23:45:27,39.3932775822873,-76.9727246688362,108.26772,,,700.19596564774,37.073492,0,3.708497494,2.80925862008,22,5,14.915,700.19596564774,108.26772,1.11847,3.7385499884,0,0,-13.197946,101, -1.4, -1.5,0,0,1024,1024,1684,1024,0,0,100,0,117.7,0,0,65,3.74,3.732,3.728,3.717,0,0,13.847,105.62,700.19596564774,108.26772,6,P-GPS,
568000,2025-09-08 23:45:27,39.3932775530175,-76.972724649292,109.90814,,,701.83638564774,37.073492,0,3.7154856832,2.821276337,22,5,14.915,701.83638564774,109.90814,1.11847,3.7385499884,0,0,-13.197946,101, -1.4, -1.6,0,0,1024,1024,1684,1024,0,0,100,0,117.7,0,0,65,3.74,3.732,3.728,3.717,0,0,13.847,105.62,701.83638564774,109.90814,6,P-GPS,
568100,2025-09-08 23:45:27,39.3932775858041,-76.9727246761141,111.876644,,,703.80488964774,37.073492,0,3.7082678352,2.83542659992,22,5,14.915,703.80488964774,111.876644,1.11847,3.7385499884,0,0,-13.197946,101, -1.6, -1.5,0,0,1024,1024,1684,1024,0,0,100,0,117.7,0,0,65,3.74,3.732,3.728,3.717,0,0,13.847,105.62,703.80488964774,111.876644,6,P-GPS,
568200,2025-09-08 23:45:28,39.3932775853158,-76.9727246880479,113.845148,,,705.77339364774,37.073492,0,3.709973872,2.8387960226,22,5,14.915,705.77339364774,113.845148,1.11847,3.7385499884,0,0,-13.42164,101, -1.8, -1.3,0,0,1024,1024,1684,1024,0,0,100,0,117.7,0,0,65,3.74,3.732,3.728,3.717,0,0,13.847,105.62,705.77339364774,113.845148,6,P-GPS,
568300,2025-09-08 23:45:28,39.3932776044035,-76.9727247043995,115.485568,,,707.41381364774,37.073492,0,3.7059056304,2.84714904124,22,5,14.915,707.41381364774,115.485568,1.11847,3.7385499884,0,0,-13.42164,101, -1.9, -1.3,0,0,1024,1024,1684,1024,0,0,100,0,117.7,0,0,65,3.74,3.732,3.728,3.717,0,0,13.847,105.62,707.41381364774,115.485568,6,P-GPS,
568400,2025-09-08 23:45:28,39.3932776178197,-76.9727247029085,117.782156,,,709.71040164774,37.073492,0,3.7013452628,2.85206373956,22,5,14.915,709.71040164774,117.782156,1.11847,3.7385499884,0,0,-13.42164,101, -2, -1,0,0,1024,1024,1684,1024,0,0,100,0,117.7,0,0,65,3.74,3.732,3.728,3.717,0,0,13.847,105.62,709.71040164774,117.782156,6,P-GPS,
568500,2025-09-08 23:45:28,39.3932776705123,-76.9727247599228,119.422576,,,711.35082164774,37.073492,0,3.6917324016,2.87712279548,22,5,14.915,711.35082164774,119.422576,1.11847,3.7385499884,0,0,-13.42164,101.1, -2, -0.8,0,0,1024,1024,1684,1024,0,0,100,0,117.7,0,0,65,3.74,3.732,3.728,3.717,0,0,13.847,105.62,711.35082164774,119.422576,6,P-GPS,
568600,2025-09-08 23:45:28,39.3932777093003,-76.9727247965059,121.39108,,,713.31932564774,37.073492,0,3.6840224276,2.8946359194,22,5,14.915,713.31932564774,121.39108,1.11847,3.7385499884,0,0,-13.42164,101, -2.1, -0.7,0,0,1024,1024,1684,1024,0,0,100,0,117.7,0,0,65,3.74,3.732,3.728,3.717,0,0,13.847,105.62,713.31932564774,121.39108,6,P-GPS,
568700,2025-09-08 23:45:28,39.3932776324054,-76.9727246893339,123.359584,,,715.28782964774,37.073492,0,3.694882008,2.93586951652,22,5,14.899,715.28782964774,123.359584,1.11847,3.7385499884,0,0,-13.42164,101, -2.2, -0.8,0,0,1024,1024,1684,1024,0,0,100,0,117.7,0,0,65,3.737,3.729,3.725,3.713,0,0,13.861,105.62,715.28782964774,123.359584,6,P-GPS,
568800,2025-09-08 23:45:28,39.3932776293898,-76.9727246823942,125.328088,,,717.25633364774,37.073492,0,3.6949476248,2.93811361108,22,5,14.899,717.25633364774,125.328088,1.11847,3.7385499884,0,0,-13.42164,101, -2.1, -0.9,0,0,1024,1024,1684,1024,0,0,100,0,117.7,0,0,65,3.737,3.729,3.725,3.713,0,0,13.861,105.62,717.25633364774,125.328088,6,P-GPS,
568900,2025-09-08 23:45:28,39.3932776499853,-76.9727247320309,126.968508,,,718.89675364774,37.073492,0,3.694717966,2.95399943836,22,5,14.899,718.89675364774,126.968508,1.11847,3.7385499884,0,0,-13.42164,101, -2, -1.1,0,0,1024,1024,1684,1024,0,0,100,0,117.7,0,0,65,3.737,3.729,3.725,3.713,0,0,13.861,105.62,718.89675364774,126.968508,6,P-GPS,
569000,2025-09-08 23:45:28,39.393277645102,-76.9727247328346,129.265096,,,721.19334164774,37.073492,0,3.6963911944,2.95579405784,22,5,14.899,721.19334164774,129.265096,1.11847,3.7385499884,0,0,-13.197946,101.1, -2, -1.3,0,0,1024,1024,1684,1024,0,0,100,0,117.7,0,0,65,3.737,3.729,3.725,3.713,0,0,13.861,105.62,721.19334164774,129.265096,6,P-GPS,
569100,2025-09-08 23:45:28,39.3932776869399,-76.972724849291,131.2336,,,723.16184564774,37.073492,0,3.6982284648,2.99200468892,22,5,14.899,723.16184564774,131.2336,1.11847,3.7385499884,0,0,-13.197946,101.1, -2.3, -1.2,0,0,1024,1024,1684,1024,0,0,100,0,117.7,0,0,65,3.737,3.729,3.725,3.713,0,0,13.861,105.62,723.16184564774,131.2336,6,P-GPS,
569200,2025-09-08 23:45:28,39.3932777006303,-76.9727248938116,132.87402,,,724.80226564774,37.073492,0,3.6997376512,3.00551518804,22,5,14.899,724.80226564774,132.87402,1.11847,3.7385499884,0,0,-13.197946,101.1, -2.6, -1.2,0,0,1024,1024,1684,1024,0,0,100,0,117.7,0,0,65,3.737,3.729,3.725,3.713,0,0,13.861,105.62,724.80226564774,132.87402,6,P-GPS,
569300,2025-09-08 23:45:29,39.3932777028877,-76.9727248813844,135.170608,,,727.09885364774,37.073492,0,3.6973754464,3.00911426952,22,5,14.899,727.09885364774,135.170608,1.11847,3.7385499884,0,0,-13.197946,101.2, -2.8, -1.2,0,0,1024,1024,1684,1024,0,0,100,0,117.7,0,0,65,3.737,3.729,3.725,3.713,0,0,13.861,105.62,727.09885364774,135.170608,6,P-GPS,
569400,2025-09-08 23:45:29,39.3932777143935,-76.9727249051856,136.811028,,,728.73927364774,37.073492,0,3.696850512,3.01703093644,22,5,14.899,728.73927364774,136.811028,1.11847,3.7385499884,0,0,-13.197946,101.2, -2.8, -1.2,0,0,1024,1024,1684,1024,0,0,100,0,117.7,0,0,65,3.737,3.729,3.725,3.713,0,0,13.861,105.62,728.73927364774,136.811028,6,P-GPS,
569500,2025-09-08 23:45:29,39.3932776529067,-76.9727249174798,138.779532,,,730.70777764774,37.073492,0,3.7182415888,3.0397310684,22,5,14.899,730.70777764774,138.779532,1.11847,3.7385499884,0,0,-13.197946,101.3, -2.7, -1.2,0,0,1024,1024,1684,1024,0,0,100,0,117.7,-0.1,0,65,3.737,3.729,3.725,3.713,0,0,13.861,105.62,730.70777764774,138.779532,6,P-GPS,
569600,2025-09-08 23:45:29,39.3932776490258,-76.9727249249073,140.748036,,,732.67628164774,37.073492,0,3.72047256,3.0422573152,22,5,14.899,732.67628164774,140.748036,1.11847,3.7385499884,0,0,-13.42164,101.3, -2.6, -1.3,0,0,1024,1024,1684,1024,0,0,100,0,117.7,-0.4,0,65,3.737,3.729,3.725,3.713,0,0,13.861,105.62,732.67628164774,140.748036,6,P-GPS,
569700,2025-09-08 23:45:29,39.3932776317886,-76.9727249171472,142.71654,,,734.64478564774,37.073492,0,3.7250001192,3.0489174204,22,5,14.898,734.64478564774,142.71654,1.11847,3.7385499884,0,0,-13.42164,101.3, -2.5, -1.2,0,0,1024,1024,1684,1024,0,0,100,0,117.7,-0.8,0,65,3.736,3.729,3.724,3.713,0,0,13.762,105.8,734.64478564774,142.71654,6,P-GPS,
569800,2025-09-08 23:45:29,39.3932776100622,-76.9727249233719,145.013128,,,736.94137364774,37.073492,0,3.7328085184,3.05703421856,22,5,14.898,736.94137364774,145.013128,1.11847,3.7385499884,0,0,-13.42164,101.3, -2.4, -1.3,0,0,1024,1024,1684,1024,0,0,100,0,117.7,-1.2,0,65,3.736,3.729,3.724,3.713,0,0,13.762,105.8,736.94137364774,145.013128,6,P-GPS,
569900,2025-09-08 23:45:29,39.3932776730868,-76.9727248962782,146.981632,,,738.90987764774,37.073492,0,3.7089240032,3.0812665028,22,5,14.898,738.90987764774,146.981632,1.11847,3.7385499884,0,0,-13.197946,101.3, -2.3, -1.3,0,0,1024,1024,1684,1024,0,0,100,0,117.7,-1.7,0,65,3.736,3.729,3.724,3.713,0,0,13.762,105.8,738.90987764774,146.981632,6,P-GPS,
570000,2025-09-08 23:45:29,39.3932776892231,-76.9727248937173,148.950136,,,740.87838164774,37.073492,0,3.703412192,3.08719826152,22,5,14.898,740.87838164774,148.950136,1.11847,3.7385499884,0,0,-13.197946,101.2, -2.4, -1.3,0,0,1024,1024,1684,1024,0,0,100,0,117.7,-2.3,0,65,3.736,3.729,3.724,3.713,0,0,13.762,105.8,740.87838164774,148.950136,6,P-GPS,
570100,2025-09-08 23:45:29,39.3932776816839,-76.9727248711799,150.590556,,,742.51880164774,37.073492,0,3.7028216408,3.09412083392,22,5,14.898,742.51880164774,150.590556,1.11847,3.7385499884,0,0,-13.197946,101.2, -2.5, -1.2,0,0,1024,1024,1684,1024,0,0,100,0,117.7,-2.8,0,65,3.736,3.729,3.724,3.713,0,0,13.762,105.8,742.51880164774,150.590556,6,P-GPS,
570200,2025-09-08 23:45:30,39.3932776981201,-76.9727248619066,152.887144,,,744.81538964774,37.073492,0,3.6962927692,3.10066282888,22,5,14.898,744.81538964774,152.887144,1.11847,3.7385499884,0,0,-13.197946,101.1, -2.5, -1.1,0,0,1024,1024,1684,1024,0,0,100,0,117.7,-3.4,0,65,3.736,3.729,3.724,3.713,0,0,13.762,105.8,744.81538964774,152.887144,6,P-GPS,
570300,2025-09-08 23:45:30,39.3932777072999,-76.9727248485261,154.855648,,,746.78389364774,37.073492,0,3.6915683596,3.1057087608,22,5,14.898,746.78389364774,154.855648,1.11847,3.7385499884,0,0,-13.197946,101, -2.5, -1,0,0,1024,1024,1684,1024,0,0,100,0,117.7,-4,0,65,3.736,3.729,3.724,3.713,0,0,13.762,105.8,746.78389364774,154.855648,6,P-GPS,
570400,2025-09-08 23:45:30,39.3932777209988,-76.9727248512643,156.824152,,,748.75239764774,37.073492,0,3.6875329264,3.11076453524,22,5,14.898,748.75239764774,156.824152,1.11847,3.7385499884,0,0,-13.197946,101, -2.5, -1.1,0,0,1024,1024,1684,1024,0,0,100,0,117.7,-4.6,0,65,3.736,3.729,3.724,3.713,0,0,13.762,105.8,748.75239764774,156.824152,6,P-GPS,
570500,2025-09-08 23:45:30,39.3932777426781,-76.9727247899875,158.792656,,,750.72090164774,37.073492,0,3.672408254,3.12976716052,22,5,14.898,750.72090164774,158.792656,1.11847,3.7385499884,0,0,-13.197946,100.9, -2.5, -1.2,0,0,1024,1024,1684,1024,0,0,100,0,117.7,-5.2,0,65,3.736,3.729,3.724,3.713,0,0,13.762,105.8,750.72090164774,158.792656,6,P-GPS,
570600,2025-09-08 23:45:30,39.3932777767927,-76.9727247964339,160.76116,,,752.68940564774,37.073492,0,3.6622704584,3.14234590108,22,5,14.882,752.68940564774,160.76116,1.11847,3.7385499884,0,0,-13.197946,100.9, -2.7, -1.1,0,0,1024,1024,1684,1024,0,0,100,0,117.7,-5.8,0,65,3.729,3.721,3.717,3.705,0,0,13.869,105.8,752.68940564774,160.76116,6,P-GPS,
570700,2025-09-08 23:45:30,39.3932777057021,-76.9727246830316,162.40158,,,754.32982564774,37.073492,0,3.6703085164,3.18351716224,22,5,14.882,754.32982564774,162.40158,1.11847,3.7385499884,0,0,-13.42164,100.9, -2.6, -1,0,0,1024,1024,1684,1024,0,0,100,0,117.7,-6.4,0,65,3.729,3.721,3.717,3.705,0,0,13.869,105.8,754.32982564774,162.40158,6,P-GPS,
570800,2025-09-08 23:45:30,39.393277722104,-76.9727246561707,164.698168,,,756.62641364774,37.073492,0,3.6615158652,3.19316939352,22,5,14.882,756.62641364774,164.698168,1.11847,3.7385499884,0,0,-13.42164,100.9, -2.5, -0.9,0,0,1024,1024,1684,1024,0,0,100,0,117.7,-7,0,65,3.729,3.721,3.717,3.705,0,0,13.869,105.8,756.62641364774,164.698168,6,P-GPS,
570900,2025-09-08 23:45:30,39.3932776481177,-76.9727245979092,166.666672,,,758.59491764774,37.073492,0,3.677985682,3.2247704444,22,5,14.882,758.59491764774,166.666672,1.11847,3.7385499884,0,0,-13.42164,100.9, -2.5, -0.9,0,0,1024,1024,1684,1024,0,0,100,0,117.7,-7.5,0,65,3.729,3.721,3.717,3.705,0,0,13.869,105.8,758.59491764774,166.666672,6,P-GPS,
571000,2025-09-08 23:45:30,39.3932776361021,-76.9727245690529,168.307092,,,760.23533764774,37.073492,0,3.6782153408,3.23401257068,22,5,14.882,760.23533764774,168.307092,1.11847,3.7385499884,0,0,-13.197946,101, -2.5, -1,0,0,1024,1024,1684,1024,0,0,100,0,117.7,-8,0,65,3.729,3.721,3.717,3.705,0,0,13.869,105.8,760.23533764774,168.307092,6,P-GPS,
571100,2025-09-08 23:45:30,39.3932776084344,-76.9727245968783,170.60368,,,762.53192564774,37.073492,0,3.690780958,3.24679800416,22,5,14.882,762.53192564774,170.60368,1.11847,3.7385499884,0,0,-13.197946,101.1, -2.5, -1.1,0,0,1024,1024,1684,1024,0,0,100,0,117.7,-8.3,0,65,3.729,3.721,3.717,3.705,0,0,13.869,105.8,762.53192564774,170.60368,6,P-GPS,
571200,2025-09-08 23:45:30,39.3932775905032,-76.9727246005477,172.2441,,,764.17234564774,37.073492,0,3.6970801708,3.25342202012,22,5,14.882,764.17234564774,172.2441,1.11847,3.7385499884,0,0,-13.42164,101.1, -2.6, -1.4,0,0,1024,1024,1684,1024,0,0,100,0,117.7,-8.4,0,65,3.729,3.721,3.717,3.705,0,0,13.869,105.8,764.17234564774,172.2441,6,P-GPS,
571300,2025-09-08 23:45:31,39.3932775451956,-76.9727245285176,174.540688,,,766.46893364774,37.073492,0,3.7027232156,3.27960640416,23,5,14.882,766.46893364774,174.540688,1.11847,3.7385499884,0,0,-13.197946,101.2, -2.7, -1.4,0,0,1024,1024,1684,1024,0,0,100,0,117.7,-8.5,0,65,3.729,3.721,3.717,3.705,0,0,13.869,105.8,766.46893364774,174.540688,6,P-GPS,
571400,2025-09-08 23:45:31,39.3932775093847,-76.9727245233517,176.509192,,,768.43743764774,37.073492,0,3.7137796464,3.2927494492,23,5,14.882,768.43743764774,176.509192,1.11847,3.7385499884,0,0,-13.197946,101.3, -2.6, -1.6,0,0,1024,1024,1684,1024,0,0,100,0,117.7,-8.5,0,65,3.729,3.721,3.717,3.705,0,0,13.869,105.8,768.43743764774,176.509192,6,P-GPS,
571500,2025-09-08 23:45:31,39.3932776240695,-76.9727244822289,178.477696,,,770.40594164774,37.073492,0,3.6711615348,3.3361877708,23,5,14.882,770.40594164774,178.477696,1.11847,3.7385499884,0,0,-13.197946,101.3, -2.6, -1.5,0,0,1024,1024,1684,1024,0,0,100,0,117.7,-8.5,0,65,3.729,3.721,3.717,3.705,0,0,13.869,105.8,770.40594164774,178.477696,6,P-GPS,
571600,2025-09-08 23:45:31,39.3932776524441,-76.9727244770851,180.4462,,,772.37444564774,37.073492,0,3.661253398,3.346620842,23,5,14.859,772.37444564774,180.4462,1.11847,3.7385499884,0,0,-13.197946,101.3, -2.7, -1.4,0,0,1024,1024,1684,1024,0,0,100,0,117.7,-8.7,0,65,3.726,3.718,3.714,3.703,0,0,14.014,105.98,772.37444564774,180.4462,6,P-GPS,
571700,2025-09-08 23:45:31,39.393277590062,-76.9727243596919,182.414704,,,774.34294964774,37.073492,0,3.6670276764,3.386811132,23,5,14.859,774.34294964774,182.414704,1.11847,3.7385499884,0,0,-13.197946,101.3, -2.7, -1.3,0,0,1024,1024,1684,1024,0,0,100,0,117.7,-9,0,65,3.726,3.718,3.714,3.703,0,0,14.014,105.98,774.34294964774,182.414704,6,P-GPS,
571800,2025-09-08 23:45:31,39.3932775924266,-76.9727243328033,184.383208,,,776.31145364774,37.073492,0,3.6629266264,3.3944226808,23,5,14.859,776.31145364774,184.383208,1.11847,3.7385499884,0,0,-13.197946,101.3, -2.5, -1.3,0,0,1024,1024,1684,1024,0,0,100,0,117.7,-9.4,0,65,3.726,3.718,3.714,3.703,0,0,14.014,105.98,776.31145364774,184.383208,6,P-GPS,
571900,2025-09-08 23:45:31,39.3932775534844,-76.972724274686,186.351712,,,778.27995764774,37.073492,0,3.668635288,3.4161090332,23,5,14.859,778.27995764774,186.351712,1.11847,3.7385499884,0,0,-13.197946,101.4, -2.5, -1.4,0,0,1024,1024,1684,1024,0,0,100,0,117.7,-9.8,0,65,3.726,3.718,3.714,3.703,0,0,14.014,105.98,778.27995764774,186.351712,6,P-GPS,
572000,2025-09-08 23:45:31,39.3932775483655,-76.972724252531,188.6483,,,780.57654564774,37.073492,0,3.667651036,3.4226379048,23,5,14.859,780.57654564774,188.6483,1.11847,3.7385499884,0,0,-13.197946,101.4, -2.5, -1.4,0,0,1024,1024,1684,1024,0,0,100,0,117.7,-10.2,0,65,3.726,3.718,3.714,3.703,0,0,14.014,105.98,780.57654564774,188.6483,6,P-GPS,
572100,2025-09-08 23:45:31,39.3932775657398,-76.9727241894915,190.28872,,,782.21696564774,37.073492,0,3.6543308256,3.4415027348,23,5,14.859,782.21696564774,190.28872,1.11847,3.7385499884,0,0,-13.197946,101.3, -2.5, -1.3,0,0,1024,1024,1684,1024,0,0,100,0,117.7,-10.6,0,65,3.726,3.718,3.714,3.703,0,0,14.014,105.98,782.21696564774,190.28872,6,P-GPS,
572200,2025-09-08 23:45:32,39.3932775695393,-76.9727241608569,192.257224,,,784.18546964774,37.073492,0,3.6496392244,3.4497048348,23,5,14.859,784.18546964774,192.257224,1.11847,3.7385499884,0,0,-13.197946,101.3, -2.5, -1.4,0,0,1024,1024,1684,1024,0,0,100,0,117.7,-11,0,65,3.726,3.718,3.714,3.703,0,0,14.014,105.98,784.18546964774,192.257224,6,P-GPS,
572300,2025-09-08 23:45:32,39.3932775605866,-76.9727241308698,194.225728,,,786.15397364774,37.073492,0,3.6490158648,3.4587599532,23,5,14.859,786.15397364774,194.225728,1.11847,3.7385499884,0,0,-13.197946,101.3, -2.6, -1.4,0,0,1024,1024,1684,1024,0,0,100,0,117.7,-11.4,0,65,3.726,3.718,3.714,3.703,0,0,14.014,105.98,786.15397364774,194.225728,6,P-GPS,
572400,2025-09-08 23:45:32,39.3932775687511,-76.9727241046297,196.194232,,,788.12247764774,37.073492,0,3.643208778,3.4667323944,23,5,14.859,788.12247764774,196.194232,1.11847,3.7385499884,0,0,-13.197946,101.3, -2.6, -1.3,0,0,1024,1024,1684,1024,0,0,100,0,117.7,-11.6,0,65,3.726,3.718,3.714,3.703,0,0,14.014,105.98,788.12247764774,196.194232,6,P-GPS,
572500,2025-09-08 23:45:32,39.3932775651015,-76.9727240823749,198.162736,,,790.09098164774,37.073492,0,3.6417980168,3.4731628408,23,5,14.859,790.09098164774,198.162736,1.11847,3.7385499884,0,0,-13.42164,101.3, -2.5, -1.2,0,0,1024,1024,1684,1024,0,0,100,0,117.7,-11.7,0,65,3.726,3.718,3.714,3.703,0,0,14.014,105.98,790.09098164774,198.162736,6,P-GPS,
572600,2025-09-08 23:45:32,39.3932775700576,-76.972724059455,200.459324,,,792.38756964774,37.073492,0,3.6374344996,3.4798557544,23,5,14.845,792.38756964774,200.459324,1.11847,3.7385499884,0,0,-13.42164,101.3, -2.4, -1.4,0,0,1024,1024,1684,1024,0,0,100,0,117.7,-11.7,0,64,3.724,3.715,3.712,3.7,0,0,14.134,105.98,792.38756964774,200.459324,6,P-GPS,
572700,2025-09-08 23:45:32,39.3932775395755,-76.9727240394396,202.427828,,,794.35607364774,37.073492,0,3.6452100904,3.4923229464,23,5,14.845,794.35607364774,202.427828,1.11847,3.7385499884,0,0,-13.42164,101.3, -2.5, -1.4,0,0,1024,1024,1684,1024,0,0,100,0,117.7,-11.7,0,64,3.724,3.715,3.712,3.7,0,0,14.134,105.98,794.35607364774,202.427828,6,P-GPS,
572800,2025-09-08 23:45:32,39.3932775357117,-76.9727240241135,204.068248,,,795.99649364774,37.073492,0,3.644685156,3.496883314,23,5,14.845,795.99649364774,204.068248,1.11847,3.7385499884,0,0,-13.42164,101.3, -2.5, -1.5,0,0,1024,1024,1684,1024,0,0,100,0,117.7,-11.7,0,64,3.724,3.715,3.712,3.7,0,0,14.134,105.98,795.99649364774,204.068248,6,P-GPS,
572900,2025-09-08 23:45:32,39.3932775890725,-76.9727240566836,206.364836,,,798.29308164774,37.073492,0,3.6308072028,3.5184056244,23,5,14.845,798.29308164774,206.364836,1.11847,3.7385499884,0,0,-13.42164,101.4, -2.5, -1.5,0,0,1024,1024,1684,1024,0,0,100,0,117.7,-11.7,0,64,3.724,3.715,3.712,3.7,0,0,14.134,105.98,798.29308164774,206.364836,6,P-GPS,
573000,2025-09-08 23:45:32,39.3932775991518,-76.9727240736116,208.33334,,,800.26158564774,37.073492,0,3.6294620584,3.52444237,23,5,14.845,800.26158564774,208.33334,1.11847,3.7385499884,0,0,-13.197946,101.3, -2.5, -1.6,0,0,1024,1024,1684,1024,0,0,100,0,117.7,-11.7,0,64,3.724,3.715,3.712,3.7,0,0,14.134,105.98,800.26158564774,208.33334,6,P-GPS,
573100,2025-09-08 23:45:32,39.393277612628,-76.9727240940871,210.301844,,,802.23008964774,37.073492,0,3.6274279376,3.5320211104,23,5,14.845,802.23008964774,210.301844,1.11847,3.7385499884,0,0,-13.197946,101.3, -2.5, -1.5,0,0,1024,1024,1684,1024,0,0,100,0,117.7,-11.8,0,64,3.724,3.715,3.712,3.7,0,0,14.134,105.98,802.23008964774,210.301844,6,P-GPS,
573200,2025-09-08 23:45:32,39.3932776437184,-76.9727241257426,211.942264,,,803.87050964774,37.073492,0,3.6209318744,3.5464568064,23,5,14.845,803.87050964774,211.942264,1.11847,3.7385499884,0,0,-13.197946,101.3, -2.8, -1.5,0,0,1024,1024,1684,1024,0,0,100,0,117.7,-12.1,0,64,3.724,3.715,3.712,3.7,0,0,14.134,105.98,803.87050964774,211.942264,6,P-GPS,
573300,2025-09-08 23:45:33,39.3932775967145,-76.9727241366067,213.910768,,,805.83901364774,37.073492,0,3.6377625836,3.5638780668,23,5,14.845,805.83901364774,213.910768,1.11847,3.7385499884,0,0,-13.197946,101.3, -3.3, -1.4,0,0,1024,1024,1684,1024,0,0,100,0,117.7,-12.6,0,64,3.724,3.715,3.712,3.7,0,0,14.134,105.98,805.83901364774,213.910768,6,P-GPS,
573400,2025-09-08 23:45:33,39.3932776241209,-76.972724187873,215.879272,,,807.80751764774,37.073492,0,3.6348754444,3.5814305608,23,5,14.845,807.80751764774,215.879272,1.11847,3.7385499884,0,0,-13.42164,101.3, -3.5, -1.3,0,0,1024,1024,1684,1024,0,0,100,0,117.7,-13.3,0,64,3.724,3.715,3.712,3.7,0,0,14.134,105.98,807.80751764774,215.879272,6,P-GPS,
573500,2025-09-08 23:45:33,39.3932775983208,-76.9727241392562,217.847776,,,809.77602164774,37.073492,0,3.6375329248,3.5980644196,23,5,14.845,809.77602164774,217.847776,1.11847,3.7385499884,0,0,-13.42164,101.3, -3.6, -1.2,0,0,1024,1024,1684,1024,0,0,100,0,117.7,-13.9,0,64,3.724,3.715,3.712,3.7,0,0,14.134,105.98,809.77602164774,217.847776,6,P-GPS,
573600,2025-09-08 23:45:33,39.3932776218163,-76.9727241474209,219.81628,,,811.74452564774,37.073492,0,3.6307743944,3.606955496,23,5,14.841,811.74452564774,219.81628,1.11847,3.7385499884,0,0,-13.42164,101.3, -3.4, -1.1,0,0,1024,1024,1684,1024,0,0,100,0,117.7,-14.4,0,64,3.718,3.71,3.706,3.695,0,0,14.141,105.98,811.74452564774,219.81628,6,P-GPS,
573700,2025-09-08 23:45:33,39.393277571514,-76.9727242174887,221.4567,,,813.38494564774,37.073492,0,3.6557743952,3.6339240008,23,5,14.841,813.38494564774,221.4567,1.11847,3.7385499884,0,0,-13.42164,101.3, -3.4, -1.2,0,0,1024,1024,1684,1024,0,0,100,0,117.7,-14.6,0,64,3.718,3.71,3.706,3.695,0,0,14.141,105.98,813.38494564774,221.4567,6,P-GPS,
573800,2025-09-08 23:45:33,39.3932775631739,-76.9727242436679,223.753288,,,815.68153364774,37.073492,0,3.6616799072,3.641896442,23,5,14.841,815.68153364774,223.753288,1.11847,3.7385499884,0,0,-13.42164,101.3, -3.4, -1.3,0,0,1024,1024,1684,1024,0,0,100,0,117.7,-14.7,0,64,3.718,3.71,3.706,3.695,0,0,14.141,105.98,815.68153364774,223.753288,6,P-GPS,
573900,2025-09-08 23:45:33,39.3932776173229,-76.9727242343336,225.721792,,,817.65003764774,37.073492,0,3.642716652,3.6618439492,23,5,14.841,817.65003764774,225.721792,1.11847,3.7385499884,0,0,-13.42164,101.4, -3.4, -1.5,0,0,1024,1024,1684,1024,0,0,100,0,117.7,-14.7,0,64,3.718,3.71,3.706,3.695,0,0,14.141,105.98,817.65003764774,225.721792,6,P-GPS,
574000,2025-09-08 23:45:33,39.3932776430244,-76.972724249499,227.690296,,,819.61854164774,37.073492,0,3.6361221636,3.6721457868,23,5,14.841,819.61854164774,227.690296,1.11847,3.7385499884,0,0,-13.42164,101.4, -3.4, -1.5,0,0,1024,1024,1684,1024,0,0,100,0,117.7,-15,0,64,3.718,3.71,3.706,3.695,0,0,14.141,105.98,819.61854164774,227.690296,6,P-GPS,
574100,2025-09-08 23:45:33,39.393277568447,-76.9727242298827,229.6588,,,821.58704564774,37.073492,0,3.658300642,3.6999016932,23,5,14.841,821.58704564774,229.6588,1.11847,3.7385499884,0,0,-13.42164,101.4, -3.4, -1.4,0,0,1024,1024,1684,1024,0,0,100,0,117.7,-15.6,0,64,3.718,3.71,3.706,3.695,0,0,14.141,105.98,821.58704564774,229.6588,6,P-GPS,
574200,2025-09-08 23:45:33,39.3932775624885,-76.9727242210805,231.627304,,,823.55554964774,37.073492,0,3.6591864688,3.7032153416,23,5,14.841,823.55554964774,231.627304,1.11847,3.7385499884,0,0,-13.42164,101.4, -3.2, -1.5,0,0,1024,1024,1684,1024,0,0,100,0,117.7,-16.3,0,64,3.718,3.71,3.706,3.695,0,0,14.141,105.98,823.55554964774,231.627304,6,P-GPS,
574300,2025-09-08 23:45:34,39.3932774839059,-76.972724219462,233.595808,,,825.52405364774,37.073492,0,3.6849410628,3.7318898832,23,5,14.841,825.52405364774,233.595808,1.11847,3.7385499884,0,0,-13.42164,101.4, -3.1, -1.7,0,0,1024,1024,1684,1024,0,0,100,0,117.7,-17.2,0,64,3.718,3.71,3.706,3.695,0,0,14.141,105.98,825.52405364774,233.595808,6,P-GPS,
574400,2025-09-08 23:45:34,39.3932774599006,-76.9727242241624,235.564312,,,827.49255764774,37.073492,0,3.6934384384,3.7407481512,23,5,14.841,827.49255764774,235.564312,1.11847,3.7385499884,0,0,-13.197946,101.4, -3.1, -1.9,0,0,1024,1024,1684,1024,0,0,100,0,117.7,-17.9,0,64,3.718,3.71,3.706,3.695,0,0,14.141,105.98,827.49255764774,235.564312,6,P-GPS,
574500,2025-09-08 23:45:34,39.3932774579987,-76.9727241733894,237.532816,,,829.46106164774,37.073492,0,3.6880250524,3.7550526136,23,5,14.841,829.46106164774,237.532816,1.11847,3.7385499884,0,0,-13.197946,101.4, -3.1, -2,0,0,1024,1024,1684,1024,0,0,100,0,117.7,-18.4,0,64,3.718,3.71,3.706,3.695,0,0,14.141,105.98,829.46106164774,237.532816,6,P-GPS,
574600,2025-09-08 23:45:34,39.3932774394293,-76.9727241645208,239.50132,,,831.42956564774,37.073492,0,3.6931103544,3.76230327,23,5,14.828,831.42956564774,239.50132,1.11847,3.7385499884,0,0,-13.197946,101.3, -2.9, -2,0,0,1024,1024,1684,1024,0,0,100,0,117.7,-18.6,0,64,3.718,3.709,3.706,3.695,0,0,14.1,106.16,831.42956564774,239.50132,6,P-GPS,
574700,2025-09-08 23:45:34,39.3932774181612,-76.972724163584,241.469824,,,833.39806964774,37.073492,0,3.7000657352,3.7700460524,23,5,14.828,833.39806964774,241.469824,1.11847,3.7385499884,0,0,-13.197946,101.3, -2.9, -2,0,0,1024,1024,1684,1024,0,0,100,0,117.7,-18.7,0,64,3.718,3.709,3.706,3.695,0,0,14.1,106.16,833.39806964774,241.469824,6,P-GPS,
574800,2025-09-08 23:45:34,39.393277406407,-76.9727241913928,243.438328,,,835.36657364774,37.073492,0,3.7072507748,3.7790027456,23,5,14.828,835.36657364774,243.438328,1.11847,3.7385499884,0,0,-13.197946,101.3, -3.1, -2,0,0,1024,1024,1684,1024,0,0,100,0,117.7,-18.8,0,64,3.718,3.709,3.706,3.695,0,0,14.1,106.16,835.36657364774,243.438328,6,P-GPS,
